     2.11           OBSERVATION DATA    G (GPS)             RINEX VERSION / TYPE
teqc  2016Nov7                          20180403 09:56:50UTCPGM / RUN BY / DATE
BOGU                                                        MARKER NAME
18647M001                                                   MARKER NUMBER
Automatic           EXAGONE                                 OBSERVER / AGENCY
618-00682           TPS NET-G3A         4.7                 REC # / TYPE / VERS
5186                AERAT1675_120   SPKE                    ANT # / TYPE
  4151675.3430    80688.5510  4825309.5430                  APPROX POSITION XYZ
        0.0720        0.0000        0.0000                  ANTENNA: DELTA H/E/N
     1     1                                                WAVELENGTH FACT L1/2
     9    C1    L1    D1    P2    L2    D2    P1    S1    S2# / TYPES OF OBSERV
    30.0000                                                 INTERVAL
    18                                                      LEAP SECONDS
Linux 2.4.21-27.ELsmp|Opteron|gcc|Linux x86_64|=+           COMMENT
teqc  2016Nov7                          20180403 09:56:49UTCCOMMENT
     2.11           OBSERVATION DATA    M (MIXED)           COMMENT
teqc  2016Nov7                          20180403 09:56:47UTCCOMMENT
teqc  2016Nov7      IGN-RGP             20180221 09:08:25UTCCOMMENT
teqc_2016 edited: GLONASS # 25 - 30 excluded                COMMENT
GN-RINEX 1.3        Geo++ GmbH          21-FEB-18 08:00     COMMENT
Forced Modulo Decimation to 30 seconds                      COMMENT
teqc_2016 edited: all GLONASS satellites excluded           COMMENT
teqc_2016 edited: all SBAS satellites excluded              COMMENT
teqc_2016 edited: all Galileo satellites excluded           COMMENT
  2018     2    21     8     0    0.0000000     GPS         TIME OF FIRST OBS
                                                            END OF HEADER
 18  2 21  8  0  0.0000000  0 12G09G06G07G02G23G30G05G16G29G26G04G03
  20308133.940 9  68971242.891 9      -570.003    20308130.739 8  74769819.942 8
      -444.158    20308133.416          52.750          48.250
  21222195.970 8  77968955.547 8     -1423.986    21222193.392 7  82707022.881 7
     -1109.599    21222195.440          46.750          43.250
  21699907.431 9  76285052.084 9      2812.085    21699902.250 7  84663186.929 7
      2191.235    21699906.900          52.750          40.750
  21844199.705 8  77043308.046 8      1354.310    21844191.845 7  81059720.236 7
      1055.307    21844198.767          45.750          39.000
  22690986.722 8  85687510.170 8     -2042.336    22690979.764 6  84527172.958 6
     -1591.431    22690986.101          48.000          33.250
  23031437.240 8  87476598.183 8      4007.322    23031435.513 6  90115588.875 6
      3122.589    23031436.349          46.000          33.250
  23553847.708 7  94416170.373 7      3800.502    23553842.914 5  92254754.869 5
      2961.430    23553847.114          44.000          27.000
  24304615.694 6  94167198.586 6      1459.739    24304610.420 3  95329012.104 3
      1137.459    24304615.118          37.500          18.250
  24864111.148 7  97107352.607 7      1480.247    24864106.654 4  97620065.123 4
      1153.439    24864111.418          39.250          22.000
  25155829.155 6 111223243.627 6      -383.862    25155828.240 4  98814612.181 4
      -299.113    25155828.558          36.750          20.750
  25333069.034 5  99571740.569 5     -1080.433
                                        30.000
  25555100.869 6 100738514.765 6     -2880.630    25555100.494 2 100449548.201 2
     -2244.647    25555101.286          34.500          13.750
 18  2 21  8  0 30.0000000  0 11G09G06G07G02G23G30G05G16G29G26G03
  20311425.470 9  68988539.838 9      -583.195    20311422.322 8  74783298.075 8
      -454.438    20311424.906          55.000          48.750
  21230374.767 8  78011936.435 8     -1441.544    21230372.447 7  82740514.471 7
     -1123.281    21230374.369          49.250          43.500
  21683894.538 9  76200904.735 9      2797.642    21683889.532 7  84597617.561 7
      2179.981    21683894.124          52.500          40.750
  21836519.568 8  77002948.914 8      1336.160    21836511.642 7  81028271.558 7
      1041.164    21836518.522          50.000          38.750
  22702663.551 8  85748872.862 8     -2048.609    22702656.584 6  84574988.032 6
     -1596.319    22702663.209          47.500          33.000
  23008581.357 7  87356489.947 7      3999.809    23008579.348 6  90021998.069 6
      3116.735    23008580.568          44.000          33.000
  23532163.326 7  94302218.986 7      3796.267    23532158.152 5  92165961.582 5
      2958.131    23532163.338          43.000          27.500
  24296338.646 6  94123701.221 6      1440.096    24296333.261 3  95295118.086 3
      1122.153    24296338.205          37.250          18.500
  24855714.816 7  97063226.060 7      1461.245    24855709.815 4  97585680.803 4
      1138.632    24855714.195          39.750          22.000
  25158072.904 7 111235035.457 7      -402.320    25158071.710 4  98823800.580 4
      -313.496    25158072.280          39.750          20.500
  25571553.032 6 100824966.923 6     -2882.812    25571552.301 3 100516913.407 3
     -2246.347    25571552.214          36.000          14.500
 18  2 21  8  1  0.0000000  0 11G09G06G07G02G23G30G05G16G29G26G03
  20314791.965 9  69006231.575 9      -596.341    20314788.916 8  74797083.842 8
      -464.682    20314791.596          55.500          48.750
  21238653.761 9  78055443.630 9     -1458.960    21238651.731 7  82774416.167 7
     -1136.852    21238653.521          51.250          43.250
  21667964.403 9  76117191.306 9      2783.202    21667959.547 7  84532386.306 7
      2168.729    21667963.891          52.250          41.000
  21828943.363 8  76963136.209 8      1317.921    21828935.655 7  80997248.668 7
      1026.951    21828942.341          49.000          39.000
  22714376.499 8  85810423.810 8     -2054.779    22714369.538 6  84622949.789 6
     -1601.127    22714375.780          47.250          32.750
  22985769.477 7  87236612.095 7      3992.045    22985767.612 6  89928586.793 6
      3110.685    22985768.670          44.250          33.250
  23510503.660 7  94188396.210 7      3791.994    23510498.773 5  92077268.523 5
      2954.800    23510503.573          43.500          27.500
  24288172.836 6  94080787.268 6      1420.754    24288166.816 3  95261678.663 3
      1107.081    24288172.005          37.250          18.750
  24847425.308 7  97019666.791 7      1442.464    24847420.569 4  97551738.478 4
      1123.998    24847425.365          40.000          21.750
  25160420.455 7 111247374.536 7      -420.334    25160419.970 4  98833415.437 4
      -327.533    25160420.180          38.500          21.500
  25588016.378 6 100911481.857 6     -2884.858    25588015.362 3 100584327.539 3
     -2247.941    25588015.898          37.500          17.500
 18  2 21  8  1 30.0000000  0 11G09G06G07G02G23G30G05G16G29G26G03
  20318233.211 9  69024315.357 9      -609.355    20318230.117 8  74811175.094 8
      -474.822    20318232.773          55.750          48.750
  21247032.660 9  78099473.711 9     -1476.413    21247030.409 7  82808725.318 7
     -1150.451    21247032.163          51.000          43.000
  21652117.176 9  76033912.060 9      2768.723    21652111.885 7  84467493.392 7
      2157.446    21652116.529          53.250          41.250
  21821470.961 8  76923869.172 8      1299.807    21821463.259 7  80966650.970 7
      1012.836    21821470.113          48.500          39.000
  22726124.239 8  85872160.214 8     -2061.010    22726117.394 6  84671056.067 6
     -1605.982    22726123.792          45.000          32.500
  22963001.373 8  87116965.522 8      3984.313    22962999.475 6  89835355.738 6
      3104.660    22963000.653          44.500          33.500
  23488868.502 7  94074701.988 7      3787.557    23488863.129 5  91988675.623 5
      2951.343    23488868.250          42.500          27.000
  24280116.873 6  94038457.008 6      1400.985    24280111.776 3  95228694.066 3
      1091.677    24280116.525          36.750          17.500
  24839244.383 7  96976674.027 7      1423.632    24839239.709 4  97518237.610 4
      1109.324    24839243.972          41.750          22.000
  25162872.974 6 111260258.612 6      -438.556    25162871.720 4  98843454.968 4
      -341.732    25162872.251          36.000          21.750
  25604491.206 6 100998057.037 6     -2886.963    25604490.753 3 100651788.639 3
     -2249.581    25604490.558          37.750          16.000
 18  2 21  8  2  0.0000000  0 12G09G04G06G07G02G23G30G05G16G29G26G03
  20321749.246 9  69042791.163 9      -622.470    20321746.020 8  74825571.819 8
      -485.041    20321748.610          55.500          48.500
  20323802.761 5 102608005.662 5      -622.572    20323797.725 4  99999786.315 4
      -485.121    20323800.519          31.750          25.000
  21255510.311 9  78144025.876 9     -1493.777    21255508.450 7  82843441.281 7
     -1163.982    21255510.150          50.750          43.000
  21636352.605 9  75951070.265 9      2754.035    21636347.787 7  84402941.342 7
      2146.001    21636352.062          50.750          40.750
  21814103.193 8  76885150.119 8      1281.409    21814095.347 7  80936480.272 7
       998.500    21814102.179          49.250          39.000
  22737908.079 8  85934082.236 8     -2067.206    22737901.016 6  84719306.973 6
     -1610.810    22737907.506          45.250          32.750
  22940278.091 8  86997554.010 8      3976.437    22940275.989 6  89742307.840 6
      3098.522    22940277.503          45.500          33.250
  23467258.145 7  93961139.719 7      3783.174    23467253.421 5  91900185.546 5
      2947.928    23467257.974          42.750          27.500
  24272173.116 6  93996712.496 6      1381.529    24272167.939 3  95196165.891 3
      1076.516    24272172.747          35.500          16.500
  24831171.350 7  96934249.923 7      1404.810    24831166.559 4  97485179.838 4
      1094.657    24831170.858          39.000          22.250
  25165428.494 7 111273687.834 7      -456.808    25165427.346 4  98853919.278 4
      -355.954    25165427.982          40.000          22.250
  25620976.979 6 101084692.854 6     -2888.804    25620976.874 3 100719296.983 3
     -2251.016    25620976.865          37.750          18.500
 18  2 21  8  2 30.0000000  0 11G09G06G07G02G23G30G05G16G29G26G03
  20325339.479 9  69061659.271 9      -635.378    20325336.472 8  74840274.239 8
      -495.100    20325339.084          55.750          48.500
  21264087.964 9  78189099.762 9     -1511.163    21264085.668 7  82878563.787 7
     -1177.529    21264087.494          50.750          43.250
  21620672.068 9  75868668.834 9      2739.419    21620667.212 7  84338732.440 7
      2134.613    21620671.696          51.500          41.000
  21806839.794 8  76846981.490 8      1263.125    21806832.017 7  80906738.482 7
       984.253    21806838.862          46.750          38.750
  22749726.716 8  85996190.183 8     -2073.343    22749719.518 6  84767702.756 6
     -1615.592    22749726.230          44.750          32.750
  22917600.347 8  86878381.647 8      3968.453    22917598.378 6  89649446.292 6
      3092.301    22917599.418          46.250          33.500
  23445673.022 7  93847711.220 7      3778.678    23445668.226 5  91811799.702 5
      2944.425    23445673.040          42.750          27.750
  24264341.872 6  93955557.011 6      1361.821    24264336.122 3  95164096.709 3
      1061.159    24264340.322          37.250          16.500
  24823207.276 7  96892396.627 7      1385.781    24823202.141 4  97452566.871 4
      1079.829    24823206.865          39.750          23.000
  25168088.274 7 111287662.793 7      -474.724    25168086.844 4  98864808.834 4
      -369.915    25168087.273          39.750          21.750
  25637475.220 6 101171389.774 6     -2890.821    25637474.854 3 100786852.911 3
     -2252.588    25637474.869          38.250          19.250
 18  2 21  8  3  0.0000000  0 11G09G06G07G02G23G30G05G16G29G26G03
  20329003.914 9  69080915.661 9      -648.308    20329000.803 8  74855279.213 8
      -505.175    20329003.384          56.000          48.500
  21272763.367 9  78234690.512 9     -1528.246    21272761.383 7  82914089.045 7
     -1190.841    21272763.071          51.500          43.250
  21605075.261 9  75786706.936 9      2724.787    21605070.533 7  84274866.031 7
      2123.210    21605074.754          51.250          41.000
  21799681.137 8  76809361.460 8      1244.883    21799673.093 7  80877424.172 7
       970.039    21799680.100          49.250          38.500
  22761580.468 8  86058479.699 8     -2079.244    22761573.339 6  84816240.023 6
     -1620.190    22761579.553          46.750          32.500
  22894968.004 7  86759448.088 7      3960.536    22894965.981 6  89556770.831 6
      3086.132    22894967.381          44.250          34.000
  23424114.317 7  93734416.311 7      3774.300    23424109.044 5  91723517.957 5
      2941.013    23424113.981          42.750          28.500
  24256621.739 6  93914989.238 6      1342.267    24256615.956 3  95132485.479 3
      1045.922    24256621.020          38.000          16.500
  24815350.714 7  96851112.157 7      1366.819    24815345.822 4  97420397.139 4
      1065.054    24815350.732          41.750          22.000
  25170850.954 7 111302179.716 7      -492.746    25170849.300 4  98876120.698 4
      -383.958    25170850.217          38.500          21.750
  25653983.769 6 101258144.046 6     -2892.623    25653983.178 3 100854453.505 3
     -2253.992    25653983.688          37.250          17.750
 18  2 21  8  3 30.0000000  0 11G09G06G07G02G23G30G05G16G29G26G03
  20332742.341 9  69100561.391 9      -661.383    20332739.352 8  74870587.568 8
      -515.363    20332741.976          56.500          48.500
  21281537.477 9  78280798.474 9     -1545.547    21281535.460 7  82950017.331 7
     -1204.323    21281537.096          51.500          43.000
  21589562.683 8  75705188.776 8      2709.835    21589557.973 7  84211345.380 7
      2111.560    21589562.383          50.250          41.500
  21792627.608 8  76772293.143 8      1226.387    21792619.289 7  80848539.766 7
       955.626    21792626.268          48.000          39.000
  22773468.918 8  86120952.038 8     -2085.504    22773461.294 5  84864919.748 5
     -1625.068    22773467.910          44.750          32.250
  22872381.931 8  86640758.183 8      3952.288    22872380.034 6  89464285.227 6
      3079.705    22872381.239          46.500          33.750
  23402580.959 7  93621258.544 7      3769.628    23402576.037 5  91635343.073 5
      2937.373    23402580.839          43.250          29.000
  24249014.949 6  93875013.019 6      1322.488    24249008.869 3  95101335.170 3
      1030.510    24249014.371          37.000          16.750
  24807604.158 7  96810399.595 7      1347.552    24807598.351 4  97388673.035 4
      1050.041    24807603.187          40.000          22.000
  25173716.377 7 111317239.998 7      -510.995    25173715.076 4  98887855.959 4
      -398.178    25173716.338          40.500          21.750
  25670504.057 7 101344957.411 7     -2894.731    25670503.349 3 100922100.208 3
     -2255.635    25670503.946          38.750          18.500
 18  2 21  8  4  0.0000000  0 12G09G04G06G07G02G23G30G05G16G29G26G03
  20336554.730 9  69120594.274 9      -674.263    20336551.447 8  74886197.604 8
      -525.400    20336554.059          56.250          48.250
  20363789.967 5 102818144.264 5      -674.135    20363776.317 4 100163536.598 4
      -525.300    20363778.170          32.250          23.250
  21290409.139 8  78327420.708 8     -1562.651    21290407.296 7  82986346.346 7
     -1217.650    21290409.017          50.000          43.250
  21574135.120 9  75624115.291 9      2694.991    21574130.281 7  84148171.234 7
      2099.993    21574134.742          51.750          41.250
  21785678.425 8  76735776.491 8      1207.949    21785670.534 7  80820085.232 7
       941.259    21785677.420          50.000          39.000
  22785390.614 8  86183605.173 8     -2091.480    22785383.746 5  84913740.347 5
     -1629.725    22785390.386          46.000          32.250
  22849842.596 8  86522313.520 8      3944.029    22849840.638 6  89371990.722 6
      3073.269    22849842.158          45.250          34.500
  23381073.833 7  93508237.534 7      3764.950    23381068.935 5  91547274.771 5
      2933.727    23381073.348          43.750          29.750
  24241519.661 6  93835628.655 6      1302.887    24241513.908 3  95070646.075 3
      1015.236    24241519.457          37.750          16.500
  24799964.751 7  96770259.014 7      1328.299    24799959.780 4  97357394.654 4
      1035.038    24799964.409          40.750          21.500
  25176685.225 6 111332841.607 6      -529.081    25176684.106 4  98900013.059 4
      -412.271    25176684.937          38.250          21.250
  25687034.841 6 101431827.583 6     -2896.609    25687034.805 3 100989791.164 3
     -2257.098    25687034.955          36.000          17.250
 18  2 21  8  4 30.0000000  0 11G09G06G07G02G23G30G05G16G29G26G03
  20340439.495 9  69141009.854 9      -686.827    20340436.401 8  74902105.842 8
      -535.190    20340439.063          55.500          48.500
  21299378.126 8  78374551.950 8     -1579.470    21299376.283 7  83023071.997 7
     -1230.756    21299377.806          50.000          43.000
  21558791.964 9  75543484.936 9      2680.313    21558786.661 7  84085342.388 7
      2088.555    21558791.541          52.000          41.500
  21778833.995 8  76699808.850 8      1189.859    21778825.913 7  80792058.502 7
       927.163    21778832.970          48.500          39.000
  22797347.012 8  86246434.526 8     -2097.139    22797339.979 5  84962698.258 5
     -1634.134    22797346.430          45.750          32.000
  22827349.684 8  86404113.390 8      3935.929    22827348.089 6  89279886.753 6
      3066.958    22827348.856          46.000          34.250
  23359592.490 8  93395352.157 8      3760.616    23359587.786 5  91459312.141 5
      2930.350    23359591.956          44.500          30.000
  24234138.414 7  93796834.067 7      1283.159    24234132.424 3  95040416.521 3
       999.864    24234137.059          38.500          16.250
  24792434.198 7  96730687.321 7      1309.681    24792429.818 4  97326559.546 4
      1020.530    24792434.513          40.500          21.500
  25179756.358 7 111348980.317 7      -546.953    25179755.369 4  98912588.648 4
      -426.197    25179755.894          40.000          22.000
  25703576.046 6 101518750.837 6     -2898.197    25703575.491 3 101057523.492 3
     -2258.335    25703575.887          36.500          15.000
 18  2 21  8  5  0.0000000  0 11G09G06G07G02G30G23G05G16G29G26G03
  20344396.608 9  69161804.011 9      -699.535    20344393.404 8  74918309.079 8
      -545.092    20344396.009          56.250          48.250
  21308443.128 9  78422187.294 9     -1596.327    21308440.870 7  83060190.449 7
     -1243.891    21308442.498          52.250          43.000
  21543532.510 9  75463296.384 9      2665.465    21543527.227 7  84022857.810 7
      2076.985    21543532.045          53.000          41.250
  21772093.569 8  76664388.028 8      1171.509    21772085.553 7  80764457.862 7
       912.864    21772092.643          48.500          39.250
  22804904.033 8  86286157.424 8      3927.655    22804901.668 6  89187973.061 6
      3060.510    22804903.056          45.250          34.750
  22809335.856 8  86309435.921 8     -2102.923    22809328.802 5  85011790.230 5
     -1638.641    22809335.173          46.750          32.250
  23338136.970 8  93282601.898 8      3755.994    23338131.817 5  91371454.807 5
      2926.749    23338136.727          46.000          30.500
  24226867.104 6  93758627.883 6      1263.613    24226861.057 3  95010645.461 3
       984.633    24226865.881          37.750          16.750
  24785012.695 7  96691682.455 7      1290.681    24785007.580 4  97296166.116 4
      1005.725    24785012.401          42.000          22.000
  25182928.687 7 111365652.163 7      -564.446    25182927.725 4  98925579.666 4
      -439.828    25182928.321          38.750          21.500
  25720126.061 6 101605723.192 6     -2900.084    25720125.947 3 101125294.078 3
     -2259.805    25720126.001          34.750          17.000
 18  2 21  8  5 30.0000000  0 11G09G06G07G02G30G23G05G16G29G26G03
  20348425.486 9  69182975.927 9      -712.044    20348422.317 8  74934806.668 8
      -554.840    20348424.917          55.000          48.250
  21317603.223 9  78470325.110 9     -1613.026    21317601.284 7  83097700.440 7
     -1256.903    21317602.864          50.500          42.500
  21528357.561 9  75383551.999 9      2650.709    21528352.357 7  83960719.341 7
      2065.487    21528357.315          51.750          41.500
  21765457.498 8  76629515.832 8      1153.175    21765449.824 7  80737284.725 7
       898.578    21765456.617          48.750          39.000
  22782504.545 8  86168448.611 8      3919.423    22782502.564 6  89096251.964 6
      3054.096    22782503.682          46.500          35.000
  22821357.366 8  86372608.586 8     -2108.608    22821350.063 5  85061015.663 5
     -1643.072    22821356.784          47.250          32.000
  23316707.113 8  93169988.933 8      3751.431    23316702.061 5  91283704.445 5
      2923.193    23316706.954          44.750          30.250
  24219708.063 6  93721011.879 6      1244.034    24219703.575 3  94981334.278 3
       969.377    24219707.985          36.750          16.500
  24777697.900 7  96653245.789 7      1271.507    24777693.691 4  97266215.449 4
       990.784    24777697.729          42.000          22.500
  25186203.203 7 111382856.632 7      -582.290    25186201.477 4  98938985.710 4
      -453.733    25186202.421          41.250          21.250
  25736685.865 6 101692744.376 6     -2901.430    25736684.447 2 101193102.694 2
     -2260.855    25736685.847          34.250          12.500
 18  2 21  8  6  0.0000000  0 11G09G06G07G02G30G23G05G16G29G26G03
  20352526.506 9  69204527.100 9      -724.727    20352523.247 8  74951599.781 8
      -564.722    20352525.987          55.000          48.250
  21326859.334 9  78518966.053 9     -1629.804    21326857.211 7  83135602.465 7
     -1269.977    21326858.959          50.750          42.750
  21513268.047 9  75304256.252 9      2635.695    21513262.918 7  83898930.459 7
      2053.788    21513267.763          52.000          41.750
  21758926.750 8  76595195.631 8      1134.806    21758918.869 7  80710541.709 7
       884.265    21758925.731          48.250          38.750
  22760153.225 8  86050992.161 8      3910.939    22760150.796 6  89004727.490 6
      3047.485    22760152.484          47.750          34.750
  22833411.355 8  86435954.094 8     -2114.459    22833403.962 5  85110375.774 5
     -1647.630    22833410.795          45.750          31.750
  23295304.815 8  93057516.861 8      3746.604    23295299.449 5  91196063.875 5
      2919.431    23295304.668          45.500          30.500
  24212664.229 6  93683990.017 6      1224.458    24212659.106 3  94952486.091 3
       954.123    24212663.267          37.750          17.000
  24770492.388 7  96615380.440 7      1252.656    24770487.630 4  97236709.948 4
       976.096    24770492.262          42.000          22.250
  25189578.471 6 111400595.253 6      -600.180    25189576.966 4  98952808.002 4
      -467.673    25189577.625          36.250          20.750
  25753255.520 5 101779816.540 5     -2903.262    25753256.141 1 101260951.021 1
     -2262.282    25753253.943          31.500           8.250
 18  2 21  8  6 30.0000000  0 11G09G06G07G02G30G23G05G16G29G26G03
  20356699.980 9  69226459.639 9      -737.317    20356696.823 8  74968690.063 8
      -574.533    20356699.533          55.750          48.250
  21336211.350 9  78568111.408 9     -1646.469    21336209.111 7  83173897.539 7
     -1282.963    21336210.970          51.250          42.500
  21498264.946 9  75225414.044 9      2620.584    21498259.688 7  83837494.987 7
      2042.014    21498264.466          52.750          41.750
  21752501.584 8  76561431.258 8      1116.281    21752493.774 7  80684231.806 7
       869.829    21752500.444          48.250          38.750
  22737850.621 8  85933793.937 8      3902.427    22737848.900 6  88913404.235 6
      3040.852    22737849.928          45.250          35.000
  22845499.152 8  86499474.685 8     -2120.160    22845491.744 5  85159872.315 5
     -1652.073    22845498.606          45.000          31.500
  23273929.412 8  92945190.147 8      3741.871    23273924.244 5  91108536.570 5
      2915.744    23273929.235          45.000          30.250
  24205733.726 7  93647567.085 7      1204.031    24205727.512 3  94924104.580 3
       938.206    24205732.236          38.750          17.250
  24763396.564 7  96578090.530 7      1233.521    24763391.627 4  97207652.854 4
       961.185    24763396.160          41.750          22.000
  25193055.491 6 111418870.338 6      -617.863    25193054.639 4  98967048.298 4
      -481.452    25193055.389          38.250          20.750
  25769834.100 6 101866941.493 6     -2905.463    25769836.058 2 101328840.500 2
     -2263.997    25769834.082          32.750          12.000
 18  2 21  8  7  0.0000000  0 10G09G06G07G02G30G23G05G16G29G26
  20360946.234 9  69248772.877 9      -750.017    20360942.934 8  74986076.996 8
      -584.429    20360945.596          55.750          48.000
  21345659.103 9  78617759.640 9     -1663.169    21345656.920 7  83212584.451 7
     -1295.976    21345658.623          50.500          42.250
  21483348.433 9  75147027.784 9      2605.312    21483343.358 7  83776414.792 7
      2030.113    21483348.071          53.000          41.500
  21746182.522 8  76528224.548 8      1097.714    21746174.563 7  80658356.444 7
       855.361    21746181.431          47.000          39.250
  22715598.342 8  85816857.059 8      3893.561    22715596.442 6  88822284.628 6
      3033.944    22715597.890          47.000          34.750
  22857620.331 8  86563169.586 8     -2125.961    22857612.056 5  85209504.687 5
     -1656.593    22857619.527          47.250          31.250
  23252582.240 7  92833011.400 7      3736.953    23252577.504 5  91021124.566 5
      2911.911    23252582.063          44.000          29.750
  24198917.399 6  93611744.516 6      1184.031    24198910.753 3  94896190.895 3
       922.622    24198915.861          38.250          16.750
  24756410.657 7  96541377.011 7      1214.425    24756405.782 4  97179044.904 4
       946.305    24756409.709          43.000          22.000
  25196634.983 7 111437681.354 7      -635.914    25196634.185 3  98981706.228 3
      -495.517    25196635.183          38.750          19.250
 18  2 21  8  7 30.0000000  0 11G09G06G07G02G30G23G05G16G29G26G03
  20365264.415 9  69271466.659 9      -762.797    20365261.447 8  75003760.455 8
      -594.387    20365264.040          56.250          48.000
  21355202.399 9  78667909.777 9     -1679.999    21355200.154 7  83251662.460 7
     -1309.090    21355202.066          51.750          42.500
  21468519.205 9  75069100.279 9      2589.918    21468514.232 7  83715692.080 7
      2018.118    21468518.819          52.500          41.250
  21739970.253 8  76495576.554 8      1078.936    21739962.098 7  80632916.444 7
       840.729    21739969.009          49.750          38.750
  22693396.795 8  85700185.134 8      3884.673    22693394.550 6  88731371.478 6
      3027.018    22693395.698          44.750          34.500
  22869773.965 8  86627038.791 8     -2131.877    22869766.161 5  85259272.883 5
     -1661.203    22869772.976          46.500          30.750
  23231264.322 8  92720983.483 8      3731.699    23231259.505 5  90933830.099 5
      2907.817    23231264.071          45.000          30.000
  24192215.191 7  93576524.924 7      1163.758    24192208.598 3  94868747.067 3
       906.824    24192214.004          38.750          16.750
  24749534.632 7  96505241.492 7      1194.790    24749529.367 4  97150887.339 4
       931.005    24749533.735          41.750          22.000
  25200316.884 7 111457028.193 7      -653.857    25200316.089 3  98996781.665 3
      -509.499    25200316.542          38.750          19.000
  25803022.333 5 102041350.607 5     -2908.316    25803024.600 1 101464755.376 1
     -2266.221    25803021.275          28.250           1.000
 18  2 21  8  8  0.0000000  0 12G09G06G07G02G30G23G05G16G29G26G03G04
  20369654.585 9  69294538.026 9      -775.093    20369651.832 8  75021738.132 8
      -603.969    20369654.351          55.000          48.000
  21364840.253 8  78718557.980 8     -1696.413    21364838.220 7  83291128.589 7
     -1321.880    21364840.016          50.000          42.500
  21453777.298 9  74991631.536 9      2574.829    21453772.510 7  83655326.835 7
      2006.361    21453776.956          51.250          42.250
  21733863.357 8  76463487.110 8      1060.457    21733855.545 7  80607911.678 7
       826.330    21733862.269          48.250          39.250
  22671245.200 8  85583778.948 8      3875.898    22671242.966 6  88640665.376 6
      3020.180    22671244.531          46.000          34.500
  22881959.695 8  86691079.246 8     -2137.308    22881952.602 5  85309174.537 5
     -1665.435    22881959.485          46.500          30.750
  23209974.936 8  92609106.537 8      3726.838    23209969.590 5  90846653.272 5
      2904.030    23209974.609          44.750          29.500
  24185626.763 6  93541907.852 6      1143.997    24185621.181 3  94841772.729 3
       891.426    24185625.948          38.250          17.750
  24742768.010 7  96469682.930 7      1175.931    24742762.878 4  97123179.352 4
       916.310    24742767.117          40.500          21.000
  25204100.237 7 111476908.008 7      -671.468    25204099.326 3  99012272.412 3
      -523.222    25204099.662          38.500          18.750
  25819632.574 5 102128632.975 5     -2909.859
                                        26.500
  26249109.338 5 104385572.505 5      -774.923
                                        31.750
 18  2 21  8  8 30.0000000  0 10G09G06G07G02G30G23G05G16G29G26
  20374116.360 9  69317982.796 9      -787.682    20374113.263 8  75040006.773 8
      -613.778    20374115.880          56.000          47.750
  21374572.308 9  78769699.152 9     -1712.914    21374570.257 7  83330978.843 7
     -1334.738    21374572.008          51.500          42.750
  21439122.534 9  74914620.348 9      2559.418    21439117.708 7  83595318.126 7
      1994.351    21439122.118          52.250          42.250
  21727863.035 8  76431953.540 8      1041.878    21727855.040 7  80583340.058 7
       811.853    21727861.722          49.000          39.250
  22649144.497 8  85467638.009 8      3866.974    22649142.092 6  88550165.966 6
      3013.226    22649143.696          46.250          34.750
  22894179.134 8  86755287.048 8     -2143.013    22894171.039 5  85359206.563 5
     -1669.880    22894178.018          46.500          30.750
  23188713.798 8  92497379.062 8      3721.789    23188708.519 5  90759592.917 5
      2900.095    23188713.418          45.500          30.000
  24179152.673 6  93507891.171 6      1124.120    24179148.053 3  94815266.229 3
       875.938    24179152.382          37.750          17.250
  24736109.245 7  96434698.882 7      1156.517    24736105.495 3  97095919.016 3
       901.182    24736109.599          39.750          20.250
  25207982.889 6 111497316.653 6      -688.936    25207982.844 3  99028175.240 3
      -536.833    25207982.781          33.750          19.000
 18  2 21  8  9  0.0000000  0 10G09G06G07G02G30G23G05G16G29G26
  20378649.117 9  69341802.799 9      -800.096    20378646.203 8  75058567.807 8
      -623.452    20378648.655          54.500          48.000
  21384398.248 9  78821334.196 9     -1729.262    21384395.994 7  83371213.933 7
     -1347.477    21384397.831          51.750          42.500
  21424555.967 9  74838071.270 9      2543.985    21424550.963 7  83535669.498 7
      1982.326    21424555.349          52.000          41.750
  21721968.720 8  76400979.691 8      1023.254    21721960.877 7  80559204.590 7
       797.340    21721967.749          50.000          39.250
  22627094.923 8  85351767.964 8      3857.881    22627092.912 6  88459877.634 6
      3006.141    22627094.018          47.500          35.000
  22906428.794 8  86819664.013 8     -2148.516    22906421.731 5  85409370.421 5
     -1674.168    22906428.153          46.000          30.500
  23167482.062 8  92385805.921 8      3716.685    23167477.037 5  90672652.813 5
      2896.118    23167481.876          46.000          30.250
  24172795.112 6  93474479.491 6      1103.796    24172790.690 3  94789231.150 3
       860.101    24172794.567          36.750          18.250
  24729562.842 7  96400292.789 7      1137.379    24729558.471 3  97069109.066 3
       886.269    24729562.467          39.750          20.250
  25211967.910 6 111518256.066 6      -706.776    25211967.649 3  99044491.631 3
      -550.735    25211967.670          37.500          19.750
 18  2 21  8  9 30.0000000  0 11G09G04G06G07G02G30G23G05G16G29G26
  20383251.944 9  69365990.621 9      -812.297    20383249.009 8  75077415.450 8
      -632.958    20383251.462          54.750          47.500
  20464134.768 5 107539755.607 5      -812.132    20464131.806 4 100574420.438 4
      -632.830    20464135.032          31.500          24.500
  21394316.381 9  78873454.832 9     -1745.398    21394314.243 7  83411827.404 7
     -1360.051    21394315.958          51.250          42.500
  21410075.943 9  74761979.829 9      2528.750    21410071.071 7  83476377.479 7
      1970.454    21410075.688          52.500          41.750
  21716180.048 8  76370560.052 8      1004.784    21716172.152 7  80535500.973 7
       782.948    21716179.101          49.500          39.500
  22605096.665 8  85236165.203 8      3848.963    22605094.366 6  88369797.581 6
      2999.192    22605095.796          47.000          35.500
  22918710.689 8  86884202.898 8     -2153.938    22918703.446 5  85459660.438 5
     -1678.393    22918709.897          45.750          31.000
  23146279.252 8  92274381.979 8      3711.666    23146273.970 5  90585828.978 5
      2892.207    23146279.012          44.750          30.750
  24166551.404 7  93441667.508 7      1083.883    24166546.520 3  94763663.349 3
       844.585    24166550.375          38.500          18.000
  24723124.457 7  96366459.409 7      1118.212    24723119.867 3  97042745.383 3
       871.334    24723123.923          40.500          20.250
  25216052.444 6 111539718.837 6      -724.209    25216051.887 3  99061215.840 3
      -564.319    25216051.476          35.250          19.500
 18  2 21  8 10  0.0000000  0 10G09G07G06G02G30G23G05G16G29G26
  20387924.387 9  69390544.199 9      -824.597    20387921.344 8  75096548.100 8
      -642.543    20387923.838          56.750          48.000
  21395683.572 9  74686346.952 9      2513.324    21395678.848 7  83417442.787 7
      1958.434    21395683.150          52.750          41.750
  21404326.220 9  78926058.054 9     -1761.544    21404324.212 7  83452816.912 7
     -1372.631    21404326.046          51.750          42.250
  21710497.006 8  76340694.403 8       986.214    21710488.932 7  80512229.033 7
       768.478    21710495.827          49.000          39.250
  22583148.916 8  85120831.354 8      3839.929    22583147.055 6  88279927.066 6
      2992.153    22583148.182          46.500          35.750
  22931021.849 8  86948901.414 8     -2159.334    22931015.026 5  85510074.852 5
     -1682.598    22931021.282          46.000          30.500
  23125104.452 8  92163108.367 8      3706.543    23125099.347 5  90499122.270 5
      2888.215    23125103.982          45.750          30.750
  24160422.192 7  93409455.755 7      1063.669    24160416.748 3  94738563.268 3
       828.833    24160420.918          39.250          18.000
  24716794.792 7  96333198.071 7      1099.206    24716790.751 4  97016827.447 4
       856.524    24716794.924          40.250          21.000
  25220235.146 6 111561702.864 6      -741.491    25220235.637 3  99078346.232 3
      -577.785    25220235.098          37.250          19.000
 18  2 21  8 10 30.0000000  0 10G09G07G06G02G30G23G05G16G29G26
  20392666.189 9  69415462.057 9      -836.600    20392663.047 8  75115964.603 8
      -651.896    20392665.565          56.750          47.750
  21381378.801 9  74611173.804 9      2498.138    21381373.654 7  83358866.323 7
      1946.601    21381378.277          53.500          41.750
  21414427.544 9  78979141.417 9     -1777.379    21414425.710 7  83494180.549 7
     -1384.971    21414427.481          51.500          42.250
  21704919.052 8  76311383.135 8       967.835    21704911.114 7  80489389.077 7
       754.158    21704918.102          49.250          39.250
  22561253.922 8  85005768.705 8      3830.852    22561251.518 6  88190267.889 6
      2985.079    22561252.987          47.250          36.500
  22943363.852 8  87013758.465 8     -2164.569    22943357.340 5  85560612.790 5
     -1686.677    22943363.270          46.500          30.500
  23103958.354 8  92051986.507 8      3701.460    23103953.312 5  90412533.804 5
      2884.254    23103958.294          45.000          31.250
  24154407.228 6  93377845.055 6      1043.593    24154401.340 3  94713931.558 3
       813.189    24154405.630          37.500          17.750
  24710574.473 7  96300508.856 7      1080.207    24710569.641 3  96991355.315 3
       841.720    24710574.009          41.500          19.750
  25224518.145 6 111584206.756 6      -758.682    25224517.267 3  99095881.712 3
      -591.181    25224518.184          35.500          18.750
 18  2 21  8 11  0.0000000  0 10G09G07G06G02G30G23G05G16G29G26
  20397477.924 9  69440748.351 9      -848.868    20397474.917 8  75135668.197 8
      -661.456    20397477.396          55.000          47.750
  21367162.250 9  74536467.490 9      2482.569    21367157.397 7  83300653.629 7
      1934.469    21367162.035          51.250          42.000
  21424621.225 9  79032708.119 9     -1793.396    21424619.232 7  83535920.824 7
     -1397.451    21424620.848          50.750          42.500
  21699448.029 8  76282632.373 8       949.208    21699440.156 7  80466985.884 7
       739.643    21699446.979          48.500          39.250
  22539410.765 8  84890985.123 8      3821.673    22539408.903 6  88100826.150 6
      2977.927    22539410.111          46.500          36.750
  22955736.478 7  87078778.351 7     -2169.860    22955729.736 5  85611277.611 5
     -1690.800    22955735.597          43.500          29.500
  23082843.015 8  91941023.830 8      3696.222    23082837.871 5  90326069.395 5
      2880.173    23082842.862          47.500          31.250
  24148507.963 7  93346841.354 7      1023.485    24148501.817 3  94689772.816 3
       797.521    24148505.894          40.500          19.250
  24704463.246 7  96268397.516 7      1060.932    24704459.352 4  96966333.466 4
       826.700    24704463.807          38.750          21.250
  25228900.533 6 111607234.598 6      -775.985    25228900.110 3  99113825.455 3
      -604.663    25228899.873          37.500          19.250
 18  2 21  8 11 30.0000000  0 10G09G07G06G02G30G23G05G16G29G26
  20402359.334 9  69466400.057 9      -861.124    20402356.216 8  75155656.532 8
      -671.006    20402358.746          55.750          48.000
  21353035.157 9  74462227.913 9      2466.904    21353030.181 7  83242804.619 7
      1922.263    21353034.744          52.750          42.000
  21434906.151 9  79086754.196 9     -1809.497    21434903.570 7  83578034.637 7
     -1409.998    21434905.459          52.500          42.000
  21694083.282 8  76254440.845 8       930.456    21694075.490 7  80445018.451 7
       725.031    21694082.358          48.000          39.250
  22517621.567 8  84776481.371 8      3812.106    22517619.708 6  88011602.478 6
      2970.472    22517621.240          47.750          37.000
  22968139.543 8  87143957.968 8     -2175.136    22968132.899 5  85662066.907 5
     -1694.911    22968139.063          45.750          29.750
  23061757.742 8  91830220.236 8      3690.779    23061752.988 5  90239728.934 5
      2875.932    23061757.332          46.250          31.250
  24142723.578 7  93316444.313 7      1003.244    24142717.058 3  94666086.801 3
       781.749    24142721.711          40.250          19.000
  24698462.570 7  96236863.080 7      1041.674    24698458.634 4  96941761.162 4
       811.694    24698462.741          40.000          21.500
  25233381.833 6 111630783.379 6      -793.531    25233380.742 3  99132175.111 3
      -618.336    25233381.324          38.250          19.250
 18  2 21  8 12  0.0000000  0 10G09G07G06G02G30G23G05G16G29G26
  20407310.127 9  69492416.427 9      -873.310    20407306.811 8  75175929.023 8
      -680.502    20407309.471          55.750          47.500
  21338997.160 9  74388457.128 9      2451.158    21338992.093 7  83185320.905 7
      1909.994    21338996.809          52.250          42.000
  21445281.456 9  79141277.912 9     -1825.443    21445279.309 7  83620520.635 7
     -1422.423    21445281.018          50.750          41.750
  21688825.297 8  76226809.425 8       911.672    21688817.388 7  80423487.468 7
       710.394    21688824.193          49.500          39.250
  22495885.499 8  84662260.420 8      3802.620    22495883.925 6  87922599.164 6
      2963.081    22495885.199          47.000          36.750
  22980573.786 8  87209297.083 8     -2180.686    22980566.411 5  85712980.474 5
     -1699.236    22980573.054          45.500          29.750
  23040702.560 8  91719577.401 8      3685.327    23040698.281 5  90153513.739 5
      2871.684    23040702.727          44.750          31.000
  24137054.713 7  93286655.396 7       982.559    24137048.525 3  94642874.654 3
       765.631    24137053.517          39.500          18.750
  24692572.176 7  96205906.033 7      1022.391    24692567.649 4  96917638.768 4
       796.668    24692571.711          39.750          21.000
  25237961.808 7 111654852.222 7      -810.893    25237961.397 3  99150930.028 3
      -631.865    25237961.439          39.000          19.250
 18  2 21  8 12 30.0000000  0 10G09G07G06G02G30G23G05G16G29G26
  20412329.471 9  69518794.931 9      -885.308    20412326.395 8  75196483.695 8
      -689.850    20412329.145          54.500          47.750
  21325048.443 9  74315155.555 9      2435.584    21325043.356 7  83128202.812 7
      1897.857    21325048.047          52.250          42.500
  21455747.216 9  79196275.728 9     -1841.118    21455745.142 7  83663376.059 7
     -1434.637    21455746.749          50.500          41.750
  21683673.393 8  76199737.466 8       893.092    21683665.716 7  80402392.430 7
       695.916    21683672.494          47.750          39.250
  22474204.985 8  84548323.519 8      3793.207    22474202.634 6  87833817.195 6
      2955.746    22474204.079          47.750          37.000
  22993036.830 8  87274792.898 8     -2185.766    22993029.464 5  85764016.153 5
     -1703.194    22993036.278          45.250          29.500
  23019679.718 8  91609096.329 8      3680.008    23019674.388 5  90067424.597 5
      2867.539    23019679.011          44.500          31.500
  24131501.918 7  93257474.130 7       962.662    24131495.889 3  94620135.999 3
       750.126    24131499.370          39.500          17.250
  24686791.326 7  96175525.693 7      1003.064    24686786.218 4  96893965.766 4
       781.609    24686790.532          39.500          21.500
  25242640.396 6 111679438.561 6      -828.141    25242640.111 3  99170088.185 3
      -645.305    25242640.312          37.250          19.250
 18  2 21  8 13  0.0000000  0 10G09G07G06G02G30G05G23G16G29G26
  20417417.636 9  69545532.414 9      -897.179    20417414.497 8  75217318.093 8
      -699.100    20417417.207          54.000          47.750
  21311188.813 9  74242322.306 9      2419.987    21311183.435 7  83071449.645 7
      1885.704    21311188.357          52.500          42.250
  21466302.225 8  79251743.486 8     -1856.781    21466300.352 7  83706597.670 7
     -1446.843    21466301.883          47.750          42.000
  21678628.462 8  76173223.793 8       874.538    21678620.472 7  80381732.418 7
       681.458    21678627.224          48.750          39.250
  22452576.985 8  84434671.201 8      3783.753    22452575.154 6  87745256.978 6
      2948.379    22452576.017          47.750          36.250
  22998686.326 8  91498776.473 8      3674.661    22998680.822 5  89981461.076 5
      2863.372    22998686.092          45.500          31.750
  23005530.282 8  87340442.399 8     -2190.878    23005522.676 5  85815171.587 5
     -1707.178    23005529.008          46.000          29.500
  24126063.533 7  93228899.726 7       942.448    24126058.068 3  94597870.224 3
       734.375    24126062.406          39.750          18.750
  24681119.265 7  96145720.191 7       983.913    24681114.678 4  96870740.675 4
       766.685    24681119.343          39.750          21.500
  25247417.439 6 111704539.131 6      -844.954    25247416.428 3  99189647.042 3
      -658.406    25247416.683          37.500          18.750
 18  2 21  8 13 30.0000000  0 10G09G07G06G02G30G05G23G16G29G26
  20422574.588 9  69572631.778 9      -909.437    20422571.479 8  75238434.480 8
      -708.652    20422574.057          55.500          48.000
  21297419.429 9  74169963.766 9      2403.882    21297414.018 7  83015066.379 7
      1873.155    21297418.926          52.750          42.500
  21476947.259 8  79307682.984 8     -1872.583    21476945.247 7  83750186.853 7
     -1459.156    21476946.941          49.750          41.500
  21673690.017 8  76147272.847 8       855.386    21673682.051 7  80361510.898 7
       666.535    21673688.749          47.750          39.250
  22431005.128 8  84321310.142 8      3773.725    22431003.312 6  87656923.703 6
      2940.565    22431004.595          46.750          36.500
  22977724.366 8  91388622.497 8      3668.833    22977719.747 5  89895626.813 5
      2858.831    22977724.378          46.750          32.000
  23018052.346 8  87406248.718 8     -2196.227    23018044.518 5  85866449.210 5
     -1711.345    23018051.339          45.500          29.250
  24120740.904 6  93200937.562 6       921.782    24120737.333 3  94576081.528 3
       718.271    24120741.554          37.500          18.750
  24675557.674 7  96116494.083 7       964.344    24675552.359 4  96847967.086 4
       751.437    24675557.743          39.750          20.750
  25252291.126 6 111730156.779 6      -862.761    25252291.542 3  99209608.839 3
      -672.282    25252291.515          36.250          17.750
 18  2 21  8 14  0.0000000  0 10G09G07G06G02G30G05G23G16G29G26
  20427800.225 9  69600093.883 9      -921.393    20427797.401 8  75259833.516 8
      -717.968    20427799.961          54.750          47.750
  21283741.045 9  74098083.239 9      2388.029    21283735.690 7  82959055.592 7
      1860.802    21283740.478          53.750          42.750
  21487681.870 8  79364094.113 8     -1888.132    21487679.997 7  83794143.515 7
     -1471.272    21487681.556          49.000          42.000
  21668859.329 8  76121887.234 8       836.785    21668851.273 7  80341729.894 7
       652.040    21668858.229          49.750          39.250
  22409489.287 8  84208244.921 8      3763.816    22409487.234 6  87568820.962 6
      2932.843    22409488.550          47.250          36.000
  22956795.642 8  91278640.002 8      3663.192    22956790.582 5  89809926.169 5
      2854.435    22956795.285          46.750          32.250
  23030604.542 7  87472212.879 7     -2201.485    23030597.647 5  85917849.843 5
     -1715.443    23030604.108          43.250          29.250
  24115537.766 6  93173590.231 6       901.387    24115533.035 3  94554771.920 3
       702.380    24115538.065          38.000          18.750
  24670107.165 7  96087849.671 7       945.049    24670102.258 4  96825646.729 4
       736.402    24670106.506          40.500          21.250
  25257265.156 6 111756292.187 6      -879.678    25257265.180 3  99229974.064 3
      -685.463    25257264.566          36.750          16.250
 18  2 21  8 14 30.0000000  0 10G09G07G06G02G30G05G23G16G29G26
  20433094.443 9  69627913.375 9      -933.169    20433091.259 8  75281511.041 8
      -727.144    20433093.733          55.750          48.000
  21270152.868 9  74026678.054 9      2372.312    21270147.669 7  82903415.197 7
      1848.555    21270152.367          52.250          42.250
  21498505.325 9  79420970.542 9     -1903.576    21498503.434 7  83838462.764 7
     -1483.306    21498504.963          50.750          41.750
  21664135.496 8  76097063.617 8       818.191    21664127.477 7  80322386.812 7
       637.552    21664134.480          48.750          39.500
  22388029.751 8  84095473.896 8      3754.235    22388027.883 6  87480947.458 6
      2925.378    22388029.151          46.750          36.250
  22935898.441 8  91168826.689 8      3657.691    22935893.959 6  89724357.367 6
      2850.149    22935898.513          45.750          32.500
  23043186.766 8  87538329.516 8     -2206.374    23043179.031 5  85969369.259 5
     -1719.253    23043185.710          44.500          28.750
  24110451.226 7  93146854.525 7       881.114    24110445.161 3  94533938.884 3
       686.583    24110449.940          40.000          19.000
  24664766.300 7  96059783.302 7       925.915    24664761.347 4  96803776.819 4
       721.492    24664765.907          40.000          22.250
  25262336.796 6 111782939.822 6      -896.412    25262335.354 3  99250738.440 3
      -698.503    25262336.358          36.750          16.250
 18  2 21  8 15  0.0000000  0 10G09G07G06G02G30G05G23G16G29G26
  20438455.907 9  69656088.683 9      -945.067    20438452.906 8  75303465.819 8
      -736.416    20438455.482          55.500          47.750
  21256655.342 9  73955749.352 9      2356.333    21256650.431 7  82848146.097 7
      1836.104    21256655.045          52.250          42.500
  21509416.764 8  79478309.595 8     -1919.070    21509414.512 7  83883142.494 7
     -1495.379    21509416.128          50.000          41.750
  21659518.761 8  76072801.829 8       799.319    21659510.703 7  80303481.517 7
       622.846    21659517.580          49.000          39.500
  22366626.970 8  83982999.243 8      3744.180    22366624.149 6  87393304.909 6
      2917.543    22366625.999          48.750          36.250
  22915033.779 8  91059183.548 8      3651.965    22915029.300 5  89638921.160 5
      2845.687    22915033.986          45.500          32.250
  23055796.678 8  87604597.191 8     -2211.488    23055789.825 5  86021006.411 5
     -1723.238    23055796.285          44.750          29.250
  24105479.633 7  93120731.215 7       860.632    24105474.105 3  94513583.062 3
       670.622    24105478.356          39.000          18.750
  24659535.461 7  96032294.545 7       906.675    24659530.610 4  96782357.007 4
       706.500    24659535.185          42.000          22.500
  25267504.619 6 111810098.089 6      -914.037    25267503.081 2  99271900.693 2
      -712.236    25267502.826          34.000          12.750
 18  2 21  8 15 30.0000000  0 10G09G07G06G02G30G05G23G16G29G26
  20443884.660 9  69684616.927 9      -956.865    20443881.668 8  75325695.616 8
      -745.609    20443884.189          56.500          48.000
  21243248.839 9  73885297.186 9      2340.435    21243243.760 7  82793248.317 7
      1823.716    21243248.365          52.750          42.500
  21520415.070 9  79536107.302 9     -1934.308    21520413.121 7  83928179.633 7
     -1507.253    21520414.716          51.000          41.250
  21655008.534 8  76049100.849 8       780.590    21655000.541 7  80285013.214 7
       608.252    21655007.349          48.750          39.500
  22345279.940 8  83870821.763 8      3734.284    22345277.904 6  87305893.889 6
      2909.832    22345279.280          46.500          36.500
  22894201.804 8  90949710.468 8      3646.247    22894197.325 5  89553617.470 5
      2841.231    22894201.915          45.500          32.000
  23068435.565 8  87671013.426 8     -2216.318    23068428.625 5  86072759.291 5
     -1727.001    23068434.864          44.750          28.750
  24100623.633 7  93095218.938 7       840.155    24100618.957 3  94493703.358 3
       654.666    24100623.660          39.250          18.500
  24654413.794 7  96005382.195 7       887.478    24654409.064 4  96761386.338 4
       691.541    24654413.851          40.250          22.500
  25272769.115 5 111837763.705 5      -930.441    25272769.058 2  99293458.328 2
      -725.019    25272769.007          31.250          12.250
 18  2 21  8 16  0.0000000  0 10G09G07G06G02G30G05G23G16G29G26
  20449380.935 9  69713500.934 9      -968.661    20449378.129 8  75348202.628 8
      -754.801    20449380.656          55.750          47.750
  21229933.818 9  73815327.252 9      2324.350    21229928.940 7  82738726.305 7
      1811.182    21229933.587          54.000          42.500
  21531500.939 9  79594365.445 9     -1949.507    21531499.410 7  83973575.546 7
     -1519.096    21531500.798          50.500          41.000
  21650605.922 8  76025965.109 8       761.886    21650598.029 7  80266985.353 7
       593.678    21650604.801          50.000          39.250
  22323990.916 8  83758948.010 8      3724.128    22323989.036 6  87218719.554 6
      2901.918    22323990.409          48.500          37.000
  22873403.243 8  90840412.415 8      3640.373    22873398.564 5  89468450.168 5
      2836.654    22873403.145          46.000          32.250
  23081103.002 8  87737581.239 8     -2221.373    23081095.435 5  86124630.288 5
     -1730.940    23081102.255          45.000          28.500
  24095886.523 6  93070322.918 6       819.665    24095881.040 3  94474303.861 3
       638.700    24095886.586          38.250          17.750
  24649403.627 7  95979050.692 7       868.119    24649398.270 4  96740868.277 4
       676.456    24649403.318          42.250          22.750
  25278130.699 5 111865939.612 5      -948.075    25278130.226 2  99315413.528 2
      -738.760    25278130.178          31.250          11.000
 18  2 21  8 16 30.0000000  0 10G09G07G06G02G30G05G23G16G29G26
  20454944.717 9  69742737.413 9      -980.567    20454941.627 8  75370984.294 8
      -764.078    20454944.085          56.250          47.750
  21216710.698 9  73745838.528 9      2308.139    21216705.682 7  82684579.262 7
      1798.550    21216710.314          53.250          42.500
  21542674.099 8  79653079.624 8     -1964.864    21542672.246 7  84019326.803 7
     -1531.063    21542673.826          50.250          40.750
  21646310.736 8  76003392.851 8       742.894    21646302.794 7  80249396.576 7
       578.878    21646309.453          49.750          39.750
  22302759.905 8  83647378.449 8      3713.733    22302758.091 6  87131782.245 6
      2893.818    22302759.263          46.500          37.250
  22852637.831 8  90731289.971 8      3634.278    22852633.229 5  89383419.712 5
      2831.905    22852637.705          45.250          32.250
  23093798.511 8  87804297.209 8     -2226.464    23093791.451 5  86176616.743 5
     -1734.907    23093797.729          44.500          28.750
  24091267.258 7  93046041.889 7       799.075    24091261.082 3  94455383.585 3
       622.656    24091266.265          39.750          17.750
  24644502.902 7  95953298.002 7       848.706    24644497.985 4  96720801.210 4
       661.329    24644502.761          40.750          22.500
  25283588.652 5 111894623.894 5      -964.155    25283584.620 1  99337768.221 1
      -751.289    25283590.864          27.750           1.000
 18  2 21  8 17  0.0000000  0 11G04G09G07G06G02G30G05G23G16G29G26
  20446509.337 5 111641439.144 5      -991.598    20446505.770 4 100502249.685 4
      -772.674    20446508.627          32.250          24.500
  20460575.845 9  69772329.727 9      -992.193    20460572.844 8  75394043.233 8
      -773.138    20460575.362          55.000          47.750
  21203580.262 9  73676837.326 9      2292.008    21203575.180 7  82630812.107 7
      1785.980    21203579.800          52.500          42.500
  21553934.454 8  79712252.040 8     -1979.946    21553932.481 7  84065435.098 7
     -1542.815    21553934.247          47.750          41.000
  21642123.193 8  75981389.215 8       724.097    21642115.632 7  80232250.875 7
       564.231    21642122.258          48.500          39.250
  22281588.228 8  83536120.111 8      3703.570    22281586.601 6  87045087.456 6
      2885.899    22281587.635          48.250          37.500
  22831907.371 8  90622349.624 8      3628.397    22831902.599 6  89298531.142 6
      2827.323    22831907.054          46.500          32.500
  23106523.025 8  87871164.931 8     -2231.338    23106516.157 5  86228721.436 5
     -1738.705    23106522.314          45.000          29.000
  24086765.026 6  93022381.105 6       778.487    24086758.601 3  94436946.598 3
       606.614    24086763.533          38.250          17.750
  24639713.127 7  95928128.505 7       829.405    24639708.615 4  96701188.613 4
       646.290    24639713.001          43.750          22.750
  25289145.164 5 111923816.129 5      -980.935    25289155.840 1  99360513.425 1
      -764.365    25289140.427          30.250           1.000
 18  2 21  8 17 30.0000000  0 10G09G07G06G02G30G05G23G16G29G26
  20466273.098 9  69802269.223 9     -1003.693    20466270.004 8  75417372.704 8
      -782.098    20466272.699          55.250          47.500
  21190541.445 9  73608317.626 9      2276.011    21190536.370 7  82577420.146 7
      1773.515    21190540.957          53.500          42.750
  21565279.961 8  79771873.058 8     -1994.658    21565277.965 7  84111892.991 7
     -1554.279    21565279.680          50.000          41.250
  21638043.221 9  75959946.741 9       705.505    21638035.259 7  80215542.445 7
       549.744    21638042.070          50.500          39.500
  22260474.370 8  83425168.055 8      3693.259    22260472.907 6  86958631.330 6
      2877.864    22260474.094          47.250          38.000
  22811211.022 8  90513586.118 8      3622.576    22811205.899 6  89213780.372 6
      2822.787    22811210.288          47.250          32.750
  23119275.006 8  87938175.729 8     -2235.934    23119267.832 5  86280937.624 5
     -1742.286    23119274.298          45.750          29.000
  24082379.515 7  92999334.087 7       757.981    24082372.940 3  94418987.900 3
       590.635    24082377.833          39.250          17.250
  24635033.528 7  95903535.435 7       810.290    24635028.243 4  96682025.150 4
       631.394    24635032.914          41.000          22.250
  25294794.531 5 111953512.162 5      -997.974    25294814.461 1  99383652.752 1
      -777.642    25294770.755          27.500           1.000
 18  2 21  8 18  0.0000000  0 10G09G07G06G02G30G05G23G16G29G26
  20472036.365 9  69832554.534 9     -1015.361    20472033.064 8  75440971.641 8
      -791.190    20472035.808          56.250          47.500
  21177594.383 9  73540280.688 9      2259.721    21177589.389 7  82524404.360 7
      1760.821    21177594.042          52.000          42.500
  21576710.301 8  79831940.081 8     -2009.715    21576708.416 7  84158698.436 7
     -1566.012    21576710.061          50.000          41.000
  21634069.727 9  75939065.927 9       686.519    21634061.822 7  80199271.673 7
       534.950    21634068.420          50.500          39.250
  22239419.904 8  83314524.571 8      3682.826    22239418.495 6  86872415.654 6
      2869.734    22239419.274          47.750          38.000
  22790547.518 8  90405000.104 8      3616.417    22790542.248 6  89129167.917 6
