     2.11           OBSERVATION DATA    G (GPS)             RINEX VERSION / TYPE
teqc  2016Nov7                          20180403 09:56:50UTCPGM / RUN BY / DATE
Linux 2.4.21-27.ELsmp|Opteron|gcc|Linux x86_64|=+           COMMENT
teqc  2016Nov7                          20180403 09:56:49UTCCOMMENT
     2.11           OBSERVATION DATA    M (MIXED)           COMMENT
teqc  2016Nov7                          20180403 09:56:48UTCCOMMENT
teqc  2016Nov7      IGN-RGP             20180221 09:11:04UTCCOMMENT
TPP 3.10.3                              21-FEB-18 07:59     COMMENT
                                                            COMMENT
                                                            COMMENT
                                                            COMMENT
CHE2                                                        MARKER NAME
19989M002                                                   MARKER NUMBER
Automatic           SAT-INFO                                OBSERVER / AGENCY
5502R50014          TRIMBLE NETR9       4.81                REC # / TYPE / VERS
60073464            TRM41249.00     TZGD                    ANT # / TYPE
  4215066.5540   212263.8100  4766322.2090                  APPROX POSITION XYZ
        0.0000        0.0000        0.0000                  ANTENNA: DELTA H/E/N
     1     1                                                WAVELENGTH FACT L1/2
     9    C1    L1    S1    P2    L2    S2    C5    L5    S5# / TYPES OF OBSERV
    30.0000                                                 INTERVAL
     0                                                      RCV CLOCK OFFS APPL
    18                                                      LEAP SECONDS
Forced Modulo Decimation to 30 seconds                      COMMENT
teqc_2016 edited: all GLONASS satellites excluded           COMMENT
teqc_2016 edited: all SBAS satellites excluded              COMMENT
teqc_2016 edited: all Galileo satellites excluded           COMMENT
  2018     2    21     8     0    0.0000000     GPS         TIME OF FIRST OBS
                                                            END OF HEADER
 18  2 21  8  0  0.0000000  0  8G02G05G06G07G09G16G23G30
  21917708.754   115178320.189 6        46.000    21917711.154    89749338.683 8
        36.750
  23672733.824   124401048.516 6        43.750    23672740.344    96935880.408 7
        28.250
  21199597.380   111404617.893 7        49.500    21199605.600    86808790.757 8
        40.000
  21585462.276   113432390.200 7        51.750    21585467.716    88388880.206 8
        38.750
  20259442.266   106464103.320 8        53.250    20259449.366    82959045.653 9
        45.750
  24224503.740   127300623.052 4        38.500    24224508.780    99195297.415 6
        20.250
  22593828.910   118731383.263 7        47.500    22593832.610    92517962.503 7
        31.750
  22923696.388   120464849.626 7        48.250    22923704.048    93868716.157 7
        32.750
 18  2 21  8  0 30.0000000  0  8G02G05G06G07G09G16G23G30
  21912873.454   115152910.681 6        46.250    21912875.614    89729539.071 8
        37.000
  23654045.884   124302848.682 6        43.000    23654051.064    96859361.068 6
        24.500
  21210539.500   111462118.646 7        49.500    21210547.640    86853596.533 8
        40.000
  21572842.118   113366069.417 7        51.500    21572847.218    88337201.680 8
        38.750
  20265561.846   106496261.158 8        54.500    20265568.506    82984103.696 9
        45.500
  24219922.980   127276557.646 4        37.500    24219928.560    99176545.147 6
        18.250
  22608345.550   118807667.236 7        48.250    22608348.670    92577404.550 7
        32.000
  22904112.188   120361934.636 6        47.000    22904122.188    93788522.705 8
        33.500
 18  2 21  8  1  0.0000000  0  8G02G05G06G07G09G16G23G30
  21908139.454   115128034.686 7        47.250    21908142.314    89710155.181 8
        36.500
  23635380.504   124204754.288 6        44.750    23635385.404    96782923.892 7
        28.000
  21221580.680   111520141.056 7        48.750    21221588.460    86898808.803 8
        40.250
  21560302.478   113300175.718 7        51.250    21560307.778    88285855.948 8
        38.750
  20271752.386   106528793.553 8        53.500    20271760.006    83009453.615 9
        45.500
  24215453.740   127253069.610 3        36.750    24215458.240    99158242.790 5
        17.250
  22622895.150   118884126.273 7        47.750    22622898.750    92636982.996 7
        32.250
  22884571.028   120259246.461 7        47.500    22884579.408    93708505.976 7
        32.500
 18  2 21  8  1 30.0000000  0  8G02G05G06G07G09G16G23G30
  21903507.294   115103692.716 7        47.500    21903510.554    89691187.403 8
        36.250
  23616731.864   124106766.458 5        41.000    23616739.804    96706569.741 7
        27.750
  21232721.020   111578682.931 7        49.750    21232728.760    86944425.840 8
        40.250
  21547844.978   113234710.533 7        51.500    21547850.758    88234844.112 8
        38.500
  20278014.126   106561699.098 8        54.250    20278021.226    83035094.289 9
        45.500
  24211093.980   127230160.270 4        37.750    24211098.220    99140391.411 6
        18.500
  22637477.510   118960758.866 7        48.000    22637480.790    92696696.692 7
        32.500
  22865074.348   120156787.206 7        47.500    22865082.728    93628667.630 8
        33.500
 18  2 21  8  2  0.0000000  0  8G02G05G06G07G09G16G23G30
  21898977.654   115079886.104 7        47.250    21898980.194    89672636.787 8
        36.250
  23598108.444   124008887.529 6        44.750    23598111.904    96630300.449 7
        27.750
  21243959.520   111637742.512 7        48.750    21243967.920    86990446.290 8
        40.000
  21535469.158   113169676.034 8        52.500    21535474.898    88184167.884 8
        38.750
  20284346.566   106594976.757 8        53.500    20284353.366    83061024.936 9
        45.500
  24206845.140   127207830.715 4        38.250    24206848.400    99122991.695 6
        18.250
  22652093.570   119037564.181 6        47.000    22652097.110    92756544.969 7
        31.750
  22845620.528   120054559.579 7        47.500    22845629.828    93549009.784 8
        33.500
 18  2 21  8  2 30.0000000  0  8G02G05G06G07G09G16G23G30
  21894548.934   115056615.772 6        46.500    21894552.034    89654504.062 8
        36.500
  23579501.984   123911117.901 6        43.250    23579508.764    96554116.332 7
        27.250
  21255296.660   111697317.895 7        50.000    21255304.220    87036868.657 8
        40.000
  21523176.238   113105073.555 7        52.000    21523181.018    88133828.287 8
        39.000
  20290749.626   106628625.406 8        54.250    20290756.846    83087244.647 9
        45.500
  24202706.680   127186082.541 4        38.500    24202711.500    99106045.036 6
        19.250
  22666742.010   119114541.181 7        48.000    22666745.430    92816527.027 7
        31.500
  22826211.688   119952566.091 7        47.250    22826219.508    93469534.373 7
        33.000
 18  2 21  8  3  0.0000000  0  8G02G05G06G07G09G16G23G30
  21890223.174   115033882.678 6        47.000    21890226.134    89636789.969 8
        36.750
  23560918.984   123813460.030 6        45.000    23560925.764    96478019.322 7
        28.500
  21266730.980   111757406.984 7        49.750    21266739.080    87083691.330 8
        40.500
  21510964.998   113040904.935 7        51.500    21510970.418    88083826.765 8
        38.500
  20297223.186   106662643.771 8        53.500    20297230.066    83113752.449 9
        45.250
  24198679.640   127164917.031 5        40.000    24198684.480    99089552.460 6
        19.250
  22681422.370   119191688.239 7        47.750    22681426.030    92876641.597 7
        32.000
  22806848.528   119850809.129 7        48.250    22806857.028    93390243.263 8
        34.500
 18  2 21  8  3 30.0000000  0  8G02G05G06G07G09G16G23G30
  21885999.314   115011687.439 6        46.500    21886002.454    89619494.976 8
        36.500
  23542356.404   123715915.079 6        46.000    23542361.084    96402010.237 7
        27.250
  21278263.320   111818007.659 7        48.750    21278271.080    87130912.631 8
        40.500
  21498836.938   112977171.809 8        52.250    21498842.618    88034164.595 8
        38.750
  20303766.866   106697030.521 8        53.250    20303774.186    83140547.313 9
        45.250
  24194762.020   127144335.498 4        38.750    24194767.720    99073514.867 6
        20.250
  22696134.910   119269004.199 7        47.750    22696139.170    92936887.787 7
        32.250
  22787530.008   119749291.011 7        47.500    22787538.728    93311138.297 8
        33.500
 18  2 21  8  4  0.0000000  0  8G02G05G06G07G09G16G23G30
  21881878.616   114990031.719 6        46.750    21881881.316    89602620.382 8
        36.500
  23523816.304   123618484.228 6        45.750    23523821.084    96326090.112 7
        28.000
  21289892.058   111879118.667 7        49.500    21289899.918    87178531.591 8
        40.250
  21486792.618   112913876.678 7        51.000    21486797.858    87984843.716 8
        38.750
  20310380.286   106731785.174 8        54.250    20310387.326    83167628.860 9
        45.250
  24190957.020   127124339.700 3        37.000    24190963.380    99057933.766 6
        18.500
  22710880.210   119346488.769 7        48.000    22710883.590    92997265.358 7
        31.500
  22768257.890   119648014.893 7        49.000    22768265.610    93232221.866 8
        34.000
 18  2 21  8  4 30.0000000  0  8G02G05G06G07G09G16G23G30
  21877860.476   114968915.959 7        48.750    21877863.376    89586166.527 8
        37.000
  23505297.744   123521169.487 6        46.000    23505304.284    96250260.474 7
        28.000
  21301618.018   111940737.754 7        49.250    21301625.538    87226546.457 8
        40.750
  21474831.278   112851020.981 7        52.000    21474836.698    87935865.255 8
        39.000
  20317063.566   106766906.396 8        55.000    20317070.506    83194996.049 9
        45.250
  24187263.380   127104930.560 4        37.500    24187269.740    99042809.786 6
        19.000
  22725656.350   119424140.497 7        47.250    22725660.290    93057773.184 7
        31.750
  22749032.050   119546983.136 7        47.750    22749041.250    93153495.865 8
        34.250
 18  2 21  8  5  0.0000000  0  8G02G05G06G07G09G16G23G30
  21873944.956   114948340.383 7        47.750    21873948.016    89570133.615 8
        37.250
  23486801.544   123423972.698 6        45.500    23486807.584    96174522.700 7
        27.750
  21313439.858   112002862.510 7        48.750    21313448.018    87274955.341 8
        40.000
  21462953.898   112788605.729 7        51.250    21462959.778    87887229.991 8
        39.500
  20323816.386   106802392.555 8        53.750    20323823.386    83222647.595 9
        45.500
  24183681.780   127086109.093 4        38.000    24183687.580    99028143.696 6
        18.500
  22740464.910   119501957.675 6        46.750    22740468.330    93118409.929 7
        31.500
  22729853.450   119446197.702 7        48.750    22729860.910    93074961.799 8
        33.750
 18  2 21  8  5 30.0000000  0  8G02G05G06G07G09G16G23G30
  21870132.636   114928306.296 7        48.250    21870135.616    89554522.634 8
        36.500
  23468328.724   123326895.581 6        45.750    23468333.704    96098878.202 7
        27.000
  21325357.498   112065490.785 7        49.500    21325365.718    87323756.582 8
        40.750
  21451160.978   112726632.686 7        51.750    21451166.858    87838939.315 8
        39.250
  20330638.346   106838242.426 8        54.000    20330645.906    83250582.541 9
        45.250
  24180212.120   127067876.385 4        39.000    24180217.920    99013936.405 6
        18.250
  22755303.550   119579939.130 7        47.500    22755307.190    93179174.687 7
        31.000
  22710721.450   119345661.038 7        47.500    22710729.590    92996621.568 8
        33.500
 18  2 21  8  6  0.0000000  0  8G02G05G06G07G09G16G23G30
  21866423.576   114908814.954 7        49.000    21866426.556    89539334.575 8
        35.750
  23449879.104   123229939.507 6        46.000    23449883.644    96023328.051 7
        27.000
  21337370.878   112128621.048 7        48.500    21337379.058    87372948.988 8
        40.000
  21439452.538   112665104.108 7        51.750    21439457.958    87790994.979 8
        39.250
  20337529.646   106874455.351 8        53.250    20337536.906    83278800.394 9
        45.500
  24176855.560   127050234.122 5        39.500    24176860.860    99000189.220 6
        19.500
  22770174.410   119658084.232 6        46.500    22770177.990    93240066.962 7
        30.750
  22691638.110   119245376.169 7        48.250    22691646.730    92918477.572 8
        34.250
 18  2 21  8  6 30.0000000  0  8G02G05G06G07G09G16G23G30
  21862817.996   114889866.796 7        49.250    21862820.816    89524569.767 8
        36.250
  23431452.204   123133105.586 6        46.250    23431457.684    95947873.047 7
        28.500
  21349479.238   112192251.240 7        48.250    21349487.958    87422530.944 8
        40.750
  21427828.958   112604021.381 7        51.750    21427834.598    87743398.046 8
        39.000
  20344489.586   106911030.085 8        54.500    20344496.746    83307300.183 9
        45.500
  24173610.800   127033183.532 5        41.000    24173616.240    98986903.056 6
        19.000
  22785075.788   119736391.993 7        47.500    22785079.468    93301085.974 7
        31.250
  22672602.830   119145345.487 7        47.500    22672610.330    92840531.627 8
        33.750
 18  2 21  8  7  0.0000000  0  8G02G05G06G07G09G16G23G30
  21859316.016   114871463.139 7        48.000    21859318.036    89510229.245 8
        36.250
  23413048.644   123036395.836 6        45.750    23413054.024    95872514.801 7
        28.500
  21361682.238   112256379.247 7        50.000    21361690.518    87472500.801 8
        40.000
  21416290.518   112543386.299 8        52.250    21416295.998    87696149.932 8
        40.000
  20351518.146   106947965.512 8        55.000    20351525.386    83336081.027 9
        45.500
  24170479.140   127016725.599 4        38.000    24170483.980    98974078.658 6
        19.000
  22800008.508   119814861.105 6        46.750    22800011.748    93362230.714 7
        31.000
  22653616.230   119045571.457 7        47.250    22653625.090    92762785.677 8
        34.500
 18  2 21  8  7 30.0000000  0  8G02G05G06G07G09G16G23G30
  21855917.316   114853603.836 7        49.000    21855920.036    89496312.892 8
        36.000
  23394669.024   122939811.921 6        45.500    23394674.544    95797254.621 7
        28.500
  21373979.758   112321002.875 7        49.000    21373988.078    87522856.875 8
        39.500
  21404837.418   112483200.394 7        52.000    21404842.818    87649251.837 8
        39.000
  20358615.186   106985260.322 8        53.250    20358622.086    83365141.912 9
        45.500
  24167459.640   127000861.430 4        37.250    24167465.140    98961716.992 6
        18.500
  22814971.008   119893490.380 6        46.750    22814974.288    93423500.281 7
        30.250
  22634679.210   118946056.512 7        47.750    22634687.910    92685241.608 8
        33.750
 18  2 21  8  8  0.0000000  0  8G02G05G06G07G09G16G23G30
  21852622.956   114836290.449 7        49.000    21852625.496    89482821.933 8
        36.250
  23376313.746   122843355.752 6        45.750    23376319.146    95722093.997 7
        27.750
  21386370.958   112386119.974 7        49.250    21386379.378    87573597.458 8
        39.500
  21393470.318   112423465.265 8        52.750    21393475.478    87602704.993 8
        39.500
  20365780.246   107022913.327 8        53.250    20365787.546    83394481.911 9
        45.250
  24164554.460   126985592.244 4        38.750    24164559.360    98949818.909 6
        19.000
  22829964.188   119972278.633 7        47.500    22829967.108    93484893.694 7
        30.500
  22615791.850   118846803.051 7        47.500    22615800.070    92607901.285 8
        33.500
 18  2 21  8  8 30.0000000  0  8G02G05G06G07G09G16G23G30
  21849431.396   114819523.210 7        48.750    21849434.936    89469756.550 8
        36.750
  23357983.366   122747028.685 6        43.500    23357989.026    95647033.944 7
        27.250
  21398856.158   112451728.354 7        48.500    21398864.278    87624720.860 8
        39.750
  21382188.938   112364182.529 8        52.500    21382194.478    87556510.660 8
        39.500
  20373013.386   107060923.266 8        53.000    20373020.406    83424100.042 9
        45.750
  24161762.380   126970918.661 5        40.250    24161766.300    98938384.968 6
        19.500
  22844987.148   120051224.810 7        47.250    22844990.468    93546410.190 7
        30.000
  22596954.690   118747813.415 6        45.750    22596964.010    92530766.538 8
        34.500
 18  2 21  8  9  0.0000000  0  8G02G05G06G07G09G16G23G30
  21846345.436   114803303.012 7        48.750    21846348.276    89457117.424 8
        36.500
  23339678.266   122650832.544 6        44.250    23339683.966    95572075.925 7
        28.250
  21411434.178   112517825.969 7        48.250    21411442.258    87676225.465 8
        40.250
  21370994.098   112305353.682 8        52.250    21370999.778    87510669.997 8
        39.500
  20380313.906   107099289.108 8        53.000    20380321.146    83453995.497 9
        45.250
  24159083.840   126956842.139 5        39.250    24159088.240    98927416.248 6
        20.000
  22860039.368   120130327.881 6        46.500    22860043.648    93608048.924 7
        30.750
  22578168.730   118649090.217 7        47.250    22578176.330    92453839.419 8
        34.500
 18  2 21  8  9 30.0000000  0  8G02G05G06G07G09G16G23G30
  21843362.836   114787630.623 7        49.250    21843365.776    89444905.163 8
        36.000
  23321397.146   122554768.530 6        43.000    23321403.406    95497220.867 7
        29.000
  21424105.098   112584410.737 7        48.250    21424112.918    87728109.662 8
        39.750
  21359886.418   112246980.388 7        52.000    21359891.438    87465184.322 8
        39.750
  20387682.504   107138009.713 8        53.250    20387689.544    83484167.395 9
        45.250
  24156518.760   126943363.627 5        40.000    24156524.000    98916913.534 6
        19.500
  22875122.168   120209586.880 6        46.500    22875125.868    93669809.158 7
        30.500
  22559433.110   118550636.089 6        46.250    22559441.090    92377121.924 8
        34.750
 18  2 21  8 10  0.0000000  0  8G02G05G06G07G09G16G23G30
  21840484.836   114772506.586 7        49.000    21840487.836    89433120.203 8
        37.000
  23303142.266   122458838.514 6        45.000    23303148.186    95422470.218 7
        28.500
  21436867.538   112651480.418 7        49.500    21436876.278    87780371.697 8
        39.750
  21348864.858   112189064.269 8        52.500    21348870.478    87420054.887 8
        39.000
  20395117.904   107177083.852 8        54.250    20395125.144    83514614.766 9
        45.250
  24154068.080   126930484.263 4        39.000    24154072.940    98906877.656 6
        20.250
  22890234.168   120289000.377 6        46.500    22890237.588    93731689.781 7
        30.000
  22540749.410   118452453.303 7        47.750    22540758.310    92300615.899 8
        35.000
 18  2 21  8 10 30.0000000  0  8G02G05G06G07G09G16G23G30
  21837711.696   114757931.443 7        49.500    21837714.316    89421762.938 8
        37.000
  23284913.466   122363043.984 6        43.250    23284919.166    95347825.150 7
        28.750
  21449722.678   112719032.804 7        49.250    21449730.638    87833009.882 8
        40.000
  21337931.198   112131606.565 7        52.000    21337937.018    87375282.654 8
        39.500
  20402620.644   107216510.273 8        54.000    20402627.544    83545336.646 9
        45.250
  24151730.680   126918204.853 5        39.250    24151735.640    98897309.344 6
        19.750
  22905375.268   120368567.452 6        45.250    22905378.628    93793690.085 7
        30.000
  22522118.150   118354544.265 6        46.250    22522125.770    92224323.150 8
        35.000
 18  2 21  8 11  0.0000000  0  8G02G05G06G07G09G16G23G30
  21835042.636   114743906.137 7        48.500    21835045.496    89410834.120 8
        36.250
  23266710.466   122267387.235 6        44.500    23266715.426    95273287.455 7
        27.750
  21462668.858   112787065.767 7        48.750    21462677.138    87886022.536 8
        39.500
  21327085.018   112074609.039 8        52.500    21327090.918    87330868.988 8
        39.000
  20410190.044   107256287.923 8        53.000    20410197.204    83576332.207 9
        45.250
  24149508.320   126906526.160 4        37.500    24149513.580    98888209.022 6
        19.750
  22920545.348   120448287.239 6        45.500    22920549.128    93855809.379 7
        29.750
  22503538.890   118256911.591 7        48.000    22503547.850    92148245.779 8
        35.250
 18  2 21  8 11 30.0000000  0  8G02G05G06G07G09G16G23G30
  21832478.436   114730430.991 7        48.000    21832481.116    89400333.996 8
        36.250
  23248533.926   122171869.719 6        44.500    23248539.846    95198858.211 7
        28.000
  21475706.138   112855576.934 7        49.000    21475714.618    87939407.811 8
        40.000
  21316326.298   112018073.084 8        53.000    21316332.198    87286815.005 8
        39.500
  20417825.944   107296415.471 8        54.500    20417832.964    83607600.422 9
        45.000
  24147400.820   126895449.131 4        37.500    24147406.040    98879577.600 6
        19.750
  22935744.208   120528158.289 6        45.500    22935747.468    93918046.540 7
        29.500
  22485013.430   118159557.545 7        49.000    22485021.950    92072385.514 8
        35.250
 18  2 21  8 12  0.0000000  0  8G02G05G06G07G09G16G23G30
  21830018.796   114717506.528 7        48.000    21830021.776    89390262.980 8
        36.500
  23230384.746   122076492.738 6        42.750    23230390.346    95124538.523 7
        27.750
  21488834.238   112924564.212 7        48.250    21488842.318    87993164.068 8
        40.000
  21305656.498   111962000.356 8        52.500    21305661.818    87243121.976 8
        39.750
  20425528.524   107336891.879 8        53.500    20425535.864    83639140.475 9
        44.750
  24145407.960   126884974.865 5        40.000    24145412.960    98871415.851 6
        20.750
  22950971.928   120608180.075 6        45.250    22950975.528    93980401.166 7
        30.000
  22466540.512   118062484.688 7        47.250    22466549.152    91996744.333 8
        34.250
 18  2 21  8 12 30.0000000  0  8G02G05G06G07G09G16G23G30
  21827664.196   114705133.248 7        47.750    21827666.836    89380621.455 8
        36.500
  23212262.446   121981258.421 6        44.500    23212268.266    95050329.978 7
        28.500
  21502052.258   112994025.281 7        50.000    21502060.498    88047289.554 8
        39.750
  21295074.518   111906392.295 8        52.750    21295079.838    87199791.036 8
        39.250
  20433296.964   107377715.746 8        54.750    20433304.024    83670951.274 9
        45.250
  24143529.000   126875103.919 4        38.750    24143534.420    98863724.170 6
        20.250
  22966228.228   120688350.967 6        44.250    22966231.708    94042871.979 7
        29.500
  22448122.652   117965695.303 7        48.000    22448131.632    91921324.064 8
        35.750
 18  2 21  8 13  0.0000000  0  8G02G05G06G07G09G16G23G30
  21825414.576   114693311.948 7        48.250    21825417.336    89371410.046 8
        36.500
  23194167.666   121886168.210 6        46.250    23194174.026    94976233.718 7
        30.000
  21515360.038   113063957.864 7        50.250    21515368.318    88101782.459 8
        40.250
  21284580.940   111851249.837 8        52.750    21284586.680    87156822.895 8
        39.250
  20441131.324   107418885.988 8        54.000    20441138.284    83703031.973 9
        45.000
  24141765.960   126865837.198 5        40.250    24141770.780    98856503.336 6
        19.500
  22981511.688   120768669.980 6        45.250    22981516.068    94105458.208 7
        29.750
  22429758.472   117869191.874 7        49.000    22429767.172    91846126.618 8
        36.000
 18  2 21  8 13 30.0000000  0  8G02G05G06G07G09G16G23G30
  21823270.556   114682043.515 7        48.500    21823272.796    89362629.437 8
        36.000
  23176100.206   121791223.172 7        47.500    23176104.666    94902250.569 7
        29.000
  21528756.678   113134360.302 7        49.750    21528764.778    88156641.510 8
        40.000
  21274177.040   111796575.733 7        52.000    21274182.420    87114219.699 8
        39.750
  20449031.684   107460402.019 8        55.000    20449038.344    83735382.119 9
        44.500
  24140117.080   126857176.503 4        38.750    24140122.680    98849754.754 6
        19.250
  22996824.368   120849136.778 6        44.250    22996828.168    94168159.585 7
        29.750
  22411449.472   117772977.401 7        49.500    22411457.692    91771154.327 8
        36.000
 18  2 21  8 14  0.0000000  0  8G02G05G06G07G09G16G23G30
  21821231.396   114671327.657 7        48.000    21821234.356    89354279.418 8
        36.250
  23158061.206   121696425.982 7        47.750    23158064.986    94828382.629 7
        30.250
  21542243.058   113205229.403 7        49.500    21542251.358    88211864.178 8
        39.250
  21263862.060   111742370.244 8        53.250    21263867.820    87071981.642 8
        40.000
  20456997.244   107502261.734 8        55.000    20457004.264    83768000.071 9
        44.750
  24138585.200   126849121.329 5        40.000    24138589.860    98843477.961 6
        19.000
  23012164.668   120929749.393 6        45.250    23012168.248    94230974.607 7
        28.500
  22393195.772   117677053.507 7        49.750    22393204.732    91696408.457 8
        36.000
 18  2 21  8 14 30.0000000  0  8G02G05G06G07G09G16G23G30
  21819297.756   114661165.175 7        48.000    21819300.456    89346360.586 8
        36.750
  23140049.526   121601778.513 7        47.500    23140053.446    94754631.354 7
        29.250
  21555817.338   113276562.883 7        47.750    21555825.578    88267448.688 8
        39.500
  21253636.640   111688634.787 8        52.750    21253641.980    87030109.861 8
        39.750
  20465028.184   107544464.083 8        52.750    20465035.224    83800885.008 9
        44.750
  24137167.280   126841672.566 4        38.500    24137171.500    98837673.724 6
        19.500
  23027532.748   121010506.739 6        45.000    23027535.528    94293902.387 7
        29.000
  22374997.932   117581422.606 7        48.750    22375005.912    91621890.883 8
        36.000
 18  2 21  8 15  0.0000000  0  8G02G05G06G07G09G16G23G30
  21817469.036   114651556.256 7        47.750    21817471.616    89338873.113 8
        36.250
  23122067.086   121507282.034 7        47.250    23122072.866    94680997.759 7
        29.000
  21569479.778   113348358.463 7        49.500    21569488.058    88323393.242 8
        39.750
  21243500.760   111635370.741 8        53.000    21243506.380    86988605.411 8
        40.000
  20473124.044   107587007.881 8        55.000    20473131.004    83834036.013 9
        44.500
  24135864.920   126834831.120 4        37.500    24135870.680    98832342.698 6
        19.750
  23042927.448   121091407.815 6        45.500    23042930.728    94356942.170 7
        29.250
  22356855.852   117486087.137 7        49.250    22356863.812    91547603.517 8
        35.500
 18  2 21  8 15 30.0000000  0  8G02G05G06G07G09G16G23G30
  21815745.636   114642501.985 7        48.000    21815748.656    89331817.835 8
        37.250
  23104114.186   121412938.537 6        46.500    23104120.466    94607483.369 7
        29.000
  21583229.698   113420614.270 7        49.750    21583238.018    88379696.413 8
        39.250
  21233455.000   111582580.134 8        52.750    21233460.260    86947469.867 8
        39.500
  20481284.844   107629892.375 8        54.500    20481291.644    83867452.486 9
        44.500
  24134679.380   126828597.709 4        39.000    24134684.560    98827485.540 6
        19.250
  23058349.448   121172452.218 6        46.250    23058352.988    94420093.632 7
        29.500
  22338771.512   117391049.973 7        48.500    22338779.572    91473548.615 8
        35.500
 18  2 21  8 16  0.0000000  0  8G02G05G06G07G09G16G23G30
  21814128.796   114634002.877 7        48.000    21814131.556    89325195.139 8
        36.500
  23086190.466   121318749.024 6        45.250    23086197.926    94534088.989 7
        30.000
  21597066.516   113493328.159 7        50.250    21597074.616    88436356.542 8
        39.750
  21223499.680   111530264.653 8        53.750    21223504.820    86906704.553 8
        40.000
  20489509.744   107673116.519 8        55.250    20489516.964    83901133.639 9
        44.500
  24133610.120   126822973.405 4        38.250    24133613.960    98823102.918 6
        19.250
  23073798.628   121253639.076 6        45.750    23073802.148    94483356.099 7
        29.250
  22320743.252   117296313.696 7        49.500    22320750.992    91399728.154 8
        35.750
 18  2 21  8 16 30.0000000  0  8G02G05G06G07G09G16G23G30
  21812616.716   114626058.650 7        47.500    21812619.716    89319004.824 8
        37.250
  23068297.308   121224715.621 6        45.500    23068303.428    94460816.223 7
        29.750
  21610990.116   113566497.223 7        49.750    21610998.216    88493371.358 8
        39.000
  21213634.780   111478424.666 8        53.500    21213640.260    86866309.752 8
        39.750
  20497799.584   107716678.587 8        55.000    20497806.844    83935078.095 9
        44.500
  24132654.700   126817958.307 5        39.500    24132659.360    98819195.052 6
        19.250
  23089274.826   121334966.570 6        46.500    23089278.626    94546728.141 7
        30.250
  22302773.272   117201880.155 7        49.000    22302781.272    91326143.597 8
        36.250
 18  2 21  8 17  0.0000000  0  8G02G05G06G07G09G16G23G30
  21811210.776   114618670.123 6        46.750    21811214.196    89313247.520 8
        36.250
  23050433.948   121130840.490 6        46.750    23050439.488    94387666.782 7
        30.250
  21624999.876   113640119.293 7        49.750    21625008.116    88550739.143 8
        38.750
  21203861.140   111427062.026 8        53.000    21203866.500    86826286.918 8
        40.000
  20506153.304   107760577.643 8        54.500    20506160.424    83969285.143 9
        44.750
  24131816.880   126813553.263 4        39.000    24131821.420    98815762.531 6
        18.500
  23104777.966   121416433.982 6        46.500    23104780.326    94610209.215 7
        30.000
  22284861.352   117107751.970 7        49.500    22284869.412    91252796.996 8
        36.500
 18  2 21  8 17 30.0000000  0  8G02G05G06G07G09G16G23G30
  21809910.636   114611836.853 6        46.750    21809913.696    89307922.888 8
        36.750
  23032600.848   121037125.330 7        48.500    23032606.048    94314641.962 7
        32.000
  21639095.396   113714191.588 7        49.750    21639103.576    88608457.749 8
        38.750
  21194177.980   111376177.649 8        52.750    21194183.240    86786636.760 8
        39.500
  20514570.704   107804812.109 8        53.500    20514578.344    84003753.548 9
        44.250
  24131095.360   126809758.641 4        38.750    24131099.980    98812805.694 6
        20.250
  23120306.586   121498039.701 6        45.250    23120310.146    94673798.054 7
        29.750
  22267007.892   117013931.136 7        48.750    22267015.372    91179689.878 8
        36.000
 18  2 21  8 18  0.0000000  0  8G02G05G06G07G09G16G23G30
  21808715.856   114605559.953 6        46.000    21808718.856    89303031.788 8
        36.000
  23014797.408   120943571.413 7        48.000    23014802.108    94241742.803 7
        31.250
  21653276.376   113788712.189 7        49.500    21653284.396    88666525.688 8
        38.500
  21184586.260   111325773.301 8        53.000    21184591.380    86747360.653 8
        39.750
  20523051.904   107849381.289 8        53.750    20523059.104    84038482.771 9
        44.250
  24130487.260   126806575.432 3        37.000    24130493.480    98810325.290 5
        17.750
  23135862.166   121579783.559 6        46.250    23135865.646    94737494.549 7
        30.000
  22249212.992   116920420.452 7        48.250    22249221.912    91106824.457 8
        36.500
 18  2 21  8 18 30.0000000  0  8G02G05G06G07G09G16G23G30
  21807627.596   114599839.615 6        46.750    21807630.756    89298574.368 8
        36.500
  22997024.628   120850181.127 6        46.250    22997029.748    94168971.152 7
        29.500
  21667542.136   113863678.429 7        48.000    21667550.236    88724940.864 8
        38.000
  21175086.200   111275849.991 7        52.000    21175091.460    86708459.391 8
        40.000
  20531596.284   107894283.654 8        53.000    20531603.784    84073471.615 9
        44.250
  24129998.120   126804003.755 4        38.750    24130004.800    98808321.385 6
        18.500
  23151443.686   121661664.240 6        45.750    23151447.386    94801297.642 7
        29.500
  22231478.072   116827222.072 7        48.750    22231486.212    91034202.375 8
        36.000
 18  2 21  8 19  0.0000000  0  8G02G05G06G07G09G16G23G30
  21806644.996   114594676.054 6        46.500    21806647.516    89294550.806 8
        36.250
  22979284.008   120756955.681 6        44.500    22979288.648    94096327.964 7
        29.500
  21681892.356   113939087.956 7        49.500    21681899.956    88783701.465 8
        38.750
  21165677.940   111226409.140 8        52.500    21165683.440    86669934.065 8
        40.750
  20540204.464   107939518.143 8        53.250    20540212.044    84108719.263 9
        43.750
  24129626.880   126802044.204 4        37.500    24129631.080    98806794.465 6
        19.250
  23167051.246   121743680.701 6        46.000    23167054.406    94865206.547 7
        29.500
  22213802.772   116734338.396 7        48.250    22213810.852    90961825.517 8
        36.500
 18  2 21  8 19 30.0000000  0  8G02G05G06G07G09G16G23G30
  21805768.136   114590069.467 6        47.000    21805771.176    89290961.251 8
        36.000
  22961576.428   120663897.088 6        44.500    22961580.688    94023814.838 7
        28.250
  21696326.016   114014938.337 7        49.500    21696334.116    88842805.597 8
        37.500
  21156361.720   111177451.998 8        52.250    21156367.440    86631785.648 8
        40.500
  20548875.004   107985083.470 8        53.250    20548882.524    84144224.698 9
        44.000
  24129370.120   126800697.378 5        39.750    24129375.240    98805744.990 6
        19.250
  23182683.986   121825832.021 6        45.750    23182686.546    94929220.543 7
        28.750
  22196187.912   116641771.813 7        48.500    22196196.732    90889695.718 8
        36.500
 18  2 21  8 20  0.0000000  0  8G02G05G06G07G09G16G23G30
  21804997.696   114586020.086 6        46.000    21805000.496    89287805.883 8
        36.250
  22943901.288   120571007.047 6        46.250    22943904.108    93951433.023 7
        28.500
  21710843.196   114091227.027 7        49.250    21710851.656    88902251.274 8
        38.500
  21147137.880   111128979.700 8        52.750    21147143.480    86594015.041 8
        39.500
  20557608.624   108030978.415 8        53.500    20557615.884    84179986.984 9
        43.500
  24129231.740   126799963.636 4        38.500    24129235.420    98805173.253 6
        19.500
  23198342.226   121908117.229 6        46.000    23198346.186    94993338.864 7
        29.500
  22178633.834   116549524.566 7        48.000    22178641.994    90817814.775 8
        36.500
 18  2 21  8 20 30.0000000  0  8G02G05G06G07G09G16G23G30
  21804333.396   114582528.309 6        46.750    21804335.776    89285085.012 8
        36.500
  22926256.748   120478287.595 7        47.500    22926261.248    93879184.095 7
        29.000
  21725443.476   114167951.764 7        48.750    21725451.656    88962036.726 8
        37.500
  21138006.160   111080993.751 7        52.000    21138012.140    86556623.407 8
        40.500
  20566404.864   108077201.977 8        53.750    20566412.124    84216005.337 9
        44.250
  24129208.000   126799843.288 4        39.000    24129213.080    98805079.477 6
        18.500
  23214025.386   121990535.214 6        45.000    23214029.326    95057560.650 7
        28.500
  22161140.834   116457599.166 7        49.250    22161149.714    90746184.618 8
        37.250
 18  2 21  8 21  0.0000000  0  8G02G05G06G07G09G16G23G30
  21803775.356   114579594.118 6        46.250    21803777.836    89282798.619 8
        36.500
  22908644.428   120385740.223 6        47.000    22908650.288    93807069.235 7
        29.500
  21740126.096   114245109.960 7        47.500    21740134.376    89022159.965 8
        37.500
  21128967.640   111033494.944 8        52.250    21128972.680    86519611.355 8
        40.250
  20575263.364   108123752.850 8        54.000    20575270.264    84252278.738 9
        44.500
  24129300.920   126800336.977 4        38.000    24129307.360    98805464.131 6
        19.500
  23229734.166   122073084.827 6        45.500    23229738.666    95121884.987 7
        28.500
  22143709.494   116365997.891 7        48.250    22143718.134    90674807.040 8
        36.750
 18  2 21  8 21 30.0000000  0  8G02G05G06G07G09G16G23G30
  21803322.976   114577217.683 7        48.000    21803325.276    89280946.846 8
        36.000
  22891066.568   120293366.539 6        46.750    22891073.128    93735089.772 7
        30.250
  21754890.916   114322699.208 7        48.250    21754898.696    89082619.095 8
        37.250
  21120021.780   110986484.928 7        51.750    21120027.300    86482980.189 8
        40.000
  20584183.684   108170629.926 8        54.000    20584190.824    84288806.315 9
        44.250
  24129511.300   126801445.091 4        37.500    24129517.320    98806327.570 6
        19.500
  23245467.566   122155765.450 6        45.000    23245471.006    95186311.422 7
        28.250
  22126340.914   116274723.135 7        50.000    22126348.914    90603683.874 8
        37.000
 18  2 21  8 22  0.0000000  0  8G02G05G06G07G09G16G23G30
  21802977.116   114575399.268 7        47.750    21802979.276    89279529.882 8
        36.000
  22873522.768   120201169.099 6        47.000    22873528.988    93663247.641 7
        30.000
  21769736.876   114400716.650 7        48.000    21769744.816    89143411.871 8
        37.250
  21111169.140   110939964.493 7        50.750    21111174.400    86446730.509 8
        40.250
  20593166.004   108217831.782 8        53.750    20593172.564    84325586.976 9
        44.500
  24129840.860   126803167.710 4        38.750    24129845.660    98807669.895 6
        19.000
  23261226.006   122238575.678 6        46.000    23261230.046    95250838.850 7
        29.000
  22109034.434   116183777.006 7        49.750    22109042.674    90532816.775 8
        37.250
 18  2 21  8 22 30.0000000  0  8G02G05G06G07G09G16G23G30
  21802737.036   114574139.026 7        48.500    21802739.556    89278547.872 8
        36.500
  22856011.888   120109148.959 7        47.250    22856018.228    93591543.632 7
        31.750
  21784664.536   114479160.106 7        47.750    21784672.676    89204536.610 8
        37.000
  21102410.280   110893934.959 7        50.250    21102415.400    86410863.324 8
        40.250
  20602209.944   108265357.319 8        53.000    20602217.124    84362619.858 9
        44.500
  24130285.640   126805505.176 5        39.500    24130290.580    98809491.287 6
        19.250
  23277009.546   122321514.855 6        46.000    23277012.586    95315466.743 7
        28.500
  22091791.134   116093161.912 7        50.500    22091799.234    90462207.633 8
        37.750
 18  2 21  8 23  0.0000000  0  8G02G05G06G07G09G16G23G30
  21802603.656   114573437.355 7        48.750    21802606.496    89278001.099 8
        36.250
  22838534.528   120017308.369 6        45.250    22838541.008    93519979.526 7
        31.250
  21799672.396   114558027.277 7        47.500    21799680.056    89265991.536 8
        37.250
  21093744.600   110848397.450 7        50.250    21093750.080    86375379.566 8
        40.250
  20611314.924   108313205.638 8        53.000    20611321.724    84399904.252 9
        44.000
  24130847.500   126808458.078 5        39.500    24130852.140    98811792.239 6
        20.000
  23292816.266   122404581.984 6        44.250    23292820.206    95380194.355 7
        27.500
  22074610.594   116002880.466 6        47.000    22074618.594    90391858.452 8
        37.000
 18  2 21  8 23 30.0000000  0  8G02G05G06G07G09G16G23G30
  21802576.356   114573293.746 7        48.000    21802579.116    89277889.191 8
        36.500
  22821092.308   119925649.168 6        45.000    22821098.848    93448556.758 7
        30.750
  21814759.996   114637315.199 7        47.500    21814768.356    89327774.314 8
        36.750
  21085172.800   110803353.099 7        50.500    21085178.500    86340280.080 8
        40.500
  20620481.304   108361375.175 8        52.500    20620488.404    84437438.952 9
        44.500
  24131526.860   126812026.252 4        38.000    24131532.220    98814572.612 6
        21.500
  23308647.506   122487775.766 6        46.000    23308651.306    95445020.629 7
        28.500
  22057494.894   115912934.590 7        48.750    22057503.154    90321770.780 8
        38.250
 18  2 21  8 24  0.0000000  0  8G02G05G06G07G09G16G23G30
  21802655.376   114573708.366 7        48.500    21802658.016    89278212.261 8
        37.000
  22803685.688   119834173.203 6        46.500    22803692.008    93377276.817 7
        30.250
  21829927.636   114717021.257 6        46.500    21829936.116    89389882.929 8
        36.750
  21076695.360   110758803.049 7        51.250    21076700.580    86305565.768 8
        40.750
  20629708.724   108409864.622 7        51.750    20629715.864    84475222.933 9
        44.000
  24132321.760   126816210.085 4        39.000    24132328.140    98817832.725 6
        19.000
  23324503.126   122571095.195 6        46.250    23324507.446    95509944.834 7
        29.000
  22040442.874   115823326.529 7        49.750    22040450.874    90251946.343 8
        37.500
 18  2 21  8 24 30.0000000  0  8G02G05G06G07G09G16G23G30
  21802840.076   114574681.498 7        48.000    21802843.216    89278970.542 8
        36.750
  22786313.368   119742881.770 6        45.500    22786320.008    93306140.642 7
        31.500
  21845174.296   114797142.973 7        47.500    21845182.316    89452315.420 8
        36.750
  21068312.000   110714747.943 7        51.000    21068317.100    86271237.130 8
        40.500
  20638996.664   108458672.916 8        52.750    20639003.784    84513255.355 9
        43.750
  24133235.000   126821010.108 3        37.000    24133240.780    98821572.991 6
        19.250
  23340381.926   122654539.766 6        44.500    23340385.746    95574966.555 7
        27.500
  22023455.854   115734058.606 7        47.500    22023464.074    90182386.943 8
        37.750
 18  2 21  8 25  0.0000000  0  8G02G05G06G07G09G16G23G30
  21803131.996   114576213.102 7        48.500    21803134.896    89280163.988 8
        37.500
  22768976.690   119651777.645 6        45.500    22768982.690    93235150.405 7
        31.500
  21860499.596   114877677.999 7        47.500    21860507.756    89515069.984 8
        37.500
  21060023.240   110671189.482 7        51.000    21060028.520    86237295.495 8
        40.500
  20648344.644   108507799.084 8        52.500    20648352.404    84551535.482 9
        44.000
  24134265.920   126826425.803 5        39.500    24134271.720    98825793.000 6
        20.250
  23356284.466   122738108.199 6        45.500    23356287.786    95640084.798 7
        27.000
  22006533.554   115645133.411 7        48.000    22006542.134    90113094.606 8
        37.500
 18  2 21  8 25 30.0000000  0  8G02G05G06G07G09G16G23G30
  21803529.636   114578302.964 7        48.500    21803532.916    89281792.441 8
        37.250
  22751675.490   119560861.880 6        44.500    22751682.030    93164306.967 7
        31.250
  21875903.136   114958623.662 7        48.000    21875911.576    89578144.516 8
        37.000
  21051828.760   110628128.715 7        50.500    21051834.100    86203741.657 9
        41.250
  20657753.204   108557241.795 7        51.000    20657761.104    84590062.264 9
        43.500
  24135413.940   126832458.006 5        40.750    24135420.080    98830493.385 6
        20.750
  23372210.386   122821799.873 6        45.750    23372213.706    95705299.049 7
        27.000
  21989677.554   115556553.012 7        49.000    21989685.634    90044070.941 8
        37.750
 18  2 21  8 26  0.0000000  0  8G02G05G06G07G09G16G23G30
  21804033.496   114580951.063 7        47.250    21804036.436    89283855.891 8
        36.500
  22734411.530   119470136.204 6        46.500    22734417.870    93093611.656 7
        31.750
  21891384.354   115039977.221 6        46.500    21891392.934    89641536.877 8
        36.000
  21043729.860   110585566.149 7        51.000    21043734.780    86170576.023 8
        40.000
  20667222.044   108606999.731 7        51.250    20667229.884    84628834.665 9
        43.500
  24136679.020   126839106.566 5        41.250    24136685.400    98835674.061 6
        19.250
  23388159.224   122905613.450 6        44.000    23388163.264    95770608.309 7
        26.500
  21972887.614   115468319.566 7        49.000    21972895.794    89975317.614 8
        37.750
 18  2 21  8 26 30.0000000  0  8G02G05G06G07G09G16G23G30
  21804643.736   114584158.274 7        48.250    21804646.496    89286355.017 8
        37.250
  22717183.370   119379604.290 6        45.000    22717189.850    93023067.311 7
        31.500
  21906942.814   115121736.771 7        48.000    21906950.834    89705245.601 8
        36.750
  21035725.280   110543503.752 7        51.750    21035730.560    86137800.142 8
        40.250
  20676750.504   108657072.371 7        52.000    20676757.984    84667852.303 9
        43.750
  24138061.140   126846371.779 5        39.500    24138066.920    98841335.297 6
        19.750
  23404131.684   122989548.742 6        44.500    23404135.764    95836012.398 7
        26.250
  21956163.514   115380436.052 7        48.000    21956171.794    89906836.961 8
        38.000
 18  2 21  8 27  0.0000000  0  8G02G05G06G07G09G16G23G30
  21805360.616   114587923.638 7        47.750    21805363.116    89289289.048 8
        36.750
  22699992.990   119289266.262 6        47.000    22699998.850    92952674.045 7
        31.750
  21922577.834   115203898.914 6        46.500    21922586.334    89769268.036 8
        36.250
  21027816.300   110501941.816 7        50.500    21027821.780    86105414.230 8
        40.750
  20686338.822   108707457.790 7        51.250    20686345.842    84707113.658 9
        44.000
  24139561.880   126854253.326 4        38.000    24139566.700    98847476.750 6
        20.000
  23420127.384   123073604.075 6        45.000    23420130.444    95901510.040 7
        26.750
  21939507.074   115292903.959 7        49.500    21939514.974    89838630.141 8
        38.000
 18  2 21  8 27 30.0000000  0  8G02G05G06G07G09G16G23G30
  21806183.216   114592247.306 6        46.500    21806185.956    89292658.142 8
        36.750
  22682839.110   119199124.153 6        46.750    22682845.110    92882433.437 7
        31.250
  21938289.014   115286461.202 7        47.500    21938296.894    89833602.266 8
        36.000
  21020002.720   110460881.444 7        50.250    21020008.080    86073419.122 8
        40.250
  20695986.062   108758154.946 7        51.500    20695993.422    84746617.927 9
        43.750
  24141178.220   126862751.270 5        40.250    24141184.760    98854098.494 6
        19.000
  23436145.044   123157778.403 6        43.500    23436148.144    95967100.386 7
        27.250
  21922917.394   115205725.638 7        49.250    21922925.594    89770698.987 8
        38.500
 18  2 21  8 28  0.0000000  0  8G02G05G06G07G09G16G23G30
  21807111.976   114597128.745 7        47.500    21807114.916    89296461.846 8
        36.250
  22665723.510   119109179.576 6        46.500    22665728.830    92812346.776 7
        31.000
  21954075.354   115369420.852 7        47.750    21954084.134    89898246.130 8
        36.500
  21012284.460   110420323.385 7        50.750    21012290.340    86041815.444 8
        40.500
  20705692.482   108809162.491 8        52.500    20705699.702    84786364.060 9
        44.250
  24142913.200   126871865.732 5        40.250    24142919.480    98861200.674 6
        19.750
  23452185.804   123242070.809 6        43.000    23452188.604    96032782.766 7
        26.250
  21906395.694   115118903.271 7        49.250    21906403.434    89703045.218 8
        38.000
 18  2 21  8 28 30.0000000  0  8G02G05G06G07G09G16G23G30
  21808146.896   114602567.893 7        47.500    21808150.276    89300700.133 8
        36.750
  22648646.030   119019434.847 7        48.250    22648651.470    92742415.841 7
        31.750
  21969937.454   115452775.223 6        46.000    21969946.454    89963197.546 8
        37.000
  21004662.300   110380268.685 7        51.000    21004668.060    86010604.006 8
        40.500
  20715457.722   108860479.189 8        52.500    20715465.062    84826351.087 9
        44.250
  24144764.480   126881596.503 4        37.750    24144770.960    98868783.051 6
        19.500
  23468247.824   123326480.565 6        43.000    23468251.184    96098556.567 7
        26.750
  21889941.674   115032439.004 7        50.500    21889950.214    89635670.481 8
        38.750
 18  2 21  8 29  0.0000000  0  8G02G05G06G07G09G16G23G30
  21809288.116   114608564.982 7        47.750    21809291.456    89305373.177 8
        36.500
  22631606.970   118929892.346 7        49.500    22631611.630    92672642.465 7
        32.500
  21985874.194   115536521.794 7        47.250    21985882.414    90028454.593 8
        36.750
  20997136.080   110340718.573 7        50.500    20997141.480    85979785.745 8
        40.500
  20725281.682   108912104.103 7        51.000    20725289.182    84866578.281 9
        43.500
  24146733.600   126891943.796 5        39.750    24146739.160    98876845.822 6
        18.500
  23484333.104   123411006.888 6        42.500    23484336.144    96164421.214 6
        26.000
  21873556.556   114946335.258 7        49.000    21873564.916    89568576.677 8
        37.750
 18  2 21  8 29 30.0000000  0  8G02G05G06G07G09G16G23G30
  21810535.736   114615119.627 6        46.750    21810538.356    89310480.676 8
        36.250
  22614606.010   118840553.148 7        47.500    22614611.090    92603027.496 7
        32.500
  22001884.294   115620657.768 6        45.750    22001893.834    90094015.049 8
        37.000
  20989706.140   110301673.513 7        51.500    20989711.920    85949361.035 8
        40.500
  20735163.962   108964035.733 7        52.000    20735171.222    84907044.477 9
        43.750
  24148820.400   126902907.479 5        40.250    24148826.140    98885388.970 6
        20.000
  23500439.344   123495648.425 6        42.500    23500443.124    96230375.614 7
        26.500
  21857240.716   114860593.976 7        50.250    21857248.896    89501765.305 8
        38.250
 18  2 21  8 30  0.0000000  0  8G02G05G06G07G09G16G23G30
  21811888.656   114622231.298 7        47.500    21811891.196    89316022.220 8
        36.750
  22597644.350   118751419.630 6        46.250    22597649.450    92533572.813 7
        32.500
  22017969.154   115705180.418 6        47.000    22017977.694    90159876.810 8
        37.250
  20982372.642   110263134.438 7        52.000    20982377.922    85919330.600 9
        41.250
  20745104.202   109016272.966 8        52.500    20745111.482    84947748.819 9
        43.750
  24151024.340   126914487.410 5        40.000    24151029.720    98894412.250 6
        20.750
  23516568.224   123580404.234 6        43.750    23516571.424    96296419.082 7
        26.500
  21840994.316   114775217.378 7        48.500    21841002.016    89435238.110 8
        38.000
 18  2 21  8 30 30.0000000  0  8G02G05G06G07G09G16G23G30
  21813348.556   114629900.236 7        48.000    21813350.616    89321998.010 8
        36.500
  22580722.010   118662493.108 7        48.000    22580727.890    92464279.423 7
        33.000
  22034125.694   115790087.353 6        45.750    22034133.774    90226038.017 8
        36.250
  20975135.382   110225102.420 7        51.500    20975140.642    85889695.273 8
        40.750
  20755102.642   109068814.850 8        53.750    20755110.002    84988690.540 9
        43.250
  24153344.820   126926683.443 5        40.500    24153350.200    98903915.650 6
        19.250
  23532717.884   123665273.821 6        42.750    23532721.864    96362551.191 7
        26.750
  21824817.176   114690207.977 7        49.750    21824825.476    89368997.039 8
        38.000
 18  2 21  8 31  0.0000000  0  8G02G05G06G07G09G16G23G30
  21814913.316   114638126.190 6        46.250    21814916.396    89328407.830 8
        36.750
  22563839.630   118573776.210 7        47.250    22563845.330    92395149.390 7
        32.000
  22050355.694   115875375.879 6        47.000    22050364.374    90292496.564 8
        36.750
  20967994.722   110187578.474 7        51.250    20968000.362    85860455.834 8
        41.000
  20765158.862   109121660.206 8        52.500    20765166.022    85029868.732 9
        43.500
  24155782.680   126939495.180 5        39.500    24155787.860    98913898.808 6
        20.250
  23548890.324   123750256.260 6        42.750    23548893.244    96428771.245 6
        25.500
  21808710.876   114605567.961 7        49.500    21808719.276    89303043.817 8
        38.500
 18  2 21  8 31 30.0000000  0  8G02G05G06G07G09G16G23G30
  21816584.796   114646908.718 6        47.000    21816587.616    89335251.344 8
        36.000
  22546997.690   118485270.343 7        49.000    22547003.410    92326183.780 8
        33.500
  22066657.854   115961043.105 6        45.500    22066666.454    90359250.213 8
        36.000
  20960951.122   110150563.241 8        52.750    20960956.122    85831612.804 8
        40.750
  20775272.262   109174807.654 8        53.500    20775279.482    85071282.330 9
        43.500
  24158338.040   126952922.970 5        40.750    24158342.940    98924362.031 6
        19.750
  23565082.944   123835350.550 6        42.750    23565086.244    96495078.443 7
        26.500
  21792674.796   114521299.253 7        50.000    21792682.596    89237379.919 8
        38.250
 18  2 21  8 32  0.0000000  0  8G02G05G06G07G09G16G23G30
  21818361.656   114656247.397 6        47.000    21818364.596    89342528.224 8
        36.750
  22530196.190   118396977.875 7        47.500    22530201.570    92257384.456 7
        33.000
  22083031.234   116047086.410 6        46.750    22083039.474    90426296.891 8
        36.000
  20954004.282   110114057.724 7        52.000    20954009.262    85803166.965 8
        41.000
  20785443.302   109228256.099 8        53.500    20785450.422    85112930.457 9
        43.500
  24161010.200   126966966.157 5        40.500    24161015.520    98935304.737 6
        20.500
  23581297.004   123920555.814 6        42.750    23581300.724    96561472.112 6
        26.000
  21776710.236   114437404.091 7        49.500    21776718.616    89172007.109 8
        38.750
 18  2 21  8 32 30.0000000  0  8G02G05G06G07G09G16G23G30
  21820244.476   114666142.009 7        47.750    21820247.196    89350238.307 8
        36.000
  22513435.810   118308900.698 7        48.750    22513441.050    92188752.910 7
        32.000
  22099475.474   116133502.948 6        45.250    22099484.994    90493634.421 8
        35.750
  20947154.582   110078062.836 8        52.250    20947159.902    85775119.000 8
        40.500
  20795671.022   109282004.229 8        54.000    20795678.542    85154812.120 9
        43.000
  24163799.800   126981624.605 5        40.000    24163805.180    98946726.845 6
        19.500
  23597532.424   124005870.813 6        42.750    23597534.944    96627951.303 6
        25.500
  21760817.076   114353884.580 7        50.500    21760825.096    89106927.011 8
        38.000
 18  2 21  8 33  0.0000000  0  8G02G05G06G07G09G16G23G30
  21822233.376   114676592.643 7        48.000    21822236.416    89358381.646 8
        36.000
  22496716.350   118221040.259 7        48.750    22496721.810    92120290.237 8
        33.500
  22115991.334   116220290.456 6        46.750    22115999.454    90561260.984 8
        36.500
  20940402.442   110042579.441 7        51.750    20940407.802    85747469.616 8
        40.750
  20805956.162   109336051.257 8        53.000    20805963.082    85196926.669 9
        43.000
  24166706.720   126996898.376 5        40.250    24166711.680    98958628.514 6
        19.250
  23613787.224   124091295.158 6        43.000    23613791.384    96694515.683 6
        24.500
  21744995.636   114270743.224 7        49.750    21745003.556    89042141.584 8
        38.000
 18  2 21  8 33 30.0000000  0  8G02G05G06G07G09G16G23G30
  21824327.476   114687598.500 7        47.750    21824330.636    89366957.616 8
        36.000
  22480039.172   118133398.885 7        48.500    22480043.732    92051998.271 7
        33.000
  22132576.354   116307445.568 6        46.500    22132584.554    90629174.055 8
        36.000
  20933747.182   110007607.621 7        51.500    20933752.922    85720218.851 8
        41.000
  20816297.622   109390395.471 8        52.500    20816304.382    85239272.804 9
        43.250
  24169729.840   127012786.689 5        41.000    24169735.260    98971009.028 6
        20.000
  23630064.244   124176827.590 6        43.250    23630066.884    96761164.323 6
        25.250
  21729246.616   114187981.676 7        50.500    21729254.896    88977652.123 8
        38.750
 18  2 21  8 34  0.0000000  0  8G02G05G06G07G09G16G23G30
  21826527.736   114699159.131 7        48.750    21826530.796    89375965.888 8
        36.500
  22463403.572   118045978.451 7        48.500    22463408.192    91983878.461 8
        33.500
  22149230.794   116394965.735 6        46.000    22149239.834    90697371.524 8
        35.500
  20927189.962   109973148.451 7        51.000    20927195.382    85693367.560 8
        41.000
  20826695.262   109445035.758 8        52.750    20826702.342    85281849.643 9
        43.000
  24172869.800   127029289.361 5        39.500    24172875.120    98983868.275 6
        19.250
  23646360.424   124262467.447 6        44.000    23646364.784    96827896.620 7
        27.000
  21713570.516   114105602.024 7        51.500    21713578.336    88913460.240 8
        39.250
 18  2 21  8 34 30.0000000  0  8G02G05G06G07G09G16G23G30
  21828833.276   114711274.135 7        48.500    21828836.156    89385406.142 8
        36.500
  22446809.972   117958780.462 7        48.000    22446815.312    91915931.982 8
        33.500
  22165954.394   116482848.197 6        46.250    22165962.294    90765851.336 8
        36.000
  20920730.582   109939202.725 7        51.500    20920735.682    85666916.357 8
        41.000
  20837148.882   109499971.032 8        52.750    20837156.102    85324656.352 9
        42.750
  24176126.540   127046406.344 5        40.000    24176132.560    98997206.124 6
        19.000
  23662678.024   124348213.535 6        44.000    23662680.904    96894711.731 6
        24.500
  21697967.296   114023606.544 7        51.250    21697975.076    88849567.679 8
        39.250
 18  2 21  8 35  0.0000000  0  8G02G05G06G07G09G16G23G30
