     2.11           OBSERVATION DATA    G (GPS)             RINEX VERSION / TYPE
teqc  2016Nov7                          20180403 09:56:50UTCPGM / RUN BY / DATE
FEGA                                                        MARKER NAME
18646M001                                                   MARKER NUMBER
Automatic           EXAGONE                                 OBSERVER / AGENCY
1294-10719          TPS NET-G5          5.1                 REC # / TYPE / VERS
383-0981            TPSCR.G3        TPSH                    ANT # / TYPE
  4203470.8670   245064.8420  4774998.3550                  APPROX POSITION XYZ
        0.0000        0.0000        0.0000                  ANTENNA: DELTA H/E/N
     1     1                                                WAVELENGTH FACT L1/2
     9    C1    L1    D1    P2    L2    D2    P1    S1    S2# / TYPES OF OBSERV
    30.0000                                                 INTERVAL
    18                                                      LEAP SECONDS
Linux 2.4.21-27.ELsmp|Opteron|gcc|Linux x86_64|=+           COMMENT
teqc  2016Nov7                          20180403 09:56:50UTCCOMMENT
     2.11           OBSERVATION DATA    M (MIXED)           COMMENT
teqc  2016Nov7                          20180403 09:56:48UTCCOMMENT
teqc  2016Nov7      IGN-RGP             20180221 09:07:46UTCCOMMENT
teqc_2016 edited: GLONASS # 25 - 30 excluded                COMMENT
GN-RINEX 1.3        Geo++ Teria         21-FEB-18 08:00     COMMENT
Forced Modulo Decimation to 30 seconds                      COMMENT
teqc_2016 edited: all GLONASS satellites excluded           COMMENT
teqc_2016 edited: all SBAS satellites excluded              COMMENT
teqc_2016 edited: all Galileo satellites excluded           COMMENT
  2018     2    21     8     0    0.0000000     GPS         TIME OF FIRST OBS
                                                            END OF HEADER
 18  2 21  8  0  0.0000000  0 10G09G06G07G02G23G30G05G29G26G03
  20322187.788 9  69045096.527 9     -1112.512    20322191.440 8  79021689.85818
      -866.892    20322187.419          54.750          49.500
  21293121.098 8  74147366.635 8     -1985.379    21293125.556 7  82997478.980 7
     -1547.049    21293120.792          50.250          43.750
  21659369.953 9  76072028.627 9      2157.531    21659371.080 7  80302903.011 7
      1681.193    21659369.668          51.750          41.750
  22011949.993 8  77924837.186 8       774.398    22011948.746 7  81746633.602 7
       603.427    22011949.226          47.500          38.750
  22637932.376 8  81214404.790 8     -2598.235    22637931.578 6  84309935.345 6
     -2024.599    22637931.752          46.000          34.000
  23009333.734 8  83166094.222 8      3370.065    23009337.652 6  85830805.607 6
      2626.025    23009332.744          45.000          33.500
  23768564.828 8  87155913.297 8      3214.129    23768566.015 5  88939697.35115
      2504.516    23768564.774          44.500          28.000
  25044284.179 7  98054156.946 7       791.960    25044281.238 3  94163558.530 3
       617.112    25044282.527          41.750          18.000
  25195682.419 6  94655480.632 6     -1107.962    25195688.793 3  94783472.378 3
      -863.347    25195682.032          37.500          18.000
  25421564.989 7  95842462.795 7     -3499.202    25421569.914 4  99902758.24714
     -2726.651    25421564.608          41.500          21.750
 18  2 21  8  0 30.0000000  0 10G09G06G07G02G23G30G05G29G26G03
  20328574.690 9  69078659.748 9     -1125.124    20328578.194 8  79047843.01118
      -876.720    20328574.315          55.500          50.000
  21304504.550 8  74207187.952 8     -2002.819    21304509.185 7  83044092.995 7
     -1560.638    21304504.598          49.750          43.500
  21647093.362 9  76007515.787 9      2143.256    21647094.741 7  80252633.262 7
      1670.070    21647093.068          52.000          41.500
  22007579.583 8  77901870.305 8       756.629    22007578.261 7  81728737.329 7
       589.581    22007578.686          48.250          39.000
  22652782.298 8  81292441.045 8     -2604.247    22652781.729 6  84370742.796 6
     -2029.284    22652781.890          48.250          34.000
  22990115.682 7  83065104.987 7      3362.508    22990120.632 6  85752112.734 6
      2620.136    22990114.864          44.000          33.500
  23750225.609 7  87059540.349 7      3210.651    23750227.033 5  88864601.54115
      2501.806    23750225.042          43.500          27.000
  25039813.578 6  98030674.609 6       773.603    25039820.593 3  94145260.474 3
       602.808    25039812.277          37.250          17.500
  25202057.739 6  94688982.483 6     -1125.565    25202064.743 4  94809623.625 4
      -877.064    25202060.728          37.250          23.250
  25441546.645 7  95947470.964 7     -3501.359    25441553.246 4  99984582.75614
     -2728.332    25441546.675          39.000          21.250
 18  2 21  8  1  0.0000000  0 10G09G06G07G02G23G30G05G29G26G03
  20335033.670 9  69112602.093 9     -1137.813    20335037.247 8  79074291.58718
      -886.607    20335033.394          55.500          49.250
  21315988.029 8  74267533.653 8     -2020.272    21315992.792 7  83091115.613 7
     -1574.238    21315987.756          50.250          43.750
  21634898.378 9  75943432.037 9      2128.858    21634900.017 7  80202697.871 7
      1658.850    21634898.093          51.250          41.250
  22003311.156 8  77879441.011 8       738.584    22003310.139 7  81711259.953 7
       575.520    22003310.508          47.500          38.500
  22667666.517 8  81370658.227 8     -2610.301    22667666.169 6  84431691.225 6
     -2034.001    22667665.600          47.000          34.000
  22970941.217 8  82964344.638 8      3354.685    22970946.431 6  85673598.202 6
      2614.040    22970941.160          45.250          33.000
  23731906.872 7  86963275.959 7      3206.935    23731907.876 5  88789590.31715
      2498.911    23731906.512          42.500          26.750
  25035453.771 7  98007748.869 7       754.877    25035451.586 4  94127396.402 4
       588.216    25035453.156          43.250          21.000
  25208533.580 6  94723018.990 6     -1143.554    25208541.093 4  94836146.596 4
      -891.081    25208533.430          33.750          20.750
  25461540.562 6  96052546.976 6     -3503.689    25461546.441 3 100066460.17213
     -2730.147    25461541.261          36.250          15.500
 18  2 21  8  1 30.0000000  0 10G09G06G07G02G23G30G05G29G26G03
  20341564.481 9  69146921.990 9     -1150.310    20341568.102 8  79101034.35518
      -896.346    20341564.226          56.250          49.750
  21327570.573 9  74328401.410 9     -2037.700    21327575.379 7  83138545.028 7
     -1587.819    21327570.411          51.750          43.250
  21622785.413 9  75879778.650 9      2114.593    21622787.284 7  80153097.841 7
      1647.735    21622785.104          50.750          41.000
  21999145.471 8  77857549.650 8       720.669    21999144.397 7  81694201.739 7
       561.561    21999144.487          48.750          38.750
  22682584.756 8  81449054.701 8     -2616.245    22682584.394 6  84492779.372 6
     -2038.632    22682584.175          47.000          33.750
  22951810.921 8  82863815.147 8      3347.132    22951816.113 6  85595263.570 6
      2608.155    22951810.513          45.500          33.500
  23713609.603 8  86867121.113 8      3203.261    23713610.841 5  88714664.46715
      2496.048    23713609.561          45.500          27.500
  25031193.999 7  97985379.991 7       736.416    25031201.092 3  94109965.900 3
       573.831    25031194.083          38.500          17.750
  25215113.581 6  94757588.741 6     -1161.251    25215118.723 2  94863084.002 2
      -904.871    25215113.242          37.500          14.250
  25481548.432 6  96157689.223 6     -3505.893    25481554.623 2 100148389.16912
     -2731.865    25481547.113          32.500          11.000
 18  2 21  8  2  0.0000000  0 10G09G06G07G02G23G30G05G29G26G03
  20348166.966 9  69181618.246 9     -1162.807    20348170.660 8  79128070.39418
      -906.083    20348166.663          55.000          49.500
  21339252.250 8  74389789.192 8     -2054.898    21339257.164 7  83186379.657 7
     -1601.219    21339252.091          49.750          43.250
  21610754.943 9  75816557.576 9      2100.186    21610756.810 7  80103834.676 7
      1636.509    21610754.712          52.000          41.250
  21995082.230 8  77836197.255 8       702.812    21995081.325 7  81677563.503 7
       547.646    21995081.493          45.500          38.500
  22697537.412 8  81527629.448 8     -2622.060    22697536.572 6  84554006.434 6
     -2043.164    22697536.330          45.750          34.000
  22932725.135 7  82763518.981 7      3339.309    22932730.327 6  85517110.749 6
      2602.059    22932724.736          44.250          33.250
  23695332.959 8  86771078.000 8      3199.668    23695334.641 5  88639825.67415
      2493.247    23695332.959          45.000          28.500
  25027046.820 7  97963568.907 7       717.694    25027050.040 4  94092970.410 4
       559.242    25027047.123          43.250          24.500
  25221793.239 6  94792690.485 6     -1178.674    25221798.755 3  94890436.047 3
      -918.448    25221792.348          37.000          14.750
  25501569.712 6  96262896.767 6     -3507.849    25501576.982 1 100230368.903 1
     -2733.389    25501570.755          34.250           6.000
 18  2 21  8  2 30.0000000  0 10G09G06G07G02G23G30G05G29G26G03
  20354840.838 9  69216689.176 9     -1175.316    20354844.372 8  79155398.38418
      -915.831    20354840.523          54.500          49.750
  21351032.520 8  74451694.532 8     -2072.142    21351037.316 7  83234617.576 7
     -1614.657    21351032.328          48.250          43.000
  21598806.912 9  75753769.594 9      2085.683    21598808.642 7  80054908.978 7
      1625.207    21598806.705          50.750          41.500
  21991121.873 8  77815384.264 8       684.688    21991120.404 7  81661345.584 7
       533.523    21991121.079          48.000          39.000
  22712522.988 8  81606380.804 8     -2627.987    22712522.673 6  84615371.106 6
     -2047.782    22712522.316          48.000          33.500
  22913684.257 8  82663458.079 8      3331.429    22913689.567 6  85439141.240 6
      2595.919    22913684.063          45.750          33.750
  23677077.964 8  86675146.409 8      3195.806    23677079.853 5  88565073.80515
      2490.238    23677077.589          45.000          29.000
  25022999.859 6  97942315.342 6       699.230    25022996.018 2  94076409.058 2
       544.855    25022999.061          38.250          14.250
  25228574.244 6  94828322.891 6     -1197.081    25228579.683 3  94918201.536 3
      -932.790    25228573.771          35.500          15.250
  25521602.146 6  96368167.905 6     -3510.264    25521609.144 3 100312398.258 3
     -2735.271    25521602.099          36.250          15.500
 18  2 21  8  3  0.0000000  0 10G09G06G07G02G23G30G05G29G26G03
  20361586.123 9  69252135.509 9     -1187.758    20361589.586 8  79183018.89818
      -925.525    20361585.698          55.000          49.750
  21362911.244 9  74514117.302 9     -2089.292    21362916.032 7  83283258.699 7
     -1628.020    21362911.121          51.750          43.250
  21586942.098 9  75691418.525 9      2071.067    21586943.513 7  80006323.729 7
      1613.818    21586941.762          51.000          41.750
  21987264.333 8  77795113.530 8       666.698    21987263.059 7  81645550.206 7
       519.505    21987263.517          48.500          38.750
  22727542.764 8  81685309.206 8     -2633.857    22727541.885 6  84676873.743 6
     -2052.356    22727542.011          45.000          33.500
  22894689.153 8  82563636.793 8      3323.458    22894694.279 6  85361358.461 6
      2589.708    22894688.889          45.750          34.000
  23658844.806 8  86579330.846 8      3191.994    23658846.727 5  88490412.34215
      2487.268    23658844.494          44.500          29.500
  25019064.729 7  97921622.327 7       680.533    25019069.469 4  94060284.631 4
       530.285    25019064.267          42.750          21.000
  25235454.847 6  94864486.574 6     -1214.871    25235460.426 3  94946381.008 3
      -946.653    25235454.799          34.750          15.000
  25541647.254 6  96473503.637 6     -3512.331    25541653.798 3 100394477.928 3
     -2736.881    25541646.861          38.250          18.500
 18  2 21  8  3 30.0000000  0 10G09G06G07G02G23G30G05G29G26G03
  20368402.049 9  69287954.091 9     -1200.197    20368405.661 8  79210929.47518
      -935.219    20368401.764          55.250          49.250
  21374887.719 9  74577053.522 9     -2106.400    21374892.345 7  83332299.908 7
     -1641.351    21374887.503          51.250          43.500
  21575160.260 9  75629504.118 9      2056.523    21575161.546 7  79958078.729 7
      1602.485    21575160.030          52.250          42.000
  21983509.951 8  77775383.847 8       648.619    21983508.833 7  81630176.427 7
       505.418    21983509.297          47.750          38.750
  22742595.469 8  81764411.602 8     -2639.625    22742595.169 6  84738511.962 6
     -2056.851    22742595.118          46.250          33.250
  22875739.523 8  82464055.594 8      3315.379    22875744.521 6  85283762.747 6
      2583.412    22875739.172          47.000          34.000
  23640633.739 8  86483630.549 8      3188.065    23640634.869 5  88415840.70315
      2484.206    23640633.577          45.250          29.250
  25015230.596 7  97901488.128 7       661.784    25015228.854 4  94044595.761 4
       515.675    25015228.411          38.500          23.750
  25242437.286 6  94901178.448 6     -1231.815    25242442.710 3  94974972.090 3
      -959.856    25242436.915          35.750          14.500
  25561704.655 7  96578900.869 7     -3514.336    25561710.960 3 100476605.527 3
     -2738.444    25561704.053          41.000          20.000
 18  2 21  8  4  0.0000000  0 10G09G06G07G02G23G30G05G29G26G03
  20375288.578 9  69324143.303 9     -1212.434    20375292.227 8  79239128.85418
      -944.754    20375288.356          54.500          49.250
  21386961.231 8  74640500.738 8     -2123.325    21386965.941 7  83381739.294 7
     -1654.539    21386961.084          48.750          43.500
  21563461.774 9  75568027.729 9      2041.995    21563462.979 7  79910175.048 7
      1591.165    21563461.474          51.750          41.750
  21979858.640 8  77756195.668 8       630.642    21979857.330 7  81615224.597 7
       491.409    21979857.654          48.500          39.000
  22757681.034 8  81843686.556 8     -2645.270    22757680.363 6  84800284.631 6
     -2061.249    22757680.354          45.500          33.250
  22856835.816 8  82364716.511 8      3307.316    22856840.858 6  85206355.708 6
      2577.130    22856835.135          46.000          34.250
  23622444.503 8  86388045.646 8      3184.228    23622445.315 5  88341358.96515
      2481.217    23622444.716          45.250          28.750
  25011508.544 7  97881913.630 7       643.267    25011513.386 2  94029342.632 2
       501.247    25011507.693          41.500          10.250
  25249520.102 7  94938397.077 7     -1249.309    25249523.550 3  95003973.622 3
      -973.487    25249520.501          38.500          15.250
  25581772.322 7  96684358.198 7     -3516.044    25581777.694 4 100558779.99214
     -2739.774    25581772.184          39.500          21.000
 18  2 21  8  4 30.0000000  0 10G09G06G07G02G23G30G05G29G26G03
  20382245.385 9  69360700.671 9     -1224.816    20382248.968 8  79267615.10818
      -954.402    20382245.109          55.250          49.750
  21399131.492 9  74704455.550 9     -2140.384    21399136.045 7  83431574.211 7
     -1667.832    21399131.288          51.250          43.000
  21551846.621 9  75506989.657 9      2027.137    21551847.805 7  79862612.913 7
      1579.587    21551846.216          52.500          42.000
  21976310.201 8  77737548.268 8       612.404    21976309.026 7  81600694.156 7
       477.198    21976309.389          47.500          39.000
  22772798.941 8  81923131.479 8     -2651.153    22772798.060 6  84862189.739 6
     -2065.833    22772798.213          46.000          33.000
  22837978.570 8  82265620.642 8      3298.975    22837983.181 6  85129138.192 6
      2570.630    22837978.277          46.250          34.000
  23604277.557 8  86292576.931 8      3180.203    23604278.315 5  88266967.75615
      2478.080    23604277.161          46.000          28.500
  25007886.706 6  97862897.174 6       624.485    25007893.622 3  94014524.856 3
       486.612    25007886.050          37.250          20.250
  25256702.701 7  94976139.920 7     -1266.875    25256707.395 3  95033383.647 3
      -987.175    25256701.151          40.500          15.000
  25601851.026 6  96789873.323 6     -3518.391    25601857.433 3 100640999.487 3
     -2741.604    25601851.629          38.250          20.250
 18  2 21  8  5  0.0000000  0 10G09G06G07G02G23G30G05G29G26G03
  20389272.272 9  69397628.579 9     -1237.083    20389276.109 8  79296390.09818
      -963.961    20389272.077          54.750          49.250
  21411398.345 8  74768919.485 8     -2157.317    21411403.106 7  83481805.846 7
     -1681.026    21411398.390          50.000          43.000
  21540315.842 9  75446394.864 9      2012.438    21540317.086 7  79815396.188 7
      1568.134    21540315.485          50.500          42.000
  21972865.310 8  77719445.820 8       594.325    21972864.354 7  81586588.348 7
       463.111    21972864.470          47.250          39.000
  22787949.457 8  82002748.624 8     -2656.757    22787948.968 6  84924229.068 6
     -2070.200    22787949.046          46.750          33.000
  22819168.623 8  82166773.978 8      3290.756    22819173.276 6  85052114.852 6
      2564.225    22819167.838          47.250          34.000
  23586133.383 8  86197230.290 8      3176.240    23586134.336 5  88192671.66715
      2474.992    23586133.056          45.250          27.750
  25004378.124 7  97844443.448 7       605.820    25004372.164 3  94000145.029 3
       472.068    25004377.363          41.000          17.500
  25263985.457 7  95014409.428 7     -1284.335    25263991.824 3  95063204.020 3
     -1000.780    25263983.565          41.250          16.000
  25621941.960 6  96895448.775 6     -3520.055    25621947.299 3 100723265.901 3
     -2742.900    25621942.065          36.750          16.500
 18  2 21  8  5 30.0000000  0 10G09G06G07G02G30G23G05G29G26G03
  20396369.504 9  69434923.305 9     -1249.202    20396372.961 8  79325450.91818
      -973.404    20396369.126          55.500          49.500
  21423761.394 9  74833887.908 9     -2173.927    21423766.265 7  83532430.582 7
     -1693.969    21423761.475          51.500          42.750
  21528868.824 9  75386242.650 9      1997.757    21528870.416 7  79768524.348 7
      1556.694    21528868.665          52.000          41.500
  21969524.033 8  77701887.171 8       576.332    21969522.951 7  81572906.281 7
       449.090    21969523.143          48.000          38.750
  22800406.217 8  82068176.491 8      3282.510    22800410.690 6  84975285.686 6
      2557.800    22800405.633          46.750          34.250
  22803132.272 8  82082534.343 8     -2662.275    22803131.900 6  84986399.742 6
     -2074.500    22803131.463          47.500          32.750
  23568012.137 8  86102004.926 8      3172.277    23568014.181 5  88118470.08215
      2471.904    23568012.398          45.250          27.750
  25000970.021 6  97826550.218 6       587.136    25000977.857 3  93986202.417 3
       457.509    25000968.791          36.500          16.250
  25271367.354 7  95053201.827 7     -1301.613    25271372.901 3  95093431.865 3
     -1014.244    25271367.282          42.000          19.750
  25642041.779 6  97001081.007 6     -3521.873    25642047.802 3 100805576.622 3
     -2744.316    25642041.875          33.750          14.750
 18  2 21  8  6  0.0000000  0 10G09G06G07G02G30G23G05G29G26G03
  20403536.334 9  69472585.241 9     -1261.618    20403539.826 8  79354797.87318
      -983.079    20403535.953          56.000          49.250
  21436220.675 9  74899360.284 9     -2190.951    21436225.187 7  83583448.012 7
     -1707.234    21436220.378          51.750          43.250
  21517506.948 9  75326536.252 9      1982.636    21517508.630 7  79721999.890 7
      1544.911    21517506.825          51.500          41.500
  21966286.418 8  77684874.529 8       557.904    21966285.372 7  81559649.667 7
       434.730    21966285.840          48.000          39.000
  22781692.270 8  81969832.155 8      3273.776    22781696.758 6  84898653.784 6
      2550.994    22781691.112          46.500          34.750
  22818346.964 8  82162489.068 8     -2668.064    22818346.290 6  85048702.116 6
     -2079.011    22818346.502          45.750          32.750
  23549915.375 8  86006903.271 8      3167.868    23549917.341 5  88044364.92515
      2468.469    23549914.655          45.250          28.250
  24997675.736 7  97809219.957 7       568.210    24997668.085 3  93972698.229 3
       442.761    24997676.558          41.000          16.000
  25278848.474 7  95092517.516 7     -1319.303    25278853.907 3  95124067.454 3
     -1028.028    25278848.864          40.250          19.000
  25662156.309 6  97106770.599 6     -3524.002    25662161.333 2 100887932.011 2
     -2745.976    25662155.709          35.000          10.750
 18  2 21  8  6 30.0000000  0 10G09G06G07G02G30G23G05G29G26G03
  20410773.042 9  69510615.591 9     -1273.687    20410776.771 8  79384431.90318
      -992.484    20410772.796          54.250          49.250
  21448775.435 9  74965336.917 9     -2207.535    21448780.144 7  83634858.360 7
     -1720.157    21448775.249          50.750          42.750
  21506230.878 8  75267279.468 8      1967.762    21506232.389 7  79675825.784 7
      1533.321    21506230.569          49.500          41.500
  21963153.725 8  77668410.728 8       539.742    21963152.529 7  81546820.727 7
       420.578    21963152.850          48.750          38.750
  22763027.140 8  81871745.773 8      3265.300    22763031.610 6  84822222.883 6
      2544.390    22763026.118          45.750          35.250
  22833594.459 7  82242614.156 7     -2673.567    22833594.223 6  85111137.217 6
     -2083.299    22833593.917          43.250          32.500
  23531842.464 8  85911928.853 8      3163.791    23531844.425 5  87970358.91515
      2465.291    23531842.288          45.250          30.000
  24994482.035 5  97792455.158 5       549.361    24994486.286 1  93959634.659 1
       428.074    24994480.866          32.250           5.750
  25286430.391 7  95132357.655 7     -1336.593    25286436.009 3  95155111.681 3
     -1041.501    25286429.275          39.250          19.250
  25682278.523 6  97212518.993 6     -3525.873    25682281.110 2 100970333.246 2
     -2747.433    25682275.315          33.000           9.250
 18  2 21  8  7  0.0000000  0 10G09G06G07G02G30G23G05G29G26G03
  20418079.805 9  69549012.450 9     -1285.962    20418083.466 8  79414351.53018
     -1002.048    20418079.422          54.500          49.750
  21461425.720 9  75031814.937 9     -2224.270    21461430.622 7  83686659.396 7
     -1733.197    21461425.678          50.500          42.750
  21495040.357 9  75208473.296 9      1952.732    21495041.892 7  79630002.805 7
      1521.609    21495040.105          52.000          42.000
  21960125.183 8  77652496.295 8       521.334    21960124.163 7  81534419.860 7
       406.234    21960124.448          46.250          38.750
  22744411.042 8  81773919.054 8      3256.570    22744415.383 6  84745994.318 6
      2537.587    22744410.205          47.250          35.500
  22848873.652 8  82322907.580 8     -2679.255    22848873.439 6  85173703.504 6
     -2087.731    22848872.845          46.750          32.500
  23513794.209 8  85817082.938 8      3159.351    23513796.263 5  87896453.02815
      2461.832    23513794.023          45.250          30.750
  24991403.334 7  97776255.873 7       530.445    24991407.337 3  93947011.905 3
       413.334    24991402.915          40.250          18.750
  25294111.166 7  95172720.274 7     -1354.203    25294116.245 3  95186563.056 3
     -1055.223    25294110.872          40.500          19.500
  25702412.392 6  97318324.396 6     -3527.710    25702419.108 1 101052778.911 1
     -2748.865    25702413.612          33.250           6.250
 18  2 21  8  7 30.0000000  0 10G09G06G07G02G30G23G05G29G26G03
  20425455.704 9  69587772.459 9     -1298.054    20425459.320 8  79444554.13018
     -1011.471    20425455.312          53.750          49.000
  21474170.698 8  75098790.045 8     -2240.769    21474175.510 7  83738847.777 7
     -1746.054    21474170.578          48.750          42.500
  21483935.637 9  75150117.191 9      1937.707    21483937.190 7  79584530.514 7
      1509.902    21483935.511          51.500          42.000
  21957201.013 8  77637128.983 8       503.030    21957199.706 7  81522445.328 7
       391.971    21957200.279          48.500          39.000
  22725844.184 8  81676352.285 8      3247.826    22725849.095 6  84669968.288 6
      2530.773    22725843.528          46.500          35.000
  22864184.451 8  82403366.076 8     -2684.760    22864184.122 6  85236398.420 6
     -2092.021    22864183.705          47.250          32.750
  23495769.949 8  85722365.091 8      3155.083    23495771.175 5  87822646.93015
      2458.506    23495770.267          46.500          30.750
  24988423.676 5  97760619.680 5       511.854
                                        29.750
  25301890.163 7  95213601.911 7     -1371.367    25301895.325 4  95218418.827 4
     -1068.598    25301890.142          39.000          20.750
  25722556.533 5  97424183.663 5     -3529.822    25722563.836 1 101135266.493 1
     -2750.511    25722557.207          31.500           4.750
 18  2 21  8  8  0.0000000  0 10G09G07G06G02G30G23G05G29G26G03
  20432900.477 9  69626895.666 9     -1310.121    20432904.210 8  79475039.73918
     -1020.874    20432900.238          56.000          49.000
  21472917.341 9  75092214.012 9      1922.475    21472918.651 7  79539411.141 7
      1498.032    21472917.020          53.000          42.250
  21487010.149 9  75166261.297 9     -2257.324    21487014.901 7  83791422.767 7
     -1758.954    21487009.946          50.500          42.750
  21954381.321 8  77622311.542 8       484.761    21954380.065 7  81510899.262 7
       377.736    21954380.365          48.500          38.750
  22707328.220 8  81579049.123 8      3238.990    22707332.939 6  84594147.690 6
      2523.888    22707327.230          47.250          34.750
  22879526.801 8  82483989.629 8     -2690.202    22879526.241 6  85299221.950 6
     -2096.261    22879525.857          46.000          32.500
  23477770.506 8  85627778.406 8      3150.736    23477771.327 5  87748943.02815
      2455.119    23477770.254          45.500          30.250
  24985559.912 7  97745549.200 7       492.819    24985563.878 3  93923057.458 3
       384.015    24985559.789          42.000          16.250
  25309768.379 6  95255002.544 6     -1388.789    25309774.336 4  95250679.053 4
     -1082.174    25309766.880          37.750          20.500
  25742711.688 5  97530097.161 5     -3531.827    25742708.843 1 101217784.45511
     -2752.073                          31.500           1.250
 18  2 21  8  8 30.0000000  0 10G09G07G06G02G30G23G05G29G26G03
  20440414.257 9  69666380.658 9     -1322.219    20440417.938 8  79505807.26118
     -1030.300    20440413.909          55.000          49.250
  21461985.286 9  75034765.110 9      1907.347    21461986.536 7  79494645.750 7
      1486.244    21461984.938          51.250          42.250
  21499943.562 9  75234226.311 9     -2273.744    21499948.284 7  83844382.511 7
     -1771.748    21499943.517          51.500          42.750
  21951666.299 8  77608044.028 8       466.390    21951665.321 7  81499781.711 7
       363.421    21951665.519          48.250          39.250
  22688862.608 8  81482011.728 8      3230.153    22688867.141 6  84518534.170 6
      2517.002    22688861.844          46.500          35.000
  22894899.943 8  82564777.056 8     -2695.707    22894899.358 5  85362173.174 5
     -2100.551    22894899.403          47.000          32.250
  23459796.065 8  85533324.120 8      3146.172    23459796.980 5  87675342.30215
      2451.562    23459795.558          44.500          29.500
  24982796.302 6  97731044.008 6       474.063    24982801.557 3  93911754.796 3
       369.400    24982796.218          34.750          18.750
  25317744.729 6  95296920.656 6     -1406.053    25317750.671 3  95283342.482 3
     -1095.626    25317745.308          37.750          19.500
  25762874.136 5  97636065.419 5     -3532.154
                                        29.500
 18  2 21  8  9  0.0000000  0 10G09G07G06G02G30G23G05G29G26G03
  20447996.419 9  69706225.289 9     -1334.167    20448000.139 8  79536855.02018
     -1039.610    20447996.080          54.000          49.250
  21451139.664 9  74977770.921 9      1892.156    21451140.935 7  79450234.674 7
      1474.408    21451139.352          51.750          42.750
  21512970.249 8  75302681.896 8     -2289.965    21512974.832 7  83897724.513 7
     -1784.388    21512969.982          49.250          42.500
  21949055.877 8  77594326.193 8       448.093    21949054.699 7  81489092.479 7
       349.163    21949055.280          48.250          39.250
  22670447.851 8  81385241.569 8      3221.190    22670452.048 6  84443128.872 6
      2510.018    22670447.014          46.500          35.250
  22910304.086 8  82645726.195 8     -2700.981    22910303.744 5  85425250.413 5
     -2104.661    22910303.645          44.750          32.250
  23441846.711 8  85439002.976 8      3141.791    23441848.081 5  87601845.31315
      2448.149    23441847.299          44.500          28.750
  24980145.243 6  97717103.510 6       455.190    24980142.314 2  93900892.058 2
       354.693    24980142.491          38.000           8.500
  25325819.567 6  95339353.948 6     -1422.981    25325826.678 3  95316407.323 3
     -1108.816    25325818.626          36.750          18.750
  25783049.644 5  97742082.919 5     -3534.799
                                        27.500
 18  2 21  8  9 30.0000000  0  9G09G07G06G02G30G23G05G29G26
  20455646.882 9  69746428.754 9     -1346.055    20455650.675 8  79568182.39018
     -1048.874    20455646.660          55.250          49.500
  21440380.931 9  74921233.413 9      1876.972    21440382.391 7  79406179.463 7
      1462.576    21440380.463          51.500          42.750
  21526090.015 8  75371626.290 8     -2306.231    21526094.569 7  83951447.400 7
     -1797.063    21526089.778          49.750          42.500
  21946550.220 8  77581159.079 8       429.708    21946549.279 7  81478832.386 7
       334.837    21946549.408          48.750          39.250
  22652084.204 8  81288741.520 8      3212.128    22652089.253 6  84367934.047 6
      2502.957    22652084.070          47.000          35.750
  22925738.843 8  82726836.409 8     -2706.296    22925738.457 5  85488453.162 5
     -2108.802    22925738.166          45.750          32.000
  23423923.649 7  85344816.426 7      3137.324    23423925.289 5  87528453.19915
      2444.668    23423923.346          42.750          28.500
  24977600.902 7  97703729.138 7       436.441    24977604.038 2  93890470.307 2
       340.084    24977600.425          39.750          12.250
  25333992.479 6  95382301.492 6     -1440.015    25333997.614 3  95349872.915 3
     -1122.090    25333992.170          36.500          18.750
 18  2 21  8 10  0.0000000  0  9G09G07G06G02G30G23G05G29G26
  20463365.660 9  69786991.390 9     -1357.946    20463369.434 8  79599789.63218
     -1058.140    20463365.477          55.250          48.750
  21429709.531 9  74865155.742 9      1861.595    21429711.033 7  79362482.572 7
      1450.593    21429709.300          52.750          42.500
  21539302.414 9  75441058.754 9     -2322.480    21539307.331 7  84005550.596 7
     -1809.724    21539302.282          50.500          42.500
  21944149.863 8  77568544.753 8       411.348    21944148.808 7  81469003.034 7
       320.531    21944149.138          47.750          39.000
  22633773.091 8  81192515.464 8      3203.036    22633778.005 6  84292952.737 6
      2495.872    22633772.557          46.750          36.250
  22941204.138 8  82808107.790 8     -2711.626    22941203.895 5  85551781.479 5
     -2112.955    22941203.547          45.750          32.250
  23406027.364 7  85250767.948 7      3132.664    23406028.869 5  87455168.68115
      2441.037    23406027.475          44.000          29.500
  24975160.771 6  97690922.240 6       417.507    24975167.540 3  93880490.929 3
       325.330    24975159.902          36.250          17.500
  25342262.749 6  95425763.483 6     -1457.224    25342269.278 3  95383739.305 3
     -1135.499    25342261.729          36.500          19.000
 18  2 21  8 10 30.0000000  0  9G09G07G06G02G30G23G05G29G26
  20471152.274 9  69827909.427 9     -1369.840    20471155.899 8  79631673.81218
     -1067.408    20471151.854          55.000          49.750
  21419125.430 9  74809536.612 9      1846.315    21419126.947 7  79319142.998 7
      1438.687    21419125.232          52.000          42.500
  21552607.030 8  75510974.460 8     -2338.453    21552611.826 7  84060030.331 7
     -1822.171    21552606.790          49.500          42.500
  21941854.298 8  77556481.235 8       392.939    21941853.240 7  81459602.885 7
       306.186    21941853.357          49.250          39.250
  22615513.686 8  81096563.210 8      3193.835    22615518.998 6  84218184.776 6
      2488.702    22615513.551          47.000          36.250
  22956699.750 8  82889536.899 8     -2716.939    22956699.439 5  85615232.712 5
     -2117.095    22956699.295          46.000          32.250
  23388156.784 8  85156856.543 8      3128.075    23388158.280 5  87381990.97115
      2437.461    23388157.006          45.750          30.500
  24972832.490 6  97678680.351 6       398.618    24972832.922 2  93870951.937 2
       310.612    24972832.313          36.750          13.500
  25350630.244 6  95469735.834 6     -1474.125    25350636.336 3  95418003.475 3
     -1148.669    25350629.887          37.500          18.250
 18  2 21  8 11  0.0000000  0  9G09G07G06G02G30G23G05G29G26
  20479006.771 9  69869185.861 9     -1381.895    20479010.521 8  79663837.26218
     -1076.802    20479006.567          55.500          49.250
  21408629.609 9  74754381.796 9      1830.730    21408631.393 7  79276165.229 7
      1426.543    21408629.390          51.750          42.250
  21566003.825 8  75581375.380 8     -2354.775    21566008.664 7  84114888.135 7
     -1834.890    21566003.702          50.000          42.250
  21939664.308 8  77544973.429 8       374.328    21939663.214 7  81450635.753 7
       291.684    21939663.577          47.250          39.750
  22597308.336 8  81000891.409 8      3184.335    22597312.929 6  84143635.351 6
      2481.300    22597307.739          46.750          36.500
  22972225.912 8  82971126.909 8     -2722.400    22972225.516 5  85678809.326 5
     -2121.351    22972225.465          46.250          32.250
  23370313.410 8  85063088.490 8      3123.188    23370315.448 5  87308924.97615
      2433.653    23370313.557          46.750          31.500
  24970613.561 7  97667008.217 7       379.567    24970609.358 2  93861856.595 2
       295.767    24970613.456          39.750          12.750
  25359096.122 6  95514221.520 6     -1491.474    25359101.380 3  95452667.600 3
     -1162.187    25359095.424          37.500          17.250
 18  2 21  8 11 30.0000000  0  9G09G07G06G02G30G23G05G29G26
  20486928.714 9  69910815.642 9     -1393.629    20486932.462 8  79696276.04618
     -1085.945    20486928.406          54.750          49.250
  21398221.816 9  74699688.990 9      1815.357    21398223.603 7  79233547.471 7
      1414.563    21398221.549          50.750          42.000
  21579491.878 9  75652255.407 9     -2370.735    21579496.692 7  84170119.290 7
     -1847.326    21579491.752          51.250          42.000
  21937579.845 8  77534017.922 8       355.968    21937578.595 7  81442098.987 7
       277.377    21937578.961          49.000          39.500
  22579155.669 8  80905498.569 8      3175.009    22579160.528 6  84069303.281 6
      2474.033    22579154.997          47.500          36.250
  22987781.576 8  83052872.668 8     -2727.566    22987781.234 5  85742507.301 5
     -2125.376    22987780.752          46.250          32.000
  23352496.963 8  84969461.533 8      3118.427    23352498.672 5  87235968.91315
      2429.943    23352496.882          45.000          31.250
  24968497.290 6  97655902.389 6       360.818    24968502.485 3  93853202.643 3
       281.157    24968497.374          34.250          14.500
  25367659.178 7  95559215.128 7     -1508.268    25367664.910 3  95487727.518 3
     -1175.274    25367658.605          39.750          17.500
 18  2 21  8 12  0.0000000  0  9G09G07G06G02G30G23G05G29G26
  20494917.734 9  69952797.964 9     -1405.324    20494921.457 8  79728989.53418
     -1095.058    20494917.434          55.000          49.250
  21387902.504 9  74645460.035 9      1799.846    21387904.249 7  79191291.160 7
      1402.477    21387902.252          52.000          42.500
  21593070.884 9  75723612.626 9     -2386.542    21593075.621 7  84225722.274 7
     -1859.643    21593070.614          50.500          41.750
  21935600.034 8  77523615.469 8       337.524    21935599.021 7  81433993.177 7
       263.006    21935599.387          49.000          39.250
  22561056.682 8  80810387.487 8      3165.653    22561060.937 6  83995190.773 6
      2466.743    22561055.870          46.750          36.250
  23003366.910 8  83134773.825 8     -2732.722    23003366.374 5  85806326.359 5
     -2129.394    23003366.086          45.750          31.750
  23334707.353 8  84875977.216 8      3113.723    23334708.444 5  87163124.01915
      2426.278    23334707.476          46.250          31.250
  24966493.105 6  97645363.130 6       341.881    24966496.385 3  93844990.373 3
       266.401    24966492.173          37.750          14.500
  25376316.195 7  95604715.704 7     -1525.235    25376322.685 3  95523182.464 3
     -1188.495    25376316.749          39.750          19.250
 18  2 21  8 12 30.0000000  0  9G09G07G06G02G30G23G05G29G26
  20502973.700 9  69995133.151 9     -1417.084    20502977.600 8  79761977.98718
     -1104.222    20502973.574          54.500          48.750
  21377672.275 9  74591698.017 9      1784.310    21377673.526 7  79149398.686 7
      1390.372    21377671.928          51.500          42.750
  21606740.335 8  75795446.265 8     -2402.378    21606745.138 7  84281696.479 7
     -1871.983    21606740.290          50.250          42.250
  21933726.187 8  77513768.201 8       318.977    21933725.033 7  81426319.971 7
       248.554    21933725.525          47.250          39.250
  22543011.752 8  80715562.115 8      3155.939    22543016.243 6  83921300.888 6
      2459.173    22543011.050          47.500          36.000
  23018981.667 8  83216830.464 8     -2737.810    23018981.292 5  85870266.593 5
     -2133.358    23018981.109          45.500          31.500
  23316945.460 8  84782639.361 8      3108.792    23316946.824 5  87090393.24015
      2422.436    23316945.657          44.500          30.500
  24964597.440 7  97635392.766 7       322.827    24964597.991 3  93837221.237 3
       251.553    24964596.963          40.750          17.250
  25385072.419 7  95650723.229 7     -1542.094    25385077.486 3  95559032.443 3
     -1201.631    25385071.837          39.500          18.500
 18  2 21  8 13  0.0000000  0  9G09G07G06G02G30G23G05G29G26
  20511096.843 9  70037819.830 9     -1428.713    20511100.507 8  79795240.32418
     -1113.283    20511096.516          54.750          48.750
  21367530.776 9  74538403.659 9      1768.673    21367532.125 7  79107870.617 7
      1378.187    21367530.515          52.000          43.500
  21620500.458 9  75867753.858 9     -2418.178    21620504.901 7  84338040.008 7
     -1884.295    21620500.209          51.250          42.000
  21931958.044 8  77504476.618 8       300.449    21931957.073 7  81419079.771 7
       234.116    21931957.460          47.500          39.000
  22525021.899 8  80621024.598 8      3146.452    22525026.722 6  83847635.312 6
      2451.781    22525021.131          46.750          36.250
  23034626.120 8  83299041.306 8     -2742.839    23034625.437 5  85934326.969 5
     -2137.277    23034625.512          46.500          31.250
  23299211.800 8  84689449.093 8      3103.969    23299213.200 5  87017777.45515
      2418.677    23299212.166          46.250          30.500
  24962806.519 6  97625990.703 6       304.030    24962803.985 3  93829894.834 3
       236.907    24962806.084          37.750          16.500
  25393923.704 6  95697236.113 6     -1558.746    25393926.567 3  95595276.294 3
     -1214.608    25393922.472          38.000          17.250
 18  2 21  8 13 30.0000000  0  9G09G07G06G02G30G23G05G29G26
  20519286.615 9  70080857.246 9     -1440.372    20519290.300 8  79828775.96318
     -1122.368    20519286.286          54.750          49.000
  21357478.762 9  74485579.495 9      1752.969    21357479.901 7  79066708.933 7
      1365.950    21357478.375          52.000          43.000
  21634349.643 9  75940533.569 9     -2433.875    21634354.341 7  84394751.466 7
     -1896.526    21634349.479          50.500          41.750
  21930295.929 8  77495741.413 8       281.858    21930294.709 7  81412273.106 7
       219.629    21930295.069          49.000          39.250
  22507087.487 8  80526777.825 8      3136.667    22507092.142 6  83774196.290 6
      2444.156    22507086.869          46.750          37.000
  23050299.549 8  83381405.831 8     -2747.985    23050298.937 5  85998507.110 5
     -2141.287    23050298.937          45.250          31.250
  23281506.654 8  84596407.382 8      3098.910    23281508.012 5  86945277.42715
      2414.735    23281507.152          46.000          30.250
  24961123.514 6  97617157.666 6       284.990    24961128.179 2  93823011.920 2
       222.070    24961122.141          33.500          11.000
  25402870.252 7  95744253.284 7     -1575.580    25402874.896 2  95631913.073 2
     -1227.724    25402869.592          40.750          14.250
 18  2 21  8 14  0.0000000  0  9G09G07G06G02G30G23G05G29G26
  20527543.319 9  70124245.749 9     -1452.093    20527546.917 8  79862585.17618
     -1131.501    20527542.879          54.000          49.000
  21347516.509 9  74433228.175 9      1737.103    21347517.792 7  79025915.701 7
      1353.587    21347516.197          52.250          43.250
  21648288.755 8  76013784.540 8     -2449.456    21648293.629 7  84451830.123 7
     -1908.667    21648288.572          47.500          41.250
  21928739.985 8  77487564.636 8       263.175    21928739.038 7  81405901.585 7
       205.071    21928739.047          48.250          39.250
  22489208.953 8  80432825.681 8      3126.788    22489213.860 6  83700986.847 6
      2436.458    22489208.422          49.000          37.250
  23066002.321 8  83463924.491 8     -2753.184    23066001.302 5  86062807.346 5
     -2145.339    23066001.649          45.000          31.250
  23263830.756 8  84503519.231 8      3093.676    23263831.458 5  86872897.06015
      2410.657    23263830.822          45.250          30.500
  24959554.361 7  97608895.455 7       266.001    24959557.188 2  93816573.873 2
       207.274    24959554.241          39.250          12.250
  25411914.016 7  95791774.877 7     -1592.381    25411917.191 3  95668942.879 3
     -1240.816    25411913.338          41.750          15.250
 18  2 21  8 14 30.0000000  0  9G09G07G06G02G30G23G05G29G26
  20535865.501 9  70167979.479 9     -1463.605    20535869.168 8  79896663.40218
     -1140.471    20535865.129          55.000          49.000
  21337643.669 9  74381346.315 9      1721.507    21337645.006 7  78985488.291 7
      1341.434    21337643.324          52.500          43.000
  21662316.233 9  76087499.881 9     -2464.967    21662321.308 7  84509270.664 7
     -1920.754    21662316.035          50.500          41.750
  21927289.409 8  77479942.308 8       244.732    21927288.399 7  81399962.094 7
       190.700    21927288.645          48.500          39.250
  22471386.183 8  80339165.901 8      3117.104    22471391.034 6  83628005.220 6
      2428.912    22471385.503          48.250          37.750
  23081733.298 8  83546591.405 8     -2758.127    23081732.917 5  86127223.097 5
     -2149.190    23081732.782          46.500          31.250
  23246183.449 8  84410781.768 8      3088.587    23246184.762 5  86800634.10115
      2406.691    23246183.413          45.000          30.750
  24958089.497 7  97601199.742 7       247.108    24958091.964 3  93810577.247 3
       192.552    24958089.215          40.750          18.500
  25421051.420 7  95839794.541 7     -1608.903    25421056.808 2  95706360.802 2
     -1253.690    25421051.417          42.250          14.000
 18  2 21  8 15  0.0000000  0  9G09G07G06G02G30G23G05G29G26
  20544253.397 9  70212059.043 9     -1475.120    20544257.217 8  79931011.10718
     -1149.444    20544253.131          53.750          48.750
  21327860.823 9  74329937.066 9      1705.736    21327862.127 7  78945429.146 7
      1329.145    21327860.329          50.750          43.250
  21676431.984 8  76161678.820 8     -2480.233    21676437.129 7  84567072.409 7
     -1932.649    21676431.760          50.000          41.500
  21925944.900 8  77472876.354 8       226.308    21925943.764 7  81394456.154 7
       176.344    21925944.211          48.750          39.500
  22453619.532 8  80245802.654 8      3107.170    22453624.319 6  83555254.663 6
      2421.172    22453618.881          48.000          37.500
  23097492.617 8  83629407.312 8     -2763.007    23097492.410 5  86191754.948 5
     -2152.992    23097492.137          46.250          31.000
  23228565.222 8  84318198.072 8      3083.612    23228567.108 5  86728490.96515
      2402.815    23228565.087          46.250          31.000
  24956733.821 7  97594072.099 7       228.189    24956735.697 4  93805023.189 4
       177.810    24956733.899          40.250          20.750
  25430284.219 7  95888312.677 7     -1625.557    25430288.760 2  95744167.254 2
     -1266.668    25430283.031          40.750          12.500
 18  2 21  8 15 30.0000000  0  9G09G07G06G02G30G23G05G29G26
  20552707.203 9  70256483.310 9     -1486.462    20552710.908 8  79965627.40718
     -1158.282    20552706.870          55.000          48.500
  21318167.972 9  74279002.071 9      1690.019    21318169.546 7  78905739.545 7
      1316.898    21318167.745          51.250          42.750
  21690635.623 8  76236319.150 8     -2495.519    21690640.624 7  84625233.676 7
     -1944.560    21690635.486          49.500          41.000
  21924706.320 8  77466367.463 8       207.779    21924705.216 7  81389384.282 7
       161.905    21924705.549          48.750          39.500
  22435910.132 8  80152738.396 8      3097.201    22435914.383 6  83482737.091 6
      2413.404    22435909.340          47.500          37.250
  23113279.933 8  83712371.471 8     -2767.800    23113279.517 5  86256402.328 5
     -2156.727    23113279.508          46.000          31.000
  23210976.518 8  84225769.745 8      3078.396    23210977.957 5  86656468.93815
      2398.750    23210976.629          46.250          31.000
  24955485.074 6  97587512.793 6       209.236    24955485.827 3  93799912.009 3
       163.041    24955483.851          38.000          18.250
  25439610.933 6  95937327.814 6     -1641.989    25439615.771 2  95782360.858 2
     -1279.472    25439610.849          36.000          13.000
 18  2 21  8 16  0.0000000  0  9G09G07G06G02G30G23G05G29G26
  20561226.039 9  70301250.027 9     -1498.070    20561229.652 8  80000510.55918
     -1167.327    20561225.704          55.750          49.000
  21308565.677 9  74228541.750 9      1674.010    21308567.179 7  78866419.826 7
      1304.423    21308565.425          52.750          42.750
  21704926.427 9  76311417.408 9     -2510.979    21704931.545 7  84683751.735 7
     -1956.607    21704926.484          50.500          41.250
  21923573.644 8  77460414.866 8       189.111    21923572.382 7  81384745.893 7
       147.359    21923572.855          48.500          39.500
  22418257.722 8  80059974.425 8      3087.041    22418261.895 6  83410453.501 6
      2405.486    22418256.961          46.750          37.250
  23129095.293 8  83795481.767 8     -2772.828    23129095.296 5  86321163.573 5
     -2160.645    23129095.367          46.750          30.750
  23193417.593 8  84133496.559 8      3073.056    23193419.203 5  86584567.77415
      2394.589    23193417.497          45.500          31.250
  24954341.960 6  97581520.964 6       190.198    24954341.936 3  93795243.116 3
       148.206    24954342.214          36.500          15.000
  25449032.747 7  95986837.271 7     -1658.738    25449035.976 3  95820939.578 3
     -1292.524    25449032.322          39.000          15.000
 18  2 21  8 16 30.0000000  0  9G09G07G06G02G30G23G05G29G26
  20569809.715 9  70346357.194 9     -1509.342    20569813.319 8  80035658.99018
     -1176.111    20569809.289          55.500          49.000
  21299053.754 9  74178556.221 9      1658.172    21299055.310 7  78827470.077 7
      1292.082    21299053.490          52.250          43.000
  21719304.036 9  76386970.418 9     -2526.122    21719308.706 7  84742624.146 7
     -1968.407    21719303.874          50.750          41.500
  21922546.474 8  77455018.035 8       170.517    21922545.485 7  81380540.562 7
       132.870    21922545.676          48.000          39.500
  22400662.678 8  79967512.308 8      3076.981    22400666.986 6  83338405.122 6
      2397.648    22400662.003          48.750          37.250
  23144938.508 8  83878736.057 8     -2777.585    23144937.702 5  86386037.019 5
     -2164.352    23144938.299          44.500          30.750
  23175888.644 8  84041380.364 8      3067.786    23175889.930 5  86512788.94015
      2390.483    23175888.383          45.000          31.250
  24953310.254 6  97576095.820 6       171.452    24953311.834 2  93791015.695 2
       133.599    24953309.510          36.250          12.750
  25458547.545 6  96036838.636 6     -1674.883    25458553.247 3  95859901.657 3
     -1305.104    25458547.692          37.500          16.250
 18  2 21  8 17  0.0000000  0  9G09G07G06G02G30G05G23G29G26
  20578458.230 9  70391805.622 9     -1520.739    20578461.929 8  80071073.34218
     -1184.992    20578457.897          55.000          48.750
  21289632.980 9  74129049.047 9      1642.149    21289634.377 7  78788893.067 7
      1279.597    21289632.728          52.000          42.750
  21733767.628 8  76462977.822 8     -2541.252    21733772.364 7  84801850.663 7
     -1980.196    21733767.466          49.000          41.500
  21921626.015 8  77450179.428 8       151.860    21921624.672 7  81376770.211 7
       118.333    21921625.164          48.750          39.500
  22383126.189 8  79875356.431 8      3066.616    22383130.431 6  83266595.377 6
      2389.571    22383125.476          48.500          38.000
  23158390.001 8  83949425.017 8      3062.439    23158391.251 5  86441135.43415
      2386.316    23158390.322          46.500          31.500
  23160808.847 8  83962135.391 8     -2782.488    23160808.298 5  86451023.505 5
     -2168.173    23160808.460          46.250          30.500
  24952386.344 6  97571239.146 6       152.269    24952388.359 3  93787231.206 3
       118.651    24952386.944          37.500          14.750
  25468156.022 6  96087332.496 6     -1691.563    25468160.933 2  95899247.452 2
     -1318.101    25468154.134          33.000          12.250
 18  2 21  8 17 30.0000000  0  9G09G07G06G02G30G05G23G29G26
  20587171.868 9  70437595.885 9     -1532.037    20587175.517 8  80106754.05918
     -1193.795    20587171.593          54.750          48.750
  21280303.738 9  74080023.260 9      1626.149    21280305.042 7  78750691.166 7
      1267.129    21280303.343          52.000          43.250
  21748317.626 8  76539438.931 8     -2556.241    21748322.579 7  84861430.711 7
     -1991.876    21748317.485          49.750          41.000
  21920811.782 8  77445900.750 8       133.297    21920810.454 7  81373436.167 7
       103.868    21920810.798          49.000          39.500
  22365648.589 8  79783510.837 8      3056.318    22365653.020 7  83195027.408 7
      2381.547    22365647.737          48.000          38.500
  23140922.944 8  83857634.416 8      3056.979    23140924.269 5  86369610.29315
      2382.062    23140923.097          46.750          31.500
  23176707.012 8  84045680.279 8     -2787.077    23176706.160 5  86516123.398 5
     -2171.748    23176706.109          45.750          30.500
  24951572.258 7  97566952.997 7       133.388    24951573.445 3  93783891.362 3
       103.939    24951573.439          40.000          17.500
  25477857.840 5  96138318.694 5     -1707.700    25477864.903 2  95938976.917 2
     -1330.675    25477856.623          32.000          13.000
 18  2 21  8 18  0.0000000  0  9G09G07G06G02G30G05G23G29G26
  20595949.648 9  70483723.681 9     -1543.185    20595953.353 8  80142697.78518
     -1202.482    20595949.423          55.000          48.250
  21271065.535 9  74031477.012 9      1610.282    21271066.911 7  78712862.928 7
      1254.765    21271065.217          52.000          43.250
  21762953.071 8  76616348.125 8     -2571.019    21762957.850 7  84921359.903 7
     -2003.392    21762952.831          49.250          40.750
  21920103.387 8  77442179.452 8       114.837    21920102.248 7  81370536.448 7
        89.484    21920102.629          48.750          39.500
  22348229.756 8  79691974.788 8      3046.030    22348234.382 7  83123700.641 7
      2373.530    22348228.842          47.500          38.500
  23123486.775 8  83766006.202 8      3051.563    23123488.028 5  86298211.70015
      2377.841    23123486.607          46.500          31.750
  23192631.684 8  84129366.963 8     -2791.890    23192631.459 5  86581333.772 5
     -2175.499    23192631.315          45.250          30.250
  24950865.548 7  97563234.040 7       114.651    24950866.984 4  93780993.422 4
        89.338    24950864.745          40.750          21.500
  25487653.331 6  96189792.643 6     -1723.844    25487660.304 2  95979086.420 2
     -1343.255    25487652.177          33.000          14.250
 18  2 21  8 18 30.0000000  0  9G09G07G06G02G30G05G23G29G26
  20604791.550 9  70530189.093 9     -1554.573    20604795.366 8  80178904.59418
     -1211.356    20604791.358          53.750          48.500
  21261919.134 9  73983412.914 9      1594.014    21261920.507 7  78675410.392 7
      1242.089    21261918.759          50.500          43.000
  21777673.076 8  76693704.342 8     -2586.042    21777678.235 7  84981637.410 7
     -2015.098    21777673.145          48.750          40.500
  21919501.494 8  77439017.329 8        96.021    21919500.523 7  81368072.448 7
        74.822    21919500.876          48.750          39.250
  22330870.247 8  79600751.926 8      3035.471    22330874.996 6  83052617.925 6
      2365.302    22330869.501          48.750          38.250
  23106081.865 8  83674544.357 8      3045.859    23106083.226 5  86226942.74015
      2373.397    23106082.051          45.500          31.750
  23208583.926 8  84213195.684 8     -2796.709    23208583.536 5  86646654.831 5
     -2179.253    23208583.575          45.250          30.000
  24950265.442 7  97560083.596 7        95.560    24950268.551 4  93778538.534 4
        74.463    24950265.292          41.250          20.750
  25497541.649 6  96241754.024 6     -1739.974    25497547.345 3  96019575.706 3
     -1355.824    25497540.714          33.250          15.000
 18  2 21  8 19  0.0000000  0  9G09G07G06G02G30G05G23G29G26
  20613697.709 9  70576990.639 9     -1565.689    20613701.462 8  80215373.32318
     -1220.018    20613697.385          53.750          48.500
  21252864.727 9  73935831.936 9      1577.930    21252866.331 7  78638334.316 7
      1229.556    21252864.664          51.750          43.750
  21792478.164 8  76771504.724 8     -2600.831    21792483.399 7  85042260.998 7
     -2026.621    21792478.008          47.500          40.500
  21919006.318 8  77436414.093 8        77.447    21919005.241 7  81366043.944 7
        60.349    21919005.655          47.000          39.250
  22313571.110 8  79509844.275 8      3024.894    22313576.030 7  82981780.831 7
      2357.060    22313570.487          47.750          38.500
  23088709.144 8  83583249.710 8      3040.368    23088711.027 5  86155804.06915
      2369.118    23088709.015          46.500          32.000
  23224562.882 8  84297164.972 8     -2801.348    23224562.342 5  86712085.428 5
     -2182.869    23224562.429          45.500          30.000
  24949773.875 6  97557501.241 6        76.642    24949775.994 4  93776526.276 4
        59.721    24949773.230          38.250          21.000
  25507521.953 6  96294200.819 6     -1756.481    25507528.072 3  96060443.261 3
     -1368.686    25507522.235          36.500          17.500
 18  2 21  8 19 30.0000000  0  9G09G07G06G02G30G05G23G29G26
  20622667.568 9  70624127.770 9     -1576.891    20622671.397 8  80252103.54918
     -1228.746    20622667.352          54.250          48.500
  21243903.007 9  73888736.041 9      1561.721    21243904.221 7  78601636.226 7
      1216.925    21243902.605          52.500          43.500
  21807367.552 8  76849747.566 8     -2615.477    21807372.903 7  85103229.374 7
     -2038.034    21807367.285          49.000          40.500
  21918617.523 8  77434370.683 8        58.711    21918616.492 7  81364451.672 7
        45.749    21918616.716          47.750          39.500
  22296332.759 8  79419254.851 8      3014.256    22296337.010 7  82911191.691 7
      2348.771    22296332.087          49.500          38.750
  23071368.507 8  83492124.995 8      3034.557    23071370.384 5  86084797.81915
      2364.590    23071368.390          47.500          32.000
  23240568.519 8  84381274.650 8     -2806.157    23240568.013 5  86777625.414 5
     -2186.616    23240567.962          46.250          30.250
  24949391.598 7  97555487.346 7        57.553    24949393.882 4  93774957.022 4
        44.846    24949390.965          40.000          21.500
  25517594.041 7  96347131.938 7     -1772.653    25517601.521 3  96101688.295 3
     -1381.289    25517593.825          38.500          18.000
 18  2 21  8 20  0.0000000  0  9G09G07G06G02G30G05G23G29G26
  20631700.798 9  70671597.850 9     -1587.837    20631704.668 8  80289093.21618
     -1237.276    20631700.516          54.500          48.250
  21235033.113 9  73842124.955 9      1545.621    21235034.534 7  78565315.911 7
      1204.380    21235032.871          52.250          43.750
  21822340.284 8  76928428.983 8     -2629.967    21822345.387 7  85164539.509 7
     -2049.325    21822339.972          48.750          40.750
  21918334.989 8  77432885.856 8        40.187    21918333.868 7  81363294.656 7
        31.314    21918334.210          49.000          39.250
  22279155.137 8  79328984.584 8      3003.635    22279159.166 7  82840851.225 7
      2340.495    22279154.435          49.500          38.750
  23054060.172 8  83401170.480 8      3028.981    23054062.475 6  86013924.19416
      2360.245    23054060.460          46.750          32.500
  23256600.050 7  84465522.259 7     -2810.447    23256599.957 5  86843272.883 5
     -2189.958    23256599.696          44.250          30.000
  24949115.708 7  97554040.479 7        38.645    24949118.337 4  93773829.570 4
        30.113    24949115.027          40.500          21.250
