     2.11           OBSERVATION DATA    G (GPS)             RINEX VERSION / TYPE
teqc  2016Nov7                          20180403 09:56:50UTCPGM / RUN BY / DATE
Linux 2.4.21-27.ELsmp|Opteron|gcc|Linux x86_64|=+           COMMENT
teqc  2016Nov7                          20180403 09:56:50UTCCOMMENT
     2.11           OBSERVATION DATA    M (MIXED)           COMMENT
teqc  2016Nov7                          20180403 09:56:49UTCCOMMENT
teqc  2016Nov7      IGN-RGP             20180221 09:10:37UTCCOMMENT
TPP 3.10.3                              21-FEB-18 08:00     COMMENT
                                                            COMMENT
                                                            COMMENT
                                                            COMMENT
MOMO                                                        MARKER NAME
19616M001                                                   MARKER NUMBER
Automatic           SAT-INFO                                OBSERVER / AGENCY
5349K48426          TRIMBLE NETR9       5.14                REC # / TYPE / VERS
5000114608          TRM57971.00     NONE                    ANT # / TYPE
  4140686.3130   106260.3200  4834180.0680                  APPROX POSITION XYZ
        0.0000        0.0000        0.0000                  ANTENNA: DELTA H/E/N
     1     1                                                WAVELENGTH FACT L1/2
     9    C1    L1    S1    P2    L2    S2    C5    L5    S5# / TYPES OF OBSERV
    30.0000                                                 INTERVAL
     0                                                      RCV CLOCK OFFS APPL
    18                                                      LEAP SECONDS
Forced Modulo Decimation to 30 seconds                      COMMENT
teqc_2016 edited: all GLONASS satellites excluded           COMMENT
teqc_2016 edited: all SBAS satellites excluded              COMMENT
teqc_2016 edited: all Galileo satellites excluded           COMMENT
  2018     2    21     8     0    0.0000000     GPS         TIME OF FIRST OBS
                                                            END OF HEADER
 18  2 21  8  0  0.0000000  0  8G02G05G06G07G09G16G23G30
  21831642.117   114726042.621 6        46.800    21831642.402    89396912.950 8
        36.200
  23541927.844   123713661.170 6        44.300    23541929.594    96400271.150 6
        25.000
  21210825.953   111463645.581 7        49.400    21210831.188    86854794.539 9
        41.500
  21673508.008   113895071.138 8        52.500    21673511.676    88749420.046 8
        39.800
  20270793.492   106523755.305 8        52.600    20270798.355    83005549.956 9
        45.800
  24248339.398   127425888.351 5        40.800    24248339.645    99292903.265 6
        20.100
  22638809.359   118967760.507 6        47.000    22638809.785    92702156.423 8
        33.200
  23015043.914   120944875.705 7        47.800    23015049.156    94242793.273 8
        35.000
 18  2 21  8  0 30.0000000  0  8G02G05G06G07G09G16G23G30
  21827172.797   114702555.659 6        46.000    21827172.766    89378611.422 8
        36.500
  23523350.625   123616030.359 6        45.200    23523352.172    96324195.207 7
        28.100
  21222197.203   111523405.840 7        49.200    21222202.641    86901360.955 9
        41.500
  21660591.320   113827191.512 7        51.900    21660594.633    88696526.837 8
        40.100
  20277127.750   106557040.360 8        52.100    20277131.742    83031486.352 9
        45.300
  24243236.297   127399069.044 5        40.900    24243236.613    99272005.147 6
        20.100
  22653586.516   119045412.209 7        47.500    22653586.531    92762664.213 8
        33.600
  22995304.305   120841146.500 7        47.200    22995309.375    94161965.357 8
        35.200
 18  2 21  8  1  0.0000000  0  8G02G05G06G07G09G16G23G30
  21822804.828   114679604.917 6        45.900    21822805.395    89360727.720 8
        35.900
  23504793.773   123518517.330 6        44.800    23504796.570    96248211.056 7
        28.000
  21233667.508   111583680.899 7        48.000    21233673.078    86948328.516 9
        41.300
  21647754.250   113759733.699 7        51.200    21647757.453    88643962.316 8
        39.200
  20283534.852   106590710.609 7        51.400    20283539.063    83057722.914 9
        45.300
  24238240.953   127372823.932 5        39.800    24238242.191    99251554.415 6
        19.300
  22668397.359   119123243.485 7        47.600    22668397.652    92823311.945 8
        33.100
  22975606.773   120737635.511 6        47.000    22975612.027    94081307.473 8
        34.800
 18  2 21  8  1 30.0000000  0  8G02G05G06G07G09G16G23G30
  21818539.938   114657191.095 6        46.000    21818539.699    89343262.403 8
        36.400
  23486261.148   123421123.496 6        45.300    23486262.637    96172319.747 7
        28.200
  21245235.430   111644468.728 7        48.100    21245240.445    86995695.641 9
        41.300
  21634997.984   113692699.416 7        51.900    21635000.648    88591727.810 8
        38.900
  20290015.063   106624764.774 7        51.500    20290019.297    83084258.623 9
        45.300
  24233357.039   127347154.743 5        39.600    24233357.516    99231552.433 6
        22.000
  22683241.422   119201253.040 7        47.200    22683242.016    92884098.589 8
        33.200
  22955951.617   120634345.234 7        48.000    22955956.773    94000821.558 8
        35.700
 18  2 21  8  2  0.0000000  0  8G02G05G06G07G09G16G23G30
  21814376.742   114635315.195 6        46.600    21814376.957    89326216.251 8
        36.000
  23467750.969   123323851.014 6        45.800    23467753.355    96096523.007 7
        29.700
  21256899.938   111705767.339 7        49.000    21256905.582    87043460.764 8
        40.400
  21622322.617   113626090.643 7        51.100    21622325.180    88539824.863 8
        39.000
  20296567.961   106659201.547 8        53.000    20296572.008    83111092.470 9
        45.300
  24228581.484   127322062.201 4        39.000    24228582.766    99211999.828 6
        22.300
  22698120.336   119279439.733 6        47.000    22698120.781    92945023.268 8
        33.100
  22936338.984   120531278.078 7        47.700    22936343.828    93920509.539 8
        35.200
 18  2 21  8  2 30.0000000  0  8G02G05G06G07G09G16G23G30
  21810316.969   114613978.467 6        46.700    21810317.008    89309590.231 8
        35.800
  23449262.945   123226700.484 6        43.900    23449265.531    96020821.307 7
        28.700
  21268661.508   111767575.092 7        48.800    21268667.012    87091622.647 8
        40.900
  21609728.984   113559909.148 8        52.100    21609731.172    88488254.842 8
        38.900
  20303193.781   106694020.088 8        52.300    20303197.332    83138223.791 9
        45.500
  24223916.570   127297548.496 5        39.400    24223918.797    99192898.250 6
        21.100
  22713032.250   119357802.705 7        47.200    22713032.652    93006085.304 7
        32.300
  22916768.523   120428436.943 7        48.400    22916773.789    93840373.621 8
        35.500
 18  2 21  8  3  0.0000000  0  8G02G05G06G07G09G16G23G30
  21806359.266   114593181.630 6        47.000    21806359.859    89293384.900 8
        36.500
  23430799.547   123129674.334 6        43.400    23430802.094    95945216.510 7
        28.600
  21280519.836   111829889.729 7        48.200    21280525.480    87140179.495 9
        41.300
  21597216.891   113494156.702 8        52.100    21597219.188    88437019.170 8
        39.300
  20309891.875   106729218.875 8        52.100    20309895.543    83165651.416 9
        44.900
  24219362.070   127273614.703 5        39.500    24219364.246    99174248.564 6
        21.300
  22727977.258   119436340.176 7        47.400    22727977.891    93067283.315 7
        32.800
  22897241.508   120325824.037 7        48.300    22897246.973    93760415.544 8
        35.500
 18  2 21  8  3 30.0000000  0  8G02G05G06G07G09G16G23G30
  21802504.289   114572925.549 6        47.000    21802504.648    89277600.926 8
        36.200
  23412360.406   123032773.834 5        42.000    23412362.836    95869709.628 7
        27.400
  21292474.195   111892709.317 7        49.400    21292479.281    87189129.816 9
        41.200
  21584786.672   113428835.245 7        51.900    21584788.727    88386119.347 8
        39.200
  20316662.266   106764796.813 8        53.000    20316665.988    83193374.480 9
        45.400
  24214919.047   127250262.498 5        39.200    24214920.141    99156052.026 6
        21.800
  22742955.750   119515051.128 6        47.000    22742955.875    93128616.499 7
        32.600
  22877758.797   120223441.984 7        48.900    22877764.980    93680637.371 8
        35.800
 18  2 21  8  4  0.0000000  0  8G02G05G06G07G09G16G23G30
  21798753.414   114553211.494 7        47.700    21798753.426    89262239.327 8
        36.800
  23393943.250   122935999.965 5        41.100    23393946.371    95794301.463 6
        25.900
  21304523.766   111956032.274 7        48.700    21304529.137    87238472.387 8
        40.900
  21572438.391   113363947.003 8        52.100    21572440.730    88335557.088 8
        38.600
  20323504.539   106800753.081 8        52.700    20323508.281    83221392.340 9
        45.000
  24210586.219   127227493.562 5        39.800    24210588.406    99138310.021 6
        20.400
  22757966.555   119593934.916 7        47.500    22757966.797    93190084.361 7
        32.200
  22858321.102   120121293.735 7        48.600    22858326.863    93601041.374 8
        35.500
 18  2 21  8  4 30.0000000  0  8G02G05G06G07G09G16G23G30
  21795105.500   114534039.966 7        47.400    21795104.840    89247300.479 8
        36.800
  23375552.953   122839354.822 5        40.600    23375555.359    95718993.570 6
        25.600
  21316668.992   112019856.451 7        49.000    21316674.910    87288205.507 8
        40.500
  21560173.742   113299493.608 7        51.400    21560175.934    88285333.673 8
        38.900
  20330418.586   106837086.347 8        53.200    20330422.727    83249703.965 9
        45.500
  24206363.445   127205308.850 4        37.200    24206366.398    99121023.231 6
        21.100
  22773010.164   119672990.111 7        47.400    22773010.281    93251685.795 7
        32.700
  22838927.875   120019381.649 7        49.000    22838933.301    93521629.404 8
        36.000
 18  2 21  8  5  0.0000000  0  8G02G05G06G07G09G16G23G30
  21791560.570   114515411.293 7        48.300    21791560.105    89232784.617 8
        36.500
  23357187.273   122742840.369 6        42.300    23357189.785    95643787.515 7
        27.600
  21328909.617   112084179.458 7        48.200    21328914.742    87338327.331 8
        40.600
  21547991.164   113235476.260 7        51.200    21547993.816    88235450.040 8
        40.100
  20337403.828   106873795.046 7        52.000    20337408.434    83278308.145 9
        45.300
  24202253.609   127183709.608 4        37.100    24202256.086    99104192.665 6
        20.400
  22788086.578   119752215.054 7        47.200    22788086.438    93313419.494 7
        32.300
  22819579.898   119917707.945 7        48.700    22819585.480    93442403.174 8
        36.400
 18  2 21  8  5 30.0000000  0  8G02G05G06G07G09G16G23G30
  21788118.906   114497326.727 7        47.600    21788118.758    89218692.739 8
        36.600
  23338846.359   122646458.354 6        43.400    23338849.602    95568684.651 7
        28.700
  21341244.469   112148999.164 7        49.300    21341249.172    87388836.194 8
        40.200
  21535892.711   113171896.786 7        51.600    21535895.051    88185907.606 8
        39.800
  20344460.602   106910877.921 8        52.100    20344465.301    83307203.879 9
        45.300
  24198254.391   127162697.139 3        37.000    24198258.004    99087819.321 6
        19.300
  22803194.977   119831608.462 7        48.700    22803195.156    93375284.475 7
        32.600
  22800277.711   119816275.071 7        49.100    22800283.359    93363364.610 8
        36.000
 18  2 21  8  6  0.0000000  0  8G02G05G06G07G09G16G23G30
  21784781.422   114479787.223 7        48.100    21784781.234    89205025.595 8
        36.200
  23320531.492   122550209.901 6        43.600    23320534.098    95493685.867 7
        29.200
  21353673.070   112214313.774 7        48.000    21353678.516    87439730.696 8
        40.500
  21523877.938   113108757.296 7        51.300    21523879.793    88136708.014 8
        40.100
  20351587.984   106948334.001 8        52.100    20351592.895    83336390.428 9
        45.800
  24194367.477   127142272.917 4        37.200    24194370.859    99071904.359 6
        19.600
  22818334.391   119911169.459 7        47.300    22818335.512    93437280.039 7
        32.200
  22781022.438   119715085.771 7        49.600    22781027.613    93284515.828 8
        36.100
 18  2 21  8  6 30.0000000  0  8G02G05G06G07G09G16G23G30
  21781547.016   114462793.265 7        48.200    21781547.391    89191783.546 8
        36.700
  23302242.109   122454096.244 6        46.700    23302244.652    95418792.109 7
        30.500
  21366196.086   112280121.275 7        49.000    21366201.266    87491009.264 8
        40.100
  21511946.625   113046059.337 7        50.900    21511948.867    88087852.472 8
        39.800
  20358786.406   106986162.155 8        53.000    20358791.164    83365866.896 9
        45.400
  24190593.078   127122438.284 3        36.200    24190596.324    99056448.797 5
        17.400
  22833506.188   119990897.110 6        46.800    22833506.762    93499405.451 7
        31.600
  22761813.453   119614142.708 7        49.400    22761818.824    93205858.927 8
        36.100
 18  2 21  8  7  0.0000000  0  8G02G05G06G07G09G16G23G30
  21778416.852   114446346.254 6        47.000    21778417.219    89178967.700 8
        36.000
  23283977.211   122358119.498 6        44.900    23283980.836    95344005.039 7
        28.800
  21378812.180   112346419.657 7        48.900    21378817.137    87542670.341 8
        40.100
  21500100.031   112983804.871 7        51.200    21500102.539    88039342.500 8
        39.400
  20366055.750   107024361.248 8        53.000    20366060.297    83395632.414 9
        45.200
  24186931.156   127103194.402 3        36.200    24186933.602    99041453.617 6
        19.300
  22848709.156   120070790.099 6        47.000    22848709.941    93561659.699 7
        31.300
  22742651.609   119513448.416 7        49.000    22742657.168    93127395.892 8
        35.700
 18  2 21  8  7 30.0000000  0  8G02G05G06G07G09G16G23G30
  21775391.664   114430445.993 6        47.000    21775391.414    89166577.879 8
        36.100
  23265740.648   122262281.316 6        45.200    23265744.039    95269325.940 7
        30.800
  21391521.063   112413206.636 7        49.800    21391526.125    87594712.120 8
        40.000
  21488337.820   112921995.487 7        51.300    21488340.297    87991179.354 8
        39.400
  20373394.977   107062929.903 7        51.500    20373399.602    83425685.899 9
        45.200
  24183382.375   127084542.587 3        37.000    24183385.266    99026919.743 6
        20.400
  22863944.125   120150847.178 7        47.800    22863944.641    93624041.825 7
        32.800
  22723537.711   119413005.302 7        49.300    22723543.871    93049128.555 8
        36.400
 18  2 21  8  8  0.0000000  0  8G02G05G06G07G09G16G23G30
  21772470.242   114415093.766 7        47.500    21772470.578    89154615.099 8
        36.100
  23247528.992   122166583.331 6        44.700    23247532.820    95194756.123 7
        29.400
  21404322.938   112480479.854 7        49.900    21404328.215    87647132.776 8
        40.500
  21476661.297   112860632.734 7        51.600    21476663.461    87943364.237 8
        39.900
  20380804.758   107101866.697 8        53.400    20380808.578    83456026.250 9
        45.300
  24179946.500   127066483.876 4        38.400    24179948.398    99012848.025 6
        19.000
  22879209.023   120231066.865 7        48.000    22879209.902    93686550.652 7
        31.600
  22704472.148   119312815.663 7        48.800    22704477.566    92971058.730 8
        35.900
 18  2 21  8  8 30.0000000  0  8G02G05G06G07G09G16G23G30
  21769653.453   114400290.038 7        47.300    21769653.688    89143079.727 8
        36.700
  23229345.922   122071027.269 6        45.000    23229348.070    95120296.850 7
        31.300
  21417217.094   112548237.458 7        50.000    21417221.750    87699930.894 8
        40.200
  21465069.789   112799718.471 7        51.500    21465072.488    87895898.586 8
        39.700
  20388284.078   107141170.573 8        52.500    20388288.051    83486652.638 9
        45.400
  24176622.406   127049019.291 4        38.800    24176624.863    98999239.232 6
        20.100
  22894504.445   120311448.314 7        47.600    22894506.238    93749185.519 7
        32.000
  22685455.602   119212882.143 7        48.700    22685460.984    92893188.476 8
        36.000
 18  2 21  8  9  0.0000000  0  8G02G05G06G07G09G16G23G30
  21766940.938   114386035.610 7        48.000    21766940.910    89131972.375 8
        36.600
  23211189.250   121975614.880 6        44.100    23211192.250    95045949.554 7
        28.600
  21430202.703   112616477.239 7        49.300    21430207.633    87753104.746 8
        40.500
  21453563.688   112739254.246 7        51.700    21453566.930    87848783.620 8
        40.000
  20395833.008   107180840.370 8        53.000    20395836.973    83517564.162 9
        44.900
  24173413.125   127032150.310 5        40.200    24173414.945    98986094.580 6
        19.300
  22909831.930   120391990.378 7        47.500    22909833.219    93811945.545 7
        31.900
  22666488.070   119113207.341 7        49.300    22666492.996    92815519.819 8
        36.400
 18  2 21  8  9 30.0000000  0  8G02G05G06G07G09G16G23G30
  21764333.195   114372331.241 7        47.500    21764332.762    89121293.639 8
        35.700
  23193061.070   121880347.358 6        44.900    23193063.527    94971715.129 7
        30.200
  21443279.367   112685197.192 7        49.300    21443284.680    87806652.750 8
        40.500
  21442143.461   112679241.835 7        51.900    21442146.473    87802020.722 8
        39.400
  20403451.281   107220874.967 8        53.600    20403455.504    83548759.939 9
        45.000
  24170316.805   127015877.960 5        39.500    24170318.418    98973414.841 6
        21.100
  22925188.797   120472692.071 7        47.500    22925189.582    93874829.968 7
        32.000
  22647570.750   119013793.901 7        49.200    22647575.945    92738054.821 8
        35.800
 18  2 21  8 10  0.0000000  0  8G02G05G06G07G09G16G23G30
  21761829.625   114359177.267 6        46.400    21761830.188    89111043.783 8
        36.200
  23174959.539   121785226.454 6        45.200    23174962.148    94897594.951 7
        30.400
  21456447.250   112754394.836 7        49.300    21456452.707    87860572.976 8
        39.700
  21430809.672   112619682.790 7        51.500    21430813.059    87755611.087 8
        40.000
  20411138.805   107261272.904 8        53.400    20411143.137    83580238.845 9
        45.400
  24167334.438   127000203.428 5        40.900    24167335.570    98961200.895 6
        20.400
  22940575.773   120553551.688 7        47.500    22940576.582    93937837.438 7
        31.900
  22628703.422   118914644.028 7        48.800    22628707.754    92660795.200 8
        36.200
 18  2 21  8 10 30.0000000  0  8G02G05G06G07G09G16G23G30
  21759431.398   114346574.400 7        47.600    21759431.637    89101223.370 8
        36.400
  23156887.320   121690253.905 6        46.000    23156888.711    94823590.359 7
        29.100
  21469705.750   112824068.159 7        49.300    21469711.215    87914863.864 8
        40.300
  21419562.594   112560578.639 7        51.500    21419564.977    87709555.910 8
        39.700
  20418895.008   107302033.091 8        52.800    20418899.863    83612000.027 9
        45.500
  24164464.320   126985127.723 5        40.800    24164466.715    98949453.624 6
        20.900
  22955992.984   120634568.466 6        47.000    22955993.219    94000967.381 7
        31.900
  22609885.883   118815760.355 7        49.500    22609891.551    92583742.997 8
        35.900
 18  2 21  8 11  0.0000000  0  8G02G05G06G07G09G16G23G30
  21757138.656   114334523.336 7        47.200    21757138.613    89091832.925 8
        36.300
  23138843.414   121595431.731 6        46.400    23138845.680    94749702.976 7
        30.000
  21483054.273   112894214.829 7        50.400    21483059.598    87969523.593 8
        40.000
  21408402.313   112501930.990 7        51.500    21408404.871    87663856.454 8
        39.400
  20426719.773   107343154.203 8        53.300    20426724.371    83644042.437 9
        45.200
  24161709.813   126970651.446 5        39.200    24161711.895    98938173.382 6
        20.400
  22971439.711   120715741.309 6        45.900    22971439.766    94064218.927 7
        31.200
  22591120.141   118717145.329 7        48.600    22591125.504    92506900.142 8
        36.500
 18  2 21  8 11 30.0000000  0  8G02G05G06G07G09G16G23G30
  21754949.984   114323024.384 6        46.900    21754950.125    89082872.684 8
        35.900
  23120828.086   121500761.475 6        46.900    23120829.844    94675933.938 7
        31.100
  21496492.125   112964832.495 7        49.000    21496497.527    88024550.330 8
        40.300
  21397329.211   112443741.418 7        51.800    21397331.645    87618513.947 8
        39.600
  20434613.531   107384634.882 8        52.100    20434617.766    83676365.042 9
        45.400
  24159069.469   126956775.880 5        40.600    24159071.324    98927361.257 6
        19.300
  22986915.297   120797068.715 6        46.000    22986916.074    94127590.910 7
        31.000
  22572406.031   118618801.335 7        48.400    22572411.250    92430268.483 8
        36.400
 18  2 21  8 12  0.0000000  0  8G02G05G06G07G09G16G23G30
  21752867.070   114312078.068 6        45.800    21752867.070    89074343.078 8
        35.800
  23102841.758   121406244.490 6        46.700    23102844.582    94602284.359 7
        31.400
  21510019.563   113035919.074 7        49.400    21510024.770    88079942.468 8
        39.600
  21386343.711   112386011.596 7        51.400    21386346.148    87573529.684 8
        40.000
  20442575.453   107426474.055 8        53.000    20442579.699    83708966.995 9
        45.000
  24156543.547   126943502.054 5        40.500    24156545.789    98917017.992 6
        21.500
  23002420.438   120878550.108 6        46.200    23002420.969    94191082.895 7
        30.700
  22553743.734   118520730.925 7        48.400    22553748.785    92353849.999 8
        36.600
 18  2 21  8 12 30.0000000  0  8G02G05G06G07G09G16G23G30
  21750889.172   114301684.926 6        46.200    21750889.473    89066244.524 8
        35.700
  23084885.359   121311882.958 6        45.000    23084887.680    94528755.887 7
        31.000
  21523635.773   113107472.223 7        49.600    21523641.504    88135698.161 8
        40.000
  21375446.047   112328743.158 7        51.800    21375448.441    87528904.953 8
        40.300
  20450604.930   107468670.365 8        53.700    20450609.051    83741847.230 9
        44.800
  24154132.422   126930830.798 5        40.700    24154133.805    98907144.279 6
        20.600
  23017954.734   120960183.876 6        45.400    23017956.172    94254693.607 7
        31.000
  22535133.883   118422936.578 7        47.300    22535139.227    92277646.636 8
        36.300
 18  2 21  8 13  0.0000000  0  8G02G05G06G07G09G16G23G30
  21749016.953   114291845.665 6        44.800    21749016.684    89058577.568 8
        35.900
  23066958.930   121217678.253 7        47.200    23066961.285    94455349.630 7
        31.400
  21537340.047   113179489.657 7        49.900    21537345.551    88191815.628 8
        39.900
  21364635.648   112271937.108 7        51.600    21364638.887    87484640.514 8
        40.900
  20458702.203   107511222.629 8        52.900    20458706.863    83775004.841 9
        45.300
  24151836.648   126918763.040 5        41.100    24151838.988    98897740.809 6
        21.500
  23033519.055   121041968.950 6        46.600    23033519.559    94318422.203 7
        31.200
  22516576.813   118325420.704 7        48.300    22516582.109    92201660.244 8
        35.700
 18  2 21  8 13 30.0000000  0  8G02G05G06G07G09G16G23G30
  21747250.539   114282560.934 6        45.800    21747250.586    89051342.710 8
        35.900
  23049062.094   121123631.303 7        47.500    23049064.355    94382066.288 7
        30.900
  21551132.898   113251969.533 7        49.500    21551138.281    88248293.440 8
        39.200
  21353914.477   112215596.115 8        52.400    21353916.965    87440738.453 8
        40.400
  20466867.305   107554130.023 8        53.000    20466871.645    83808439.160 9
        44.600
  24149654.617   126907300.564 4        38.400    24149656.918    98888809.001 6
        20.100
  23049110.234   121123904.689 6        45.600    23049111.746    94382268.206 7
        30.900
  22498073.891   118228186.302 7        48.300    22498079.258    92125893.196 8
        36.000
 18  2 21  8 14  0.0000000  0  8G02G05G06G07G09G16G23G30
  21745589.398   114273830.698 6        47.000    21745589.457    89044539.923 8
        36.800
  23031195.734   121029744.983 6        46.100    23031199.086    94308908.141 7
        31.200
  21565012.453   113324908.850 7        49.300    21565017.859    88305129.225 8
        39.500
  21343281.984   112159720.748 7        51.700    21343284.098    87397199.216 8
        40.100
  20475099.750   107597390.672 8        53.000    20475103.953    83842148.759 9
        45.000
  24147588.711   126896443.150 5        39.500    24147591.508    98880348.698 6
        21.700
  23064730.766   121205989.402 6        45.900    23064732.230    94446230.290 7
        29.900
  22479624.945   118131235.162 7        48.800    22479630.133    92050346.894 8
        36.200
 18  2 21  8 14 30.0000000  0  8G02G05G06G07G09G16G23G30
  21744033.563   114265655.685 6        47.000    21744033.352    89038169.776 8
        36.400
  23013361.070   120936021.239 6        44.200    23013363.332    94235876.670 7
        30.300
  21578979.430   113398305.469 7        49.800    21578984.738    88362321.353 8
        40.000
  21332737.969   112104312.556 7        51.900    21332740.719    87354024.014 8
        40.400
  20483398.859   107641003.423 8        53.700    20483402.961    83876132.711 9
        44.800
  24145637.867   126886191.832 5        40.300    24145641.086    98872360.640 6
        20.400
  23080379.234   121288221.919 6        46.200    23080379.879    94510307.559 7
        30.900
  22461230.375   118034569.853 7        47.200    22461235.246    91975023.320 8
        37.200
 18  2 21  8 15  0.0000000  0  8G02G05G06G07G09G16G23G30
  21742583.086   114258035.954 6        45.900    21742582.891    89032232.309 8
        36.100
  22995557.313   120842461.235 6        46.300    22995559.406    94162972.764 7
        31.200
  21593033.031   113472156.886 7        50.200    21593038.285    88419867.856 8
        39.700
  21322283.352   112049372.797 7        51.900    21322285.996    87311213.832 8
        40.700
  20491764.930   107684966.923 8        53.500    20491769.422    83910389.981 9
        45.200
  24143802.109   126876547.533 4        38.900    24143805.316    98864845.584 6
        21.100
  23096055.305   121370601.014 6        46.000    23096055.984    94574499.041 7
        31.100
  22442889.961   117938192.655 7        47.800    22442895.156    91899924.221 8
        36.700
 18  2 21  8 15 30.0000000  0  8G02G05G06G07G09G16G23G30
  21741239.281   114250972.483 6        46.600    21741238.898    89026728.307 8
        36.200
  22977785.156   120749066.878 6        45.100    22977787.621    94090197.936 7
        30.600
  21607172.750   113546461.244 7        49.500    21607178.102    88477767.319 8
        39.200
  21311917.891   111994903.633 7        51.400    21311920.664    87268770.338 8
        40.200
  20500197.648   107729280.333 8        53.100    20500201.922    83944919.910 9
        45.200
  24142082.539   126867510.897 4        38.100    24142085.184    98857804.039 6
        20.400
  23111759.563   121453126.219 6        44.900    23111760.777    94638804.383 7
        30.200
  22424605.125   117842106.484 7        47.800    22424610.211    91825051.898 8
        36.600
 18  2 21  8 16  0.0000000  0  8G02G05G06G07G09G16G23G30
  21740001.141   114244465.784 7        47.900    21740001.012    89021658.149 8
        36.000
  22960044.195   120655839.240 6        46.600    22960046.570    94017553.036 7
        30.400
  21621398.086   113621216.319 7        49.500    21621403.590    88536017.967 8
        39.400
  21301642.602   111940906.783 7        51.200    21301645.285    87226694.875 8
        40.000
  20508696.234   107773942.550 8        53.000    20508700.402    83979721.630 9
        44.600
  24140478.977   126859083.234 4        38.700    24140481.793    98851236.991 6
        20.900
  23127491.570   121535796.640 6        45.400    23127491.793    94703222.851 7
        30.300
  22406376.281   117746313.912 7        47.100    22406381.582    91750408.362 8
        36.000
 18  2 21  8 16 30.0000000  0  8G02G05G06G07G09G16G23G30
  21738868.547   114238515.703 6        46.700    21738869.184    89017021.704 8
        36.900
  22942336.023   120562780.610 7        47.300    22942338.391    93945039.828 7
        31.400
  21635708.617   113696419.386 7        49.800    21635714.086    88594617.715 8
        39.400
  21291457.469   111887382.902 7        51.600    21291460.301    87184987.978 8
        40.900
  20517261.641   107818951.995 8        53.300    20517265.547    84014793.911 9
        44.500
  24138990.922   126851264.880 4        38.800    24138993.859    98845144.820 6
        19.900
  23143250.555   121618610.470 6        44.900    23143251.574    94767753.096 7
        30.200
  22388203.820   117650817.103 7        47.300    22388209.438    91675995.283 8
        36.000
 18  2 21  8 17  0.0000000  0  8G02G05G06G07G09G16G23G30
  21737842.680   114233122.764 6        46.100    21737842.262    89012819.402 8
        36.200
  22924659.305   120469892.867 6        46.000    22924662.543    93872659.779 7
        31.700
  21650104.102   113772068.060 7        48.600    21650109.738    88653564.686 8
        38.900
  21281362.672   111834333.691 7        51.600    21281365.121    87143650.939 8
        40.200
  20525892.109   107864307.418 8        53.000    20525896.355    84050135.790 9
        44.900
  24137619.203   126844056.555 4        38.100    24137622.449    98839527.911 6
        20.900
  23159036.000   121701566.720 6        45.600    23159037.828    94832394.305 7
        30.500
  22370088.781   117555618.402 7        48.700    22370093.527    91601814.495 8
        35.900
 18  2 21  8 17 30.0000000  0  8G02G05G06G07G09G16G23G30
  21736921.883   114228286.736 6        45.500    21736922.520    89009051.073 8
        35.900
  22907016.875   120377177.969 6        45.300    22907018.809    93800414.420 7
        31.900
  21664584.086   113848159.771 7        50.000    21664589.246    88712856.852 8
        39.000
  21271358.250   111781760.370 8        52.200    21271361.063    87102684.729 8
        40.500
  20534588.258   107910007.421 8        52.500    20534593.176    84085746.167 9
        44.700
  24136364.094   126837459.021 4        37.500    24136367.063    98834386.954 6
        21.800
  23174849.180   121784664.016 6        44.300    23174850.418    94897145.419 7
        30.400
  22352030.039   117460720.157 7        47.200    22352034.902    91527867.810 8
        36.200
 18  2 21  8 18  0.0000000  0  8G02G05G06G07G09G16G23G30
  21736108.016   114224008.485 6        46.600    21736107.930    89005717.365 8
        37.100
  22889406.328   120284637.012 6        46.800    22889409.004    93728304.610 7
        32.400
  21679148.211   113924692.479 7        48.500    21679153.441    88772492.695 8
        39.400
  21261444.734   111729664.620 8        52.100    21261447.109    87062090.657 8
        40.400
  20543350.430   107956051.011 8        52.500    20543355.070    84121624.278 9
        44.500
  24135225.375   126831472.970 4        37.900    24135228.109    98829722.510 6
        20.900
  23190688.742   121867901.875 6        45.800    23190689.723    94962006.050 7
        29.300
  22334028.945   117366125.059 7        47.800    22334034.645    91454157.367 8
        36.900
 18  2 21  8 18 30.0000000  0  8G02G05G06G07G09G16G23G30
  21735400.086   114220288.122 6        45.900    21735400.254    89002818.379 8
        36.800
  22871830.273   120192272.271 6        46.400    22871832.371    93656332.096 7
        31.700
  21693795.094   114001663.347 7        49.100    21693800.402    88832469.963 8
        39.500
  21251622.602   111678047.437 8        52.300    21251624.898    87021869.488 8
        40.300
  20552177.406   108002436.604 8        52.200    20552181.730    84157768.890 9
        44.900
  24134202.586   126826098.754 4        39.000    24134205.762    98825534.787 6
        21.500
  23206554.992   121951278.857 6        44.200    23206555.367    95026975.113 7
        28.900
  22316086.453   117271835.188 7        47.600    22316091.539    91380684.769 8
        36.800
 18  2 21  8 19  0.0000000  0  8G02G05G06G07G09G16G23G30
  21734798.547   114217126.082 6        46.300    21734798.949    89000354.428 8
        36.900
  22854287.203   120100085.333 6        44.800    22854289.656    93584498.129 7
        31.900
  21708525.281   114079070.312 7        49.400    21708530.664    88892787.040 8
        39.100
  21241891.273   111626910.646 7        51.900    21241893.961    86982022.656 8
        40.400
  20561069.445   108049163.315 8        53.700    20561073.637    84194179.305 9
        44.800
  24133295.859   126821337.361 4        38.400    24133299.707    98821824.604 6
        21.100
  23222447.188   122034794.158 6        44.900    23222447.684    95092051.960 7
        29.200
  22298201.805   117177853.298 6        46.500    22298207.516    91307452.150 8
        36.300
 18  2 21  8 19 30.0000000  0  8G02G05G06G07G09G16G23G30
  21734303.023   114214522.381 6        46.400    21734302.848    88998325.567 8
        36.500
  22836779.352   120008077.949 6        46.500    22836781.254    93512804.079 7
        32.100
  21723337.492   114156910.769 7        49.700    21723343.254    88953441.911 8
        39.100
  21232251.594   111576255.373 7        51.600    21232254.559    86942551.021 8
        40.800
  20570025.688   108096229.627 8        53.400    20570030.242    84230854.350 9
        44.700
  24132506.875   126817189.185 4        38.900    24132510.234    98818592.287 6
        21.300
  23238365.867   122118446.573 6        44.700    23238366.238    95157235.632 7
        29.600
  22280376.664   117084181.551 7        47.900    22280382.406    91234461.202 8
        36.600
 18  2 21  8 20  0.0000000  0  8G02G05G06G07G09G16G23G30
  21733914.258   114212477.044 7        47.200    21733913.742    88996731.790 8
        37.100
  22819305.297   119916251.748 7        47.300    22819307.957    93441251.200 7
        31.800
  21738232.281   114235182.013 7        49.300    21738237.910    89014432.453 8
        39.500
  21222704.609   111526082.781 8        52.200    21222707.230    86903455.511 8
        40.400
  20579046.453   108143634.177 8        53.100    20579050.820    84267792.958 9
        44.500
  24131834.469   126813654.655 3        36.900    24131837.797    98815838.084 6
        20.900
  23254310.375   122202234.974 6        45.000    23254310.867    95222525.288 7
        29.400
  22262611.383   116990822.322 7        47.800    22262616.227    91161713.775 8
        36.900
 18  2 21  8 20 30.0000000  0  8G02G05G06G07G09G16G23G30
  21733631.164   114210990.690 7        47.500    21733631.305    88995573.593 8
        37.300
  22801866.102   119824608.909 7        47.300    22801868.730    93369841.206 8
        33.500
  21753208.305   114313882.039 7        49.000    21753213.844    89075757.123 8
        38.800
  21213249.133   111476394.658 8        52.300    21213251.672    86864737.506 8
        40.700
  20588131.586   108191376.102 8        52.800    20588135.738    84304994.447 9
        44.500
  24131279.352   126810734.411 5        39.100    24131282.320    98813562.571 6
        20.900
  23270280.023   122286158.449 6        43.900    23270281.234    95287920.166 7
        28.700
  22244905.813   116897778.272 7        48.000    22244911.125    91089211.928 8
        37.600
 18  2 21  8 21  0.0000000  0  8G02G05G06G07G09G16G23G30
  21733454.844   114210063.216 7        47.500    21733454.695    88994850.878 8
        37.200
  22784462.297   119733150.932 7        47.500    22784463.879    93298575.260 8
        33.400
  21768265.508   114393008.196 7        49.100    21768270.828    89137413.824 8
        39.000
  21203885.688   111427191.884 7        51.700    21203888.770    86826397.684 8
        41.000
  20597279.945   108239454.014 8        53.000    20597284.695    84342457.743 9
        44.500
  24130840.820   126808429.139 4        38.400    24130842.617    98811766.197 6
        21.100
  23286275.297   122370215.722 6        44.500    23286276.930    95353419.306 7
        29.100
  22227260.648   116805051.678 7        48.200    22227265.867    91016957.453 8
        37.300
 18  2 21  8 21 30.0000000  0  8G02G05G06G07G09G16G23G30
  21733384.297   114209694.652 6        45.300    21733384.570    88994563.674 8
        37.200
  22767094.008   119641879.406 6        46.300    22767096.371    93227454.616 7
        32.700
  21783403.289   114472557.956 7        49.000    21783408.824    89199400.606 8
        38.600
  21194615.883   111378476.024 8        52.700    21194618.070    86788437.285 8
        40.700
  20606492.641   108287866.599 8        53.200    20606497.102    84380181.832 9
        45.300
  24130519.133   126806739.172 5        39.800    24130521.285    98810449.344 6
        22.000
  23302296.508   122454405.998 6        44.700    23302297.535    95419022.075 7
        28.400
  22209676.047   116712644.947 7        47.800    22209681.680    90944952.230 8
        38.200
 18  2 21  8 22  0.0000000  0  8G02G05G06G07G09G16G23G30
  21733420.680   114209885.201 6        45.900    21733420.973    88994712.149 8
        36.800
  22749761.414   119550796.802 6        46.500    22749763.805    93156481.151 7
        32.800
  21798621.766   114552528.509 7        48.200    21798627.090    89261715.266 8
        39.200
  21185438.148   111330247.994 7        51.500    21185440.898    86750857.017 8
        40.800
  20615768.938   108336612.408 8        52.800    20615773.406    84418165.577 9
        45.100
  24130314.250   126805664.820 4        37.800    24130316.328    98809612.172 6
        20.900
  23318342.508   122538727.810 6        44.700    23318343.352    95484727.358 7
        29.300
  22192153.172   116620560.236 7        49.200    22192158.688    90873197.919 8
        37.600
 18  2 21  8 22 30.0000000  0  8G02G05G06G07G09G16G23G30
  21733563.352   114210635.182 6        46.200    21733563.402    88995296.539 8
        37.500
  22732465.461   119459904.317 6        46.300    22732468.316    93085655.841 8
        33.600
  21813918.852   114632917.795 7        48.400    21813924.203    89324356.240 8
        38.800
  21176354.086   111282509.368 7        52.000    21176356.277    86713658.075 8
        40.800
  20625108.180   108385690.435 8        53.400    20625112.395    84456408.182 9
        44.500
  24130227.258   126805206.618 5        39.400    24130229.348    98809255.140 6
        21.300
  23334413.242   122623180.620 6        45.000    23334413.941    95550534.724 7
        29.200
  22174691.570   116528800.122 7        47.500    22174697.168    90801696.557 8
        38.000
 18  2 21  8 23  0.0000000  0  8G02G05G06G07G09G16G23G30
  21733812.695   114211944.651 6        47.000    21733813.008    88996316.886 8
        36.900
  22715206.172   119369203.908 7        48.200    22715208.270    93014980.205 8
        34.500
  21829295.703   114713723.204 7        49.600    21829301.039    89387321.428 8
        38.600
  21167362.984   111235261.073 8        52.500    21167365.465    86676841.238 8
        40.100
  20634510.391   108435099.404 8        53.300    20634515.117    84494908.675 9
        44.600
  24130256.695   126805364.938 5        39.100    24130259.840    98809378.479 6
        20.400
  23350508.813   122707763.003 6        45.200    23350509.609    95616443.053 7
        28.700
  22157292.109   116437367.049 7        48.400    22157298.211    90730450.013 8
        38.300
 18  2 21  8 23 30.0000000  0  8G02G05G06G07G09G16G23G30
  21734168.289   114213813.242 6        46.100    21734168.668    88997772.916 8
        36.700
  22697982.867   119278697.644 7        47.800    22697985.738    92944455.851 7
        32.900
  21844751.141   114794942.054 7        47.100    21844756.469    89450608.801 8
        38.300
  21158465.555   111188504.543 8        52.800    21158468.043    86640407.585 8
        40.800
  20643975.125   108484837.928 7        51.300    20643979.727    84533665.958 9
        44.100
  24130405.016   126806140.002 5        39.900    24130407.176    98809982.422 6
        20.900
  23366628.555   122792473.896 6        44.800    23366629.570    95682451.524 7
        29.000
  22139955.969   116346263.118 7        49.800    22139961.914    90659459.951 8
        37.900
 18  2 21  8 24  0.0000000  0  8G02G05G06G07G09G16G23G30
  21734630.453   114216241.131 6        46.700    21734630.277    88999664.780 8
        37.000
  22680797.430   119188387.427 7        47.500    22680799.375    92874084.262 8
        33.100
  21860284.508   114876571.682 6        47.000    21860290.012    89514216.257 8
        38.700
  21149661.594   111142240.961 8        52.200    21149663.645    86604358.061 8
        40.600
  20653502.547   108534904.637 8        52.700    20653507.156    84572678.967 9
        44.500
  24130669.570   126807532.265 5        39.500    24130672.988    98811067.301 6
        21.500
  23382773.461   122877312.203 6        46.100    23382773.895    95748559.262 7
        29.100
  22122682.406   116255490.666 7        49.200    22122688.207    90588728.184 8
        38.800
 18  2 21  8 24 30.0000000  0  8G02G05G06G07G09G16G23G30
  21735198.930   114219228.386 6        46.200    21735198.484    89001992.497 8
        36.500
  22663649.617   119098274.376 7        47.600    22663651.754    92803866.305 7
        33.000
  21875895.727   114958609.576 6        47.000    21875901.512    89578141.867 8
        38.400
  21140951.805   111096471.048 8        52.500    21140954.613    86568693.204 8
        40.500
  20663091.859   108585298.271 8        53.000    20663095.961    84611946.722 9
        44.300
  24131051.992   126809542.195 4        38.300    24131055.414    98812633.458 6
        22.300
  23398941.938   122962277.210 6        43.800    23398942.750    95814765.739 7
        29.100
  22105472.539   116165052.027 7        49.100    22105477.879    90518256.539 8
        38.400
 18  2 21  8 25  0.0000000  0  8G02G05G06G07G09G16G23G30
  21735873.336   114222775.050 7        47.400    21735873.539    89004756.113 8
        36.400
  22646538.914   119008361.281 7        47.400    22646541.992    92733804.156 7
        32.400
  21891584.547   115041053.326 6        46.500    21891589.801    89642383.702 8
        38.100
  21132336.289   111051196.552 7        51.700    21132338.887    86533414.412 8
        39.900
  20672743.914   108636017.836 7        51.600    20672747.914    84651468.455 9
        44.500
  24131551.680   126812169.552 4        39.000    24131555.594    98814680.765 6
        21.300
  23415134.281   123047367.647 6        43.500    23415134.852    95881069.959 7
        29.300
  22088326.289   116074949.837 7        49.300    22088332.340    90448047.079 8
        38.100
 18  2 21  8 25 30.0000000  0  8G02G05G06G07G09G16G23G30
  21736654.547   114226880.779 7        47.100    21736654.930    89007955.368 8
        36.500
  22629467.938   118918649.208 7        48.200    22629470.059    92663898.654 8
        33.500
  21907349.883   115123900.338 6        46.500    21907355.383    89706939.771 8
        38.500
  21123815.602   111006418.592 7        52.000    21123817.949    86498522.507 8
        40.300
  20682457.320   108687061.925 8        53.000    20682461.367    84691243.060 9
        44.500
  24132170.211   126815415.098 5        40.600    24132172.254    98817209.729 6
        21.300
  23431350.383   123132582.781 6        43.200    23431350.559    95947471.335 7
        29.100
  22071244.906   115985186.172 7        49.700    22071250.375    90378101.407 8
        38.700
 18  2 21  8 26  0.0000000  0  8G02G05G06G07G09G16G23G30
  21737542.250   114231545.629 7        47.200    21737542.492    89011590.301 8
        36.700
  22612434.734   118829139.960 7        47.300    22612437.840    92594151.205 8
        33.200
  21923191.625   115207147.927 7        48.400    21923196.609    89771808.013 8
        37.700
  21115389.141   110962137.919 8        52.900    21115391.746    86464018.100 8
        40.500
  20692232.438   108738429.231 8        53.600    20692236.418    84731269.533 9
        44.300
  24132905.352   126819279.007 5        40.800    24132907.207    98820220.506 6
        21.700
  23447588.992   123217921.333 6        43.500    23447589.762    96013968.873 7
        27.100
  22054228.359   115895763.410 7        49.600    22054233.945    90308421.366 8
        38.500
 18  2 21  8 26 30.0000000  0  8G02G05G06G07G09G16G23G30
  21738536.688   114236769.718 7        47.300    21738536.563    89015661.017 8
        36.300
  22595440.789   118739836.462 7        47.600    22595444.133    92524564.086 8
        33.700
  21939108.680   115290793.489 7        48.000    21939114.227    89836986.362 8
        37.800
  21107058.109   110918355.819 8        52.600    21107060.199    86429902.187 8
        40.900
  20702068.531   108790118.465 8        52.600    20702073.000    84771546.844 9
        43.700
  24133758.523   126823760.850 5        41.000    24133760.625    98823712.884 6
        21.800
  23463851.914   123303382.298 6        45.100    23463851.902    96080561.810 7
        27.800
  22037276.766   115806683.780 7        49.600    22037282.684    90239008.698 8
        38.300
 18  2 21  8 27  0.0000000  0  8G02G05G06G07G09G16G23G30
  21739636.938   114242552.939 7        47.200    21739636.887    89020167.405 8
        36.100
  22578485.742   118650739.745 7        48.100    22578489.621    92455138.081 8
        34.400
  21955101.109   115374834.504 7        49.400    21955106.719    89902472.876 8
        37.700
  21098821.539   110875073.585 8        52.100    21098823.688    86396175.782 8
        40.900
  20711965.492   108842128.534 8        53.200    20711969.828    84812074.163 9
        43.900
  24134727.883   126828861.354 5        39.800    24134731.898    98827687.310 6
        21.300
  23480137.203   123388964.866 6        44.000    23480138.398    96147249.508 7
        27.600
  22020391.648   115717949.759 7        49.400    22020397.313    90169865.325 8
        38.100
 18  2 21  8 27 30.0000000  0  8G02G05G06G07G09G16G23G30
  21740844.359   114248895.339 7        47.600    21740844.422    89025109.523 8
        36.000
  22561571.430   118561851.765 7        48.200    22561574.066    92385874.726 8
        33.500
  21971168.789   115459268.414 6        46.900    21971174.484    89968265.505 8
        37.600
  21090680.289   110832292.311 7        51.300    21090682.977    86362839.711 8
        40.400
  20721923.563   108894458.214 8        52.500    20721927.984    84852850.524 9
        44.300
  24135818.000   126834580.595 5        40.600    24135819.426    98832143.841 6
        22.500
  23496445.742   123474667.857 6        43.800    23496447.422    96214031.022 7
        28.400
  22003572.305   115629563.682 7        49.300    22003578.047    90100993.081 8
        38.800
 18  2 21  8 28  0.0000000  0  8G02G05G06G07G09G16G23G30
  21742157.219   114255796.483 7        48.200    21742157.672    89030487.026 8
        35.900
  22544696.594   118473174.278 7        47.600    22544699.566    92316775.395 8
        33.400
  21987310.000   115544092.591 7        47.900    21987315.809    90034362.241 8
        38.400
  21082634.750   110790013.037 7        51.600    21082637.086    86329894.837 8
        40.700
  20731942.266   108947106.289 8        52.300    20731946.320    84893874.999 9
        44.300
  24137022.414   126840918.972 5        39.700    24137025.402    98837082.829 6
        20.600
  23512777.633   123560490.370 6        42.500    23512779.207    96280905.672 7
        28.300
  21986819.344   115541527.923 7        49.400    21986825.148    90032393.810 8
        38.700
 18  2 21  8 28 30.0000000  0  8G02G05G06G07G09G16G23G30
  21743577.055   114263256.684 7        48.000    21743577.027    89036300.161 8
        36.600
  22527862.156   118384709.977 6        45.700    22527865.566    92247842.167 7
        33.000
  22003525.391   115629304.802 7        49.100    22003531.418    90100761.339 8
        37.900
  21074685.211   110748237.232 8        52.100    21074687.086    86297342.276 8
        40.600
  20742021.203   109000071.807 8        52.500    20742025.426    84935146.816 9
        44.200
  24138347.828   126847876.699 5        40.400    24138350.230    98842504.408 6
        20.900
  23529131.680   123646432.069 6        42.200    23529133.281    96347873.195 7
        27.400
  21970134.055   115453845.077 7        48.500    21970139.398    89964069.565 8
        38.600
 18  2 21  8 29  0.0000000  0  8G02G05G06G07G09G16G23G30
  21745102.977   114271275.158 7        47.700    21745102.832    89042548.310 8
        36.400
  22511069.133   118296460.247 7        47.300    22511071.641    92179076.166 7
        33.000
  22019813.875   115714901.658 6        47.000    22019819.848    90167460.171 8
        38.000
  21066831.195   110706965.327 7        51.600    21066833.770    86265182.352 8
        40.700
  20752160.063   109053352.835 7        51.400    20752164.707    84976664.498 9
        44.600
  24139788.273   126855453.233 4        38.700    24139791.707    98848408.179 6
        21.300
  23545508.227   123732491.152 6        42.200    23545510.043    96414932.183 7
        28.300
  21953515.977   115366516.711 7        49.300    21953521.535    89896021.515 8
        39.000
 18  2 21  8 29 30.0000000  0  8G02G05G06G07G09G16G23G30
  21746734.969   114279851.685 7        47.200    21746735.176    89049231.302 8
        36.300
  22494316.992   118208426.359 6        45.500    22494319.953    92110478.336 8
        33.400
  22036175.266   115800880.427 6        46.600    22036180.945    90234456.577 8
        37.900
  21059073.547   110666198.009 8        52.100    21059075.852    86233415.621 8
        41.000
  20762359.188   109106948.023 7        51.800    20762363.527    85018426.965 9
        44.300
  24141347.570   126863648.721 5        39.200    24141351.383    98854794.236 6
        20.400
  23561907.539   123818666.340 6        42.800    23561908.828    96482081.652 7
        29.400
  21936965.648   115279544.988 7        48.100    21936970.965    89828251.372 8
        39.300
 18  2 21  8 30  0.0000000  0  8G02G05G06G07G09G16G23G30
  21748473.125   114288985.798 7        48.300    21748473.352    89056348.791 8
        35.700
  22477606.219   118120610.833 7        47.400    22477608.512    92042050.640 8
        34.000
  22052608.492   115887238.550 7        47.900    22052613.984    90301748.586 8
        38.100
  21051412.266   110625936.438 7        51.200    21051414.461    86202042.986 9
        41.100
  20772617.086   109160856.222 8        52.100    20772621.832    85060433.353 9
        44.200
  24143024.898   126872463.166 5        39.200    24143028.426    98861662.623 6
        21.500
  23578328.023   123904956.787 6        43.800    23578329.340    96549320.924 7
        27.900
  21920483.469   115192932.327 7        49.600    21920488.883    89760761.025 8
        38.900
 18  2 21  8 30 30.0000000  0  8G02G05G06G07G09G16G23G30
  21750317.313   114298677.565 7        48.400    21750317.301    89063900.801 8
        36.000
  22460937.305   118033014.764 7        47.800    22460940.039    91973793.977 8
        33.800
  22069113.859   115973973.476 6        46.800    22069119.406    90369334.208 8
        38.100
  21043846.992   110586181.612 7        51.500    21043849.570    86171065.212 8
        40.900
  20782935.203   109215076.319 8        52.100    20782939.906    85102682.759 9
        44.700
  24144819.883   126881896.420 4        38.900    24144823.227    98869013.180 6
        19.300
  23594769.836   123991361.743 5        41.400    23594771.449    96616649.392 6
        26.000
  21904070.461   115106681.090 7        49.600    21904075.934    89693552.300 8
        39.200
 18  2 21  8 31  0.0000000  0  8G02G05G06G07G09G16G23G30
  21752268.078   114308926.735 7        47.200    21752267.980    89071887.161 8
        36.100
  22444310.453   117945640.932 7        48.100    22444313.367    91905710.477 8
        33.800
  22085690.211   116061082.657 7        47.600    22085695.934    90437211.467 8
        38.200
  21036378.219   110546934.728 7        51.900    21036381.129    86140483.236 8
        40.600
  20793312.383   109269607.117 8        52.700    20793316.570    85145174.286 9
        44.900
  24146733.430   126891948.214 5        40.200    24146736.445    98876845.750 6
        19.900
  23611233.828   124077880.334 6        42.600    23611234.594    96684066.470 7
        27.300
  21887727.055   115020793.599 7        49.700    21887731.891    89626627.019 8
        39.200
 18  2 21  8 31 30.0000000  0  8G02G05G06G07G09G16G23G30
  21754323.938   114319732.926 6        46.900    21754323.965    89080307.557 8
        35.700
  22427726.063   117858490.704 6        45.400    22427728.766    91837801.206 8
        33.100
  22102336.961   116148563.205 7        48.500    22102342.230    90505378.108 8
        37.600
  21029006.852   110508196.566 7        49.900    21029009.563    86110297.679 8
        40.900
  20803748.063   109324447.247 7        51.400    20803752.020    85187906.852 9
        43.900
  24148763.680   126902619.071 5        39.400    24148767.309    98885160.682 6
        19.300
  23627719.711   124164511.469 6        42.200    23627720.738    96751571.238 7
        27.300
  21871452.500   114935271.948 7        48.900    21871457.715    89559986.792 8
        40.100
 18  2 21  8 32  0.0000000  0  8G02G05G06G07G09G16G23G30
  21756486.242   114331095.569 7        47.600    21756486.586    89089161.552 8
        35.900
  22411184.563   117771566.417 6        45.300    22411187.453    91770067.989 7
        33.000
  22119054.219   116236412.466 7        48.100    22119059.652    90573832.053 8
        37.400
  21021732.102   110469968.178 7        50.500    21021734.625    86080509.334 8
        41.000
  20814242.320   109379595.431 7        51.900    20814246.254    85230879.458 9
        43.900
  24150911.922   126913908.413 5        39.600    24150914.477    98893957.544 6
        20.100
  23644225.859   124251254.245 6        42.900    23644228.125    96819162.956 7
        28.500
  21855248.344   114850118.371 7        48.100    21855253.801    89493633.398 8
        40.400
 18  2 21  8 32 30.0000000  0  8G02G05G06G07G09G16G23G30
  21758754.984   114343014.594 7        48.500    21758754.707    89098449.094 8
        36.700
  22394686.969   117684870.034 7        48.200    22394689.824    91702512.380 8
        33.400
  22135840.930   116324627.734 7        47.700    22135846.758    90642571.184 8
        37.600
  21014554.883   110432250.672 7        50.700    21014557.480    86051119.078 8
        40.800
  20824794.867   109435050.514 7        51.700    20824798.938    85274091.195 9
        43.900
  24153177.445   126925816.332 4        38.900    24153180.668    98903236.440 6
        20.900
  23660754.297   124338107.452 6        43.200    23660755.484    96886840.730 7
        27.300
  21839115.000   114765335.154 7        51.000    21839120.352    89427568.574 8
        39.800
 18  2 21  8 33  0.0000000  0  8G02G05G06G07G09G16G23G30
  21761128.586   114355489.844 6        47.000    21761128.645    89108170.060 8
        36.000
  22378232.828   117598402.843 6        47.000    22378235.910    91635135.364 8
        33.600
  22152697.258   116413206.471 6        47.000    22152702.480    90711593.511 8
        37.000
  21007474.906   110395044.833 7        50.000    21007477.355    86022127.522 8
        40.900
  20835405.773   109490811.345 7        50.800    20835409.879    85317541.183 9
        43.400
  24155561.914   126938342.789 4        38.900    24155565.098    98912997.248 6
        19.900
  23677301.742   124425070.422 6        43.500    23677302.992    96954604.080 6
        25.800
  21823051.992   114680924.712 7        49.800    21823056.930    89361794.248 8
        39.700
 18  2 21  8 33 30.0000000  0  8G02G05G06G07G09G16G23G30
  21763608.023   114368520.568 7        47.900    21763608.141    89118323.854 8
        36.500
  22361822.906   117512167.215 7        48.000    22361825.543    91567938.782 7
        32.400
  22169621.438   116502145.553 7        48.000    22169627.645    90780896.649 8
        37.500
  21000492.430   110358350.889 7        50.600    21000494.734    85993534.849 8
        40.900
  20846074.477   109546876.288 7        51.400    20846078.055    85361228.144 9
        43.100
  24158062.641   126951487.108 5        39.800    24158065.207    98923239.557 6
        20.400
  23693872.227   124512141.980 6        42.300    23693872.559    97022452.017 7
        27.200
  21807060.320   114596888.770 7        50.900    21807065.367    89296311.761 8
        39.900
 18  2 21  8 34  0.0000000  0  8G02G05G06G07G09G16G23G30
  21766193.258   114382106.395 6        46.900    21766193.375    89128910.193 8
        35.700
  22345457.086   117426165.178 7        48.000    22345460.359    91500924.205 8
        34.000
  22186614.750   116591442.456 6        47.000    22186620.602    90850478.624 8
        37.300
  20993607.313   110322170.187 7        50.400    20993609.844    85965342.102 9
        41.200
  20856801.352   109603244.270 7        51.800    20856805.262    85405151.244 9
        43.900
  24160682.914   126965249.371 5        39.900    24160684.098    98933963.404 6
        20.400
  23710461.195   124599321.401 6        42.300    23710462.801    97090384.002 7
        28.700
  21791140.391   114513229.717 7        50.300    21791145.926    89231122.940 8
        40.100
 18  2 21  8 34 30.0000000  0  8G02G05G06G07G09G16G23G30
  21768884.195   114396246.693 7        48.100    21768884.168    89139928.600 8
        36.500
  22329136.586   117340397.971 6        46.300    22329139.754    91434092.627 8
        34.000
  22203674.547   116681094.278 6        46.200    22203680.449    90920337.142 8
        37.500
  20986819.906   110286503.357 7        49.700    20986822.535    85937549.780 9
        41.600
  20867585.148   109659913.930 7        50.700    20867589.391    85449309.405 9
        44.200
  24163419.063   126979629.546 5        39.700    24163420.793    98945168.695 6
        19.300
  23727071.820   124686607.388 6        43.400    23727073.172    97158398.999 7
        28.500
  21775292.266   114429949.589 7        48.200    21775297.813    89166229.380 8
        40.400
 18  2 21  8 35  0.0000000  0  8G02G05G06G07G09G16G23G30
