     2.11           OBSERVATION DATA    M (MIXED)           RINEX VERSION / TYPE
teqc  2017Sep15                         20180326 12:33:02UTCPGM / RUN BY / DATE
                                                            OBSERVER / AGENCY
BASS                                                        MARKER NAME
BASS                                                        MARKER NUMBER
471773              LEICA GX1230GG      8.10                REC # / TYPE / VERS
                    LEIAX1202GG                             ANT # / TYPE
  4206230.7094   171067.7112  4775622.1124                  APPROX POSITION XYZ
        1.7260        0.0000        0.0000                  ANTENNA: DELTA H/E/N
Linux 2.4.21-27.ELsmp|Opteron|gcc -static|Linux 64|=+       COMMENT
     2              OBSERVATION DATA    M                   COMMENT
LEICA GEO OFFICE 7.0                    26-3-18 13:33       COMMENT
L1PhaOff:   0.0644  L2PhaOff:   0.0640                      COMMENT
     1     1                                                WAVELENGTH FACT L1/2
     4    C1    P2    L1    L2                              # / TYPES OF OBSERV
    18                                                      LEAP SECONDS
          C1    L1    D1    P2    L2    D2                  COMMENT
teqc edited: all GLONASS satellites excluded                COMMENT
  2018     3    26     6    48    0.0000000     GPS         TIME OF FIRST OBS
                                                            END OF HEADER
 18  3 26  6 48  0.0000000  0  6G02G09G07G05G06G30
  22123896.760    22123893.840   116261862.54748  90593643.04747
  21552856.160    21552857.480   113261021.17949  88255347.20048
  20739126.100    20739124.520   108984843.89449  84923247.04548
  21534310.320    21534309.240   113163565.85849  88179396.99847
  23300205.440    23300207.660   122443406.48348  95410454.47246
  21005308.560    21005309.260   110383640.56049  86013228.96348
 18  3 26  6 48 30.0000000  0  6G02G09G07G05G06G30
  22132017.580    22132014.480   116304537.28548  90626896.07747
  21566345.180    21566346.560   113331907.32249  88310583.14748
  20738403.900    20738402.660   108981049.72549  84920290.55348
  21521039.320    21521038.400   113093826.88649  88125054.97147
  23320244.400    23320246.880   122548712.35448  95492510.98146
  20994078.840    20994079.560   110324627.85249  85967245.04148
 18  3 26  6 49  0.0000000  0  6G02G09G07G05G06G30
  22140232.300    22140229.160   116347705.39448  90660533.55647
  21579877.760    21579878.900   113403021.12349  88365996.47448
  20737782.220    20737780.960   108977782.73249  84917744.84448
  21507834.760    21507833.800   113024436.16949  88070984.27447
  23340317.480    23340319.860   122654196.79948  95574706.61146
  20982940.620    20982941.440   110266096.38649  85921636.13048
 18  3 26  6 49 30.0000000  0  6G02G09G07G05G06G30
  22148536.840    22148533.620   116391345.54948  90694538.84447
  21593449.680    21593450.580   113474341.22549  88421570.56148
  20737257.060    20737255.520   108975022.41249  84915593.93148
  21494693.080    21494691.920   112955375.48049  88017170.74848
  23360420.200    23360422.420   122759836.68048  95657023.33646
  20971890.380    20971891.360   110208027.44649  85876387.59848
 18  3 26  6 50  0.0000000  0  6G02G09G07G05G06G30
  22156936.120    22156932.920   116435483.79848  90728932.22747
  21607065.880    21607066.900   113545894.53149  88477326.39048
  20736833.480    20736831.720   108972796.05549  84913859.10448
  21481619.800    21481618.480   112886674.58149  87963637.58448
  23380557.120    23380559.320   122865656.95147  95739480.65546
  20960933.680    20960934.840   110150450.31149  85831522.30248
 18  3 26  6 50 30.0000000  0  6G02G09G07G05G06G30
  22165427.160    22165423.940   116480104.73848  90763701.78247
  21620723.680    21620724.840   113617666.35049  88533252.45248
  20736508.800    20736506.940   108971089.64849  84912529.44648
  21468612.780    21468611.360   112818321.76749  87910375.66548
  23400725.200    23400727.500   122971641.08748  95822065.68845
  20950068.260    20950069.520   110093352.72149  85787030.69348
 18  3 26  6 51  0.0000000  0  6G02G09G07G05G06G30
  22174010.700    22174007.640   116525212.74848  90798850.87147
  21634424.040    21634425.100   113689661.47949  88589352.52448
  20736284.220    20736282.420   108969909.05549  84911609.50948
  21455673.520    21455672.060   112750325.18249  87857391.30748
  23420924.980    23420927.480   123077791.87348  95904780.57446
  20939295.500    20939296.860   110036741.90649  85742918.37748
 18  3 26  6 51 30.0000000  0  6G02G09G07G05G06G30
  22182686.600    22182683.520   116570805.54948  90834377.72547
  21648166.560    21648167.620   113761878.51749  88645625.54948
  20736159.500    20736157.820   108969253.30049  84911098.52748
  21442802.380    21442800.920   112682686.77149  87804686.05048
  23441155.920    23441158.380   123184106.08948  95987622.81246
  20928615.640    20928617.080   109980618.95249  85699186.20948
 18  3 26  6 52  0.0000000  0  6G02G09G07G05G06G30
  22191454.160    22191450.960   116616879.01748  90870279.10847
  21661950.640    21661951.960   113834314.14749  88702068.85448
  20736134.180    20736132.620   108969119.80949  84910994.50448
  21429999.360    21429997.820   112615406.08549  87752259.52948
  23461417.160    23461419.520   123290578.50748  96070588.30447
  20918028.500    20918029.940   109924982.81249  85655833.38948
 18  3 26  6 52 30.0000000  0  6G02G09G07G05G06G30
  22200313.260    22200310.000   116663433.69748  90906555.43947
  21675776.460    21675777.860   113906969.43249  88758683.34548
  20736208.440    20736206.920   108969510.11949  84911298.64248
  21417265.200    21417263.600   112548487.40149  87700115.10647
  23481708.240    23481710.600   123397208.31348  96153676.40547
  20907534.760    20907536.080   109869837.02449  85612862.64748
 18  3 26  6 53  0.0000000  0  6G02G09G07G05G06G30
  22209263.400    22209259.940   116710466.20248  90943204.15247
  21689643.380    21689644.480   113979841.36649  88815466.67048
  20736381.860    20736380.420   108970421.88049  84912009.11648
  21404599.840    21404598.200   112481930.48049  87648252.56047
  23502028.220    23502030.740   123503990.66047  96236883.35147
  20897134.120    20897135.320   109815180.91149  85570273.48748
 18  3 26  6 53 30.0000000  0  6G02G09G07G05G06G30
  22218303.820    22218300.020   116757973.14648  90980222.54746
  21703551.100    21703551.980   114052927.55149  88872416.89948
  20736654.180    20736652.840   108971853.29949  84913124.53248
  21392003.560    21392001.940   112415736.38749  87596672.74848
  23522376.340    23522379.040   123610921.12847  96320205.72646
  20886826.540    20886827.700   109761014.36749  85528065.78648
 18  3 26  6 54  0.0000000  0  6G02G09G07G05G06G30
  22227434.160    22227430.220   116805952.81348  91017609.28847
  21717499.640    21717500.760   114126227.30049  88929533.57148
  20737025.360    20737024.140   108973804.16649  84914644.69648
  21379476.660    21379475.140   112349906.85049  87545376.99847
  23542752.300    23542754.860   123717997.21648  96403641.56546
  20876612.400    20876613.640   109707339.04649  85486240.88148
 18  3 26  6 54 30.0000000  0  6G02G09G07G05G06G30
  22236655.360    22236651.400   116854409.78948  91055367.93147
  21731489.760    21731491.160   114199745.72949  88986820.64848
  20737496.500    20737495.460   108976280.23649  84916574.09748
  21367020.780    21367019.280   112284450.71449  87494372.23147
  23563156.440    23563159.120   123825222.06647  96487193.35946
  20866493.220    20866494.480   109654162.37049  85444804.51748
 18  3 26  6 55  0.0000000  0  6G02G09G07G05G06G30
  22245965.520    22245961.480   116903334.79249  91093491.31247
  21745519.860    21745521.020   114273474.31649  89044271.49948
  20738066.080    20738065.220   108979273.69149  84918906.65548
  21354635.020    21354633.460   112219362.89349  87443654.44047
  23583586.820    23583589.680   123932585.32648  96570852.99946
  20856467.720    20856468.920   109601478.12549  85403751.86248
 18  3 26  6 55 30.0000000  0  6G02G09G07G05G06G30
  22255365.780    22255361.820   116952732.76749  91131983.23047
  21759591.060    21759591.920   114347418.82649  89101890.58448
  20738735.240    20738734.420   108982790.39749  84921646.94848
  21342320.860    21342319.200   112154651.61949  87393230.07548
  23604044.260    23604047.320   124040090.80748  96654623.47646
  20846537.480    20846538.600   109549294.28349  85363089.15948
 18  3 26  6 56  0.0000000  0  6G02G09G07G05G06G30
  22264854.220    22264850.320   117002593.95249  91170836.06947
  21773701.640    21773702.640   114421570.58249  89159671.15448
  20739502.440    20739501.600   108986822.32149  84924788.70448
  21330077.340    21330075.660   112090311.36949  87343094.82648
  23624527.020    23624529.920   124147727.90248  96738496.52045
  20836701.260    20836702.360   109497604.40349  85322811.33748
 18  3 26  6 56 30.0000000  0  6G02G09G07G05G06G30
  22274431.440    22274427.440   117052921.97848  91210052.68447
  21787852.420    21787853.900   114495934.10149  89217616.72648
  20740368.520    20740367.700   108991374.07749  84928335.53848
  21317905.820    21317904.160   112026349.51849  87293254.41448
  23645035.420    23645037.780   124255499.24948  96822474.17545
  20826960.320    20826961.400   109446415.26649  85282923.70748
 18  3 26  6 57  0.0000000  0  6G02G09G07G05G06G30
  22284096.100    22284091.960   117103709.99649  91249627.75347
  21802042.420    21802044.080   114570503.32549  89275722.60948
  20741332.640    20741331.620   108996440.58049  84932283.43848
  21305805.860    21305804.300   111962763.83149  87243707.12548
  23665567.860    23665570.140   124363396.87248  96906550.22446
  20817313.860    20817314.940   109395722.98449  85243423.24448
 18  3 26  6 57 30.0000000  0  6G02G09G07G05G06G30
  22293849.260    22293844.980   117154962.97248  91289565.13947
  21816272.720    21816274.180   114645283.99549  89333993.23148
  20742395.920    20742394.740   109002027.81349  84936637.14248
  21293779.040    21293777.600   111899562.67549  87194459.48648
  23686125.020    23686127.460   124471424.60748  96990727.67846
  20807763.480    20807764.580   109345535.47249  85204316.10048
 18  3 26  6 58  0.0000000  0  6G02G09G07G05G06G30
  22303689.520    22303685.260   117206674.04548  91329859.45347
  21830542.160    21830543.500   114720270.27249  89392424.05148
  20743557.280    20743555.920   109008130.32549  84941392.34648
  21281824.760    21281823.280   111836742.78849  87145508.91947
  23706705.460    23706707.880   124579574.76747  97075000.46046
  20798308.440    20798309.480   109295849.01149  85165599.38848
 18  3 26  6 58 30.0000000  0  6G02G09G07G05G06G30
  22313617.480    22313613.180   117258846.19549  91370513.04747
  21844851.480    21844852.720   114795465.56849  89451017.78648
  20744817.340    20744815.860   109014751.87549  84946552.00048
  21269944.340    21269942.860   111774310.89949  87096860.69748
  23727309.360    23727311.840   124687848.82147  97159369.75546
  20788949.840    20788950.860   109246669.26849  85127277.52248
 18  3 26  6 59  0.0000000  0  7G13G02G09G07G05G06G30
  24039740.080    24039735.140   126329683.85145  98438700.42943
  22323631.520    22323627.100   117311470.02548  91411518.63847
  21859199.040    21859200.340   114870862.29449  89509768.46547
  20746174.760    20746173.140   109021885.32649  84952110.53048
  21258136.940    21258135.520   111712262.69849  87048511.45448
  23747934.980    23747937.440   124796237.19648  97243828.20846
  20779686.680    20779687.660   109197990.72449  85089346.21048
 18  3 26  6 59 30.0000000  0  7G13G02G09G07G05G06G30
  24021491.820    24021489.020   126233791.14645  98363970.93841
  22333732.220    22333728.040   117364550.38548  91452879.91647
  21873585.920    21873587.180   114946465.98049  89568680.42648
  20747630.780    20747628.900   109029536.37949  84958072.39848
  21246404.220    21246402.740   111650606.53949  87000467.68548
  23768583.120    23768585.280   124904743.56848  97328378.56046
  20770520.300    20770521.300   109149820.99849  85051811.35848
 18  3 26  7  0  0.0000000  0  7G13G02G09G07G05G06G30
  24003264.380    24003260.680   126138006.43545  98289333.53742
  22343917.680    22343913.680   117418076.40748  91494588.51347
  21888010.520    21888011.400   115022266.75849  89627745.94148
  20749183.620    20749181.480   109037695.61549  84964430.24748
  21234744.840    21234743.260   111589335.70349  86952724.18348
  23789251.500    23789253.500   125013356.07848  97413011.66146
  20761449.200    20761450.300   109102152.25949  85014666.91148
 18  3 26  7  0 30.0000000  0  7G13G02G09G07G05G06G30
  23985059.700    23985057.060   126042340.68545  98214788.74444
  22354189.700    22354185.880   117472056.82048  91536651.16047
  21902474.340    21902475.060   115098274.31249  89686972.60248
  20750835.000    20750832.760   109046372.78749  84971191.68448
  21223161.160    21223159.420   111528462.94049  86905290.84748
  23809941.560    23809943.680   125122082.55748  97497733.54746
  20752475.660    20752476.800   109054996.28549  84977922.00048
 18  3 26  7  1  0.0000000  0  7G13G02G09G07G05G06G30
  23966877.160    23966878.040   125946791.54444  98140335.01144
  22364547.180    22364543.600   117526486.17948  91579063.60247
  21916976.380    21916977.340   115174484.20549  89746356.90448
  20752584.060    20752581.780   109055563.89449  84978353.58548
  21211652.960    21211651.240   111467986.64749  86858166.46948
  23830652.040    23830654.320   125230916.66548  97582539.28646
  20743599.200    20743600.380   109008350.66449  84941574.77748
 18  3 26  7  1 30.0000000  0  7G13G02G09G07G05G06G30
  23948716.880    23948706.780   125851360.52044  98065923.11743
  22374990.000    22374986.640   117581363.20348  91621824.88348
  21931517.040    21931518.280   115250896.26749  89805898.71748
  20754430.840    20754428.640   109065268.94649  84985915.95548
  21200220.640    21200218.920   111407909.26949  86811352.91548
  23851382.480    23851384.960   125339856.30348  97667427.24446
  20734820.280    20734821.520   108962217.30149  84905626.69948
 18  3 26  7  2  0.0000000  0  7G13G02G09G07G05G06G30
  23930578.440    23930577.180   125756042.89244  97991712.62153
  22385516.460    22385513.240   117636680.03148  91664928.89747
  21946094.920    21946096.480   115327503.43949  89865592.60548
  20756374.160    20756372.040   109075481.31949  84993873.65148
  21188863.640    21188861.800   111348227.32649  86764847.49548
  23872131.200    23872133.780   125448892.43847  97752390.43746
  20726137.900    20726139.160   108916591.06549  84870073.80048
 18  3 26  7  2 30.0000000  0  6G02G09G07G05G06G30
  22396127.880    22396124.780   117692444.02748  91708381.35147
  21960711.660    21960713.380   115404314.60849  89925445.47648
  20758415.720    20758413.760   109086210.13649  85002233.77848
  21177584.000    21177582.300   111288952.80749  86718659.57048
  23892899.640    23892902.140   125558032.09148  97837434.28646
  20717554.100    20717555.420   108871482.86349  84834924.57048
 18  3 26  7  3  0.0000000  0  6G02G09G07G05G06G30
  22406821.060    22406818.200   117748637.91848  91752168.78047
  21975364.120    21975365.720   115481313.71549  89985444.75647
  20760552.460    20760550.860   109097439.45649  85010983.88748
  21166379.340    21166377.780   111230072.43649  86672778.76448
  23913684.540    23913687.080   125667257.31848  97922544.80346
  20709066.140    20709067.420   108826878.56349  84800167.98748
 18  3 26  7  3 30.0000000  0  6G02G09G07G05G06G30
  22417598.000    22417595.220   117805270.92348  91796298.36847
  21990054.260    21990055.680   115558510.73049  90045598.24648
  20762786.280    20762785.000   109109179.41649  85020131.90348
  21155252.140    21155250.740   111171599.24149  86627215.23748
  23934487.360    23934489.700   125776576.12948  98007728.24745
  20700676.360    20700677.500   108782790.14849  84765813.37948
 18  3 26  7  4  0.0000000  0  7G13G02G09G07G05G06G30
  23858251.200                   125375956.229 4
  22428457.660    22428454.840   117862338.28148  91840766.41447
  22004781.480    22004782.760   115635901.86149  90105903.00048
  20765116.620    20765115.580   109121426.38649  85029674.99548
  21144202.140    21144200.780   111113531.74149  86581967.83248
  23955306.920    23955309.140   125885982.88248  98092980.19146
  20692384.380    20692385.440   108739215.67549  84731859.25548
 18  3 26  7  4 30.0000000  0  7G13G02G09G07G05G06G30
  23840225.220    23840231.480   125281233.89545  97621718.90243
  22439399.960    22439396.940   117919839.81748  91885572.81047
  22019545.880    22019547.180   115713488.57449  90166360.17348
  20767543.820    20767542.820   109134181.88149  85039614.35248
  21133230.340    21133228.940   111055874.85549  86537040.38548
  23976142.960    23976145.400   125995477.00647  98178300.26345
  20684190.860    20684191.940   108696158.51649  84698308.22449
 18  3 26  7  5  0.0000000  0  7G13G02G09G07G05G06G30
  23822223.420    23822226.980   125186633.44245  97548004.31141
  22450424.220    22450420.920   117977771.91948  91930714.66547
  22034346.960    22034348.200   115791268.43549  90226967.86947
  20770067.400    20770066.460   109147443.51249  85049948.09948
  21122336.840    21122335.460   110998629.27349  86492433.43848
  23996994.740    23996997.520   126105054.19147  98263685.06945
  20676095.720    20676096.820   108653618.10549  84665159.85849
 18  3 26  7  5 30.0000000  0  7G13G02G09G07G05G06G30
  23804244.780                   125092155.083 5
  22461529.820    22461526.600   118036132.34348  91976190.29947
  22049184.480    22049185.540   115869240.11349  90287725.00547
  20772687.180    20772686.340   109161210.71549  85060675.79148
  21111521.900    21111520.520   110941796.21449  86448147.92948
  24017861.900    24017864.760   126214711.26647  98349132.09345
  20668099.020    20668100.200   108611594.99549  84632414.58549
 18  3 26  7  6  0.0000000  0  7G13G02G09G07G05G06G30
  23786290.020    23786286.880   124997802.56944  97400858.38546
  22472717.140    22472713.980   118094921.88948  92022000.29847
  22064058.740    22064059.760   115947405.69249  90348633.22348
  20775403.520    20775402.800   109175485.10449  85071798.68248
  21100786.520    21100785.160   110885381.28349  86404188.24148
  24038744.300    24038747.040   126324448.37847  98434641.44444
  20660201.520    20660202.760   108570093.11549  84600075.47749
 18  3 26  7  6 30.0000000  0  7G13G02G09G07G05G06G30
  23768358.540    23768358.740   124903571.87645  97327442.86744
  22483984.920    22483981.360   118154133.30848  92068139.05447
  22078968.800    22078969.880   116025759.22749  90409687.88148
  20778215.360    20778214.480   109190260.82749  85083312.23448
  21090129.980    21090128.660   110829380.87949  86360551.56448
  24059640.400    24059642.840   126434257.63846  98520207.04944
  20652402.380    20652403.600   108529108.28749  84568139.25849
 18  3 26  7  7  0.0000000  0  7G13G02G09G07G05G06G30
  23750450.060    23750449.940   124809462.39445  97254110.76242
  22495332.140    22495328.280   118213762.57948  92114603.41547
  22093914.180    22093915.600   116104298.02649  90470886.92648
  20781122.120    20781121.080   109205535.28149  85095214.40048
  21079552.420    21079551.160   110773795.24549  86317238.07948
  24080549.080    24080552.040   126544139.45846  98605834.26045
  20644701.460    20644702.640   108488639.65649  84536605.26149
 18  3 26  7  7 30.0000000  0  7G13G02G09G07G05G06G30
  23732565.860    23732565.220   124715480.90946  97180878.49141
  22506759.540    22506755.580   118273813.79848  92161396.54447
  22108895.880    22108897.780   116183027.56749  90532234.61948
  20784124.740    20784123.540   109221313.94349  85107509.46948
  21069055.420    21069054.120   110718632.74949  86274254.32448
  24101471.260    24101474.720   126654085.30246  98691509.90744
  20637100.100    20637101.260   108448694.43149  84505479.12849
 18  3 26  7  8  0.0000000  0  7G13G02G09G07G05G06G30
  23714706.940    23714706.320   124621632.58145  97107749.88541
  22518267.800    22518263.780   118334289.51948  92208520.47647
  22123914.480    22123916.760   116261951.33949  90593733.62548
  20787223.920    20787222.760   109237600.37049  85120200.17748
  21058640.280    21058638.880   110663900.60949  86231605.90348
  24122407.720    24122410.720   126764105.87546  98777240.16244
  20629599.360    20629600.580   108409277.84249  84474764.91149
 18  3 26  7  8 30.0000000  0  7G13G02G09G07G05G06G30
  23696871.960    23696871.680   124527911.71245  97034720.72644
  22529855.040    22529851.000   118395180.68748  92255968.11347
  22138968.600    22138970.960   116341061.63449  90655377.98448
  20790418.340    20790417.360   109254387.10549  85133280.75048
  21048305.980    21048304.500   110609593.23349  86189288.46748
  24143356.080    24143358.760   126874189.50646  98863019.57845
  20622198.140    20622199.400   108370383.99249  84444458.02649
 18  3 26  7  9  0.0000000  0  7G13G02G09G07G05G06G30
  23679060.260    23679059.860   124434311.29346  96961785.38343
  22541519.300    22541515.580   118456477.40948  92303731.76247
  22154056.740    22154058.840   116420349.71449  90717160.89348
  20793706.380    20793705.440   109271665.39349  85146744.33748
  21038051.400    21038049.820   110555704.74149  86147297.43548
  24164314.340    24164317.060   126984325.56746  98948839.78344
  20614894.980    20614896.200   108332005.79849  84414552.94049
 18  3 26  7  9 30.0000000  0  7G13G02G09G07G05G06G30
  23661272.320    23661271.400   124340834.23046  96888946.07741
  22553260.620    22553257.200   118518178.95148  92351810.86547
  22169179.060    22169180.740   116499816.67349  90779083.17647
  20797088.180    20797087.040   109289435.85849  85160591.45748
  21027877.260    21027875.540   110502238.68649  86105635.56348
  24185282.560    24185285.040   127094513.22746  99034700.21544
  20607690.400    20607691.600   108294145.98549  84385051.79848
 18  3 26  7 10  0.0000000  0  7G13G02G09G07G05G06G30
  23643510.200    23643509.140   124247493.36046  96816212.99543
  22565080.880    22565077.720   118580295.18648  92400213.12446
  22184337.140    22184338.880   116579473.60949  90841153.45547
  20800565.720    20800564.420   109307709.68749  85174830.79448
  21017786.160    21017784.440   110449209.48549  86064314.11048
  24206262.480    24206264.700   127204761.62545  99120607.98446
  20600587.020    20600588.040   108256817.41349  84355964.60648
 18  3 26  7 10 30.0000000  0  7G13G02G09G07G05G06G30
  23625772.620    23625771.640   124154281.91946  96743580.76944
  22576978.380    22576975.000   118642817.06848  92448931.45346
  22199529.920    22199531.580   116659312.46749  90903365.56947
  20804137.500    20804136.060   109326479.03149  85189456.26948
  21007777.240    21007775.560   110396612.29749  86023329.28248
  24227251.860    24227254.000   127315060.85445  99206555.41945
  20593583.480    20593584.560   108220013.65749  84327286.35849
 18  3 26  7 11  0.0000000  0  6G13G02G09G07G05G30
  23608059.400    23608058.300   124061198.34847  96671047.99444
  22588952.160    22588948.280   118705739.13948  92497961.63447
  22214756.900    22214758.220   116739329.53649  90965716.50747
  20807802.760    20807801.240   109345739.99549  85204464.81448
  20997850.360    20997848.780   110344446.35649  85982680.49348
  20586679.340    20586680.540   108183732.60549  84299015.41549
 18  3 26  7 11 30.0000000  0  6G13G02G09G07G05G30
  23590371.800    23590370.900   123968249.21546  96598620.10843
  22601002.620    22600998.820   118769064.47148  92547305.98947
  22230018.300    22230019.740   116819529.33948  91028209.82747
  20811562.300    20811560.840   109365496.82149  85219859.73348
  20988006.880    20988005.440   110292718.73049  85942373.25648
  20579875.880    20579877.100   108147980.39549  84271156.56849
 18  3 26  7 12  0.0000000  0  7G13G02G09G07G05G06G30
  23572710.020    23572709.120   123875435.36247  96526297.60843
  22613129.560    22613125.920   118832791.50048  92596963.39647
  22245314.280    22245316.000   116899911.56549  91090845.28947
  20815416.100    20815414.680   109385749.21049  85235640.81448
  20978247.260    20978245.920   110241431.65949  85902409.30548
  24290272.200    24290274.300   127646240.38145  99464611.34043
  20573173.360    20573174.560   108112758.28349  84243710.77549
 18  3 26  7 12 30.0000000  0  7G13G02G09G07G05G06G30
  23555072.640    23555071.640   123782748.95447  96454074.46044
  22625330.900    22625327.340   118896909.36348  92646925.33047
  22260643.520    22260645.140   116980466.69749  91153615.49547
  20819362.380    20819360.860   109406487.64849  85251800.63548
  20968570.140    20968568.800   110190578.13549  85862783.18248
  24311294.120    24311295.980   127756715.40545  99550696.45843
  20566570.220    20566571.320   108078058.30949  84216671.83648
 18  3 26  7 13  0.0000000  0  7G13G02G09G07G05G06G30
  23537461.860    23537460.620   123690202.65347  96381960.46343
  22637608.160    22637604.620   118961426.60548  92697198.49847
  22276007.620    22276009.120   117061204.97049  91216528.44147
  20823403.020    20823401.480   109427722.10149  85268346.95848
  20958978.160    20958976.620   110140171.92149  85823505.61748
  24332325.620    24332325.720   127867225.07245  99636804.60341
  20560068.580    20560069.780   108043892.29949  84190048.98849
 18  3 26  7 13 30.0000000  0  6G13G02G09G07G05G30
  23519876.060    23519874.500   123597788.08048  96309949.13444
  22649959.300    22649955.740   119026332.27348  92747774.29247
  22291404.540    22291406.140   117142116.54949  91279576.41047
  20827536.060    20827534.540   109449442.22949  85285271.72748
  20949469.980    20949468.260   110090206.08049  85784571.19348
  20553667.020    20553668.180   108010251.88249  84163835.67449
 18  3 26  7 14  0.0000000  0  6G13G02G09G07G05G30
  23502316.440    23502314.880   123505511.38947  96238045.20144
  22662384.860    22662381.480   119091629.34748  92798655.07847
  22306835.380    22306836.900   117223206.15049  91342763.04947
  20831762.480    20831761.100   109471652.96549  85302578.79048
  20940046.940    20940045.240   110040687.78849  85745985.50548
  20547366.680    20547367.800   107977143.24649  84138036.74549
 18  3 26  7 14 30.0000000  0  7G13G02G09G07G05G06G30
  23484782.080    23484780.880   123413368.60447  96166245.65844
  22674883.740    22674880.320   119157310.96349  92849835.55647
  22322299.120    22322300.320   117304468.22949  91406084.13947
  20836081.360    20836080.000   109494348.91149  85320263.94548
  20930708.540    20930706.800   109991614.11549  85707746.28548
  24395451.420    24395451.520   128198961.32044  99895288.78441
  20541166.840    20541167.880   107944562.45749  84112649.12749
 18  3 26  7 15  0.0000000  0  6G13G02G09G07G05G30
  23467274.840    23467273.900   123321368.21747  96094557.07044
  22687456.580    22687453.040   119223381.20848  92901318.84747
  22337796.900    22337798.000   117385908.79849  91469544.31947
  20840493.580    20840492.280   109517535.28449  85338331.25148
  20921456.480    20921454.620   109942993.92349  85669860.40748
  20535068.780    20535069.740   107912516.85449  84087678.52949
 18  3 26  7 15 30.0000000  0  7G13G02G09G07G05G06G30
  23449791.480    23449790.540   123229492.29647  96022965.45145
  22700099.340    22700095.980   119289819.66048  92953089.04847
  22353324.940    22353326.240   117467508.76649  91533128.65847
  20844995.480    20844994.140   109541192.85249  85356765.70148
  20912287.480    20912285.600   109894810.32949  85632314.74948
  24437560.560    24437564.220   128420243.33645 100067769.67843
  20529069.180    20529070.160   107880988.80949  84063111.23448
 18  3 26  7 16  0.0000000  0  7G13G02G09G07G05G06G30
  23432339.600    23432338.780   123137782.27647  95951503.14744
  22712819.320    22712816.280   119356665.03048  93005176.29947
  22368890.860    22368892.220   117549308.20449  91596868.44947
  20849594.760    20849593.260   109565361.73549  85375598.59948
  20903209.940    20903208.000   109847107.41449  85595143.64648
  24458624.480                   128530935.487 4
  20523175.980    20523176.920   107850019.85549  84038979.58548
 18  3 26  7 16 30.0000000  0  6G13G02G09G07G05G30
  23414911.000    23414910.140   123046194.03947  95880135.68045
  22725607.940    22725604.820   119423869.35348  93057543.30047
  22384485.980    22384487.260   117631260.74249  91660727.55647
  20854282.500    20854280.860   109589995.10549  85394793.41248
  20894215.460    20894213.480   109799840.65549  85558312.40448
  20517380.640    20517381.520   107819564.96949  84015248.51049
 18  3 26  7 17  0.0000000  0  6G13G02G09G07G05G30
  23397509.460    23397508.540   122954748.87547  95808879.73145
  22738468.360    22738465.100   119491450.75748  93110204.09747
  22400114.000    22400115.220   117713385.89849  91724721.16147
  20859062.180    20859060.580   109615111.93149  85414364.96248
  20885308.200    20885306.280   109753032.37849  85521838.41248
  20511687.040    20511687.960   107789645.02549  83991934.27849
 18  3 26  7 17 30.0000000  0  6G13G02G09G07G05G30
  23380134.340    23380133.320   122863442.15648  95737731.63645
  22751399.080    22751395.600   119559401.24048  93163152.52147
  22415773.700    22415774.720   117795677.56449  91788844.52347
  20863932.680    20863931.060   109640706.09549  85434308.48748
  20876487.420    20876485.680   109706679.09249  85485718.97048
  20506094.260    20506095.300   107760255.27849  83969033.18649
 18  3 26  7 18  0.0000000  0  7G13G02G09G07G05G06G30
  23362786.480    23362785.380   122772277.79048  95666694.45345
  22764399.960    22764396.460   119627721.52048  93216389.05446
  22431465.560    22431466.080   117878137.74249  91853099.17247
  20868894.380    20868892.740   109666779.27449  85454625.24648
  20867754.080    20867752.540   109660785.71949  85449957.90048
  24542894.260                   128973788.049 4
  20500603.020    20500604.240   107731399.12149  83946547.87449
 18  3 26  7 18 30.0000000  0  6G13G02G09G07G05G30
  23345466.200    23345465.260   122681259.04948  95595770.79445
  22777471.220    22777467.800   119696411.92248  93269914.03747
  22447189.640    22447190.120   117960768.42148  91917486.69647
  20873947.560    20873945.940   109693333.32549  85475316.71348
  20859109.220    20859107.700   109615356.91849  85414558.82648
  20495214.000    20495215.420   107703079.76149  83924480.85049
 18  3 26  7 19  0.0000000  0  6G13G02G09G07G05G30
  23328173.740    23328172.720   122590386.48848  95524960.97144
  22790612.340    22790608.940   119765468.71448  93323724.48747
  22462945.660    22462946.660   118043567.80348  91982005.67047
  20879091.820    20879090.120   109720365.85949  85496381.01848
  20850552.900    20850551.380   109570393.45249  85379522.35948
  20489927.140    20489928.540   107675296.74649  83902831.75649
 18  3 26  7 19 30.0000000  0  6G13G02G09G07G05G30
  23310908.780    23310907.700   122499658.73147  95454264.02644
  22803822.420    22803818.980   119834887.67748  93377817.13447
  22478733.460    22478734.640   118126533.14449  92046653.94947
  20884326.480    20884324.680   109747873.79949  85517815.76948
  20842085.220    20842083.760   109525895.58049  85344848.69548
  20484742.020    20484743.280   107648048.53349  83881599.39249
 18  3 26  7 20  0.0000000  0  6G13G02G09G07G05G30
  23293671.320    23293669.900   122409075.58548  95383679.75644
  22817100.540    22817097.120   119904665.42848  93432189.35046
  22494552.460    22494553.520   118209662.63248  92111430.12247
  20889651.040    20889649.320   109775854.86649  85539619.20648
  20833706.240    20833704.820   109481863.81149  85310538.22048
  20479658.540    20479659.700   107621334.61149  83860783.34949
 18  3 26  7 20 30.0000000  0  7G13G28G02G09G07G05G30
  23276461.240    23276459.860   122318636.04448  95313207.37645
  24302392.020    24302390.820   127709926.86846  99514235.77744
  22830446.140    22830442.560   119974797.48248  93486837.68346
  22510402.040    22510403.200   118292953.32349  92176331.93947
  20895064.920    20895063.360   109804305.87049  85561788.80748
  20825415.880    20825414.580   109438297.82349  85276590.70648
  20474676.440    20474677.500   107595153.27849  83840382.31649
 18  3 26  7 21  0.0000000  0  7G13G28G02G09G07G05G30
  23259278.580    23259277.500   122228340.72248  95242847.41145
  24283967.000    24283965.740   127613103.65746  99438789.11544
  22843858.780    22843855.060   120045281.19948  93541760.08946
  22526282.380    22526283.620   118376404.48749  92241358.77947
  20900568.000    20900566.740   109833225.81249  85584323.83348
  20817214.540    20817213.240   109395199.38549  85243007.51048
  20469795.760    20469796.660   107569504.89549  83820396.57549
 18  3 26  7 21 30.0000000  0  7G13G28G02G09G07G05G30
  23242124.120    23242123.220   122138193.52348  95172602.84745
  24265553.620    24265552.940   127516342.20546  99363390.65344
  22857338.420    22857334.740   120116116.69948  93596956.59146
  22542193.560    22542194.900   118460018.09749  92306512.23347
  20906160.640    20906159.660   109862616.37649  85607225.55748
  20809103.120    20809101.660   109352573.40749  85209792.45048
  20465017.000    20465017.980   107544392.74949  83800828.66949
 18  3 26  7 22  0.0000000  0  7G13G28G02G09G07G05G30
  23224998.560    23224997.680   122048197.83848  95102476.34345
  24247153.120    24247152.840   127419648.50746  99288044.92444
  22870885.080    22870881.660   120187305.10947  93652427.99147
  22558135.940    22558137.320   118543796.31449  92371793.92847
  20911843.180    20911842.260   109892478.85649  85630495.02048
  20801082.400    20801080.860   109310424.23349  85176948.92848
  20460340.820    20460341.960   107519820.01449  83781681.10049
 18  3 26  7 22 30.0000000  0  7G13G28G02G09G07G05G30
  23207901.580    23207900.620   121958352.49748  95032467.03345
  24228765.600    24228765.580   127323022.83247  99212752.30844
  22884497.860    22884494.640   120258840.83548  93708170.06047
  22574109.160    22574110.280   118627735.61549  92437201.12347
  20917614.980    20917613.920   109922809.50049  85654129.27948
  20793152.300    20793150.800   109268751.38449  85144476.57648
  20455766.880    20455768.260   107495784.38049  83762952.05149
 18  3 26  7 23  0.0000000  0  7G13G28G02G09G07G05G30
  23190832.840    23190831.740   121868655.19548  94962573.02045
  24210391.160    24210391.520   127226465.21347  99137512.64944
  22898175.840    22898172.620   120330718.48548  93764178.58646
  22590112.260    22590113.380   118711832.37648  92502731.06847
  20923475.040    20923473.980   109953604.37849  85678125.27848
  20785312.560    20785311.180   109227553.47049  85112374.29848
  20451294.760    20451296.280   107472283.42349  83744639.61949
 18  3 26  7 23 30.0000000  0  7G13G28G02G09G07G05G30
  23173792.680    23173791.600   121779109.23848  94892796.96246
  24192030.880    24192031.360   127129981.19647  99062330.39144
  22911918.880    22911915.400   120402937.97048  93820453.52946
  22606145.780    22606146.860   118796088.40749  92568385.08147
  20929423.640    20929422.620   109984864.73449  85702483.98748
  20777564.020    20777562.880   109186834.89049  85080645.54448
  20446924.940    20446926.460   107449319.87449  83726745.94549
 18  3 26  7 24  0.0000000  0  7G13G28G02G09G07G05G30
  23156781.580    23156780.520   121689715.56948  94823139.57046
  24173685.080    24173685.600   127033573.47147  98987207.55245
  22925726.340    22925722.780   120475496.55748  93876992.66146
  22622209.280    22622210.220   118880502.35948  92634162.13147
  20935460.480    20935459.260   110016588.36949  85727203.70548
  20769906.960    20769905.880   109146597.08449  85049291.39448
  20442657.460    20442658.780   107426893.56649  83709270.91249
 18  3 26  7 24 30.0000000  0  7G13G28G02G09G07G05G30
  23139800.180    23139799.220   121600477.57648  94753603.45346
  24155354.800    24155355.120   126937247.55447  98912148.43745
  22939598.220    22939594.780   120548394.12848  93933795.92947
  22638302.980    22638304.400   118965076.03349  92700063.69947
  20941585.760    20941584.380   110048776.73649  85752285.56348
  20762342.160    20762341.080   109106843.93349  85018314.91548
  20438492.740    20438493.900   107405007.37649  83692216.75249
 18  3 26  7 25  0.0000000  0  7G13G28G02G09G07G05G30
  23122847.800    23122846.980   121511392.65448  94684186.65346
  24137040.000    24137040.300   126841003.20947  98837152.89645
  22953533.720    22953530.320   120621625.16248  93990859.05047
  22654426.500    22654428.440   119049805.63149  92766086.71447
  20947798.700    20947797.220   110081425.84349  85777726.41548
  20754869.440    20754868.500   109067574.64849  84987715.47048
  20434430.260    20434431.440   107383658.47149  83675581.23449
 18  3 26  7 25 30.0000000  0  7G13G28G02G09G07G05G30
  23105924.360    23105923.680   121422460.08948  94614888.56046
  24118741.060    24118741.300   126744841.57547  98762221.74945
  22967531.860    22967528.420   120695185.04348  94048178.38547
  22670579.000    22670580.880   119134688.31948  92832229.03847
  20954098.600    20954097.180   110114532.23849  85803523.60248
  20747488.800    20747487.680   109028788.78949  84957492.72148
  20430469.660    20430470.820   107362845.04749  83659362.98749
 18  3 26  7 26  0.0000000  0  7G13G28G02G09G07G05G30
  23089030.480    23089029.660   121333682.28748  94545711.05046
  24100458.800    24100458.880   126648767.33747  98687358.77045
  22981592.320    22981588.720   120769072.98948  94105753.38447
  22686760.760    22686762.440   119219725.19848  92898491.51847
  20960485.660    20960484.220   110148096.51749  85829677.57248
  20740200.800    20740199.500   108990489.75749  84927649.31648
  20426611.320    20426612.500   107342569.19949  83643563.62949
 18  3 26  7 26 30.0000000  0  7G13G28G02G09G07G05G30
  23072165.600    23072164.580   121245056.39248  94476651.92446
  24082193.000    24082192.960   126552779.81147  98612563.35645
  22995713.980    22995710.240   120843282.82648  94163579.20746
  22702971.340    22702973.100   119304911.66249  92964870.52547
  20966958.900    20966957.400   110182113.61049  85856184.40448
  20733005.000    20733003.540   108952675.50549  84898183.66648
  20422854.540    20422855.680   107322827.23749  83628180.29049
 18  3 26  7 27  0.0000000  0  7G13G28G02G09G07G05G30
  23055330.900    23055329.820   121156588.88448  94407716.24246
  24063945.260    24063945.120   126456887.08747  98537841.76645
  23009897.400    23009893.640   120917817.08848  94221657.86745
  22719211.320    22719213.280   119390252.22949  93031369.62247
  20973519.140    20973517.560   110216587.41549  85883047.11548
  20725902.940    20725901.260   108915353.22649  84869101.35548
  20419200.460    20419201.560   107303624.70749  83613217.28649
 18  3 26  7 27 30.0000000  0  7G13G28G02G09G07G05G30
  23038526.120    23038525.080   121068278.99148  94338903.35346
  24045716.020    24045715.780   126361090.96047  98463195.47545
  23024141.920    23024138.140   120992671.84748  94279986.21246
  22735480.140    22735481.700   119475744.64149  93097987.07347
  20980165.720    20980164.060   110251514.74549  85910263.21948
  20718894.440    20718892.700   108878522.72749  84840402.26048
  20415648.700    20415649.860   107284960.27649  83598673.58249
 18  3 26  7 28  0.0000000  0  7G13G28G02G09G07G05G30
  23021751.320    23021750.480   120980127.40548  94270213.84246
  24027505.680    24027505.340   126265394.11248  98388626.54745
  23038446.660    23038442.980   121067844.03448  94338561.89147
  22751777.640    22751779.000   119561387.99049  93164722.10147
  20986898.280    20986896.620   110286894.20949  85937831.62148
  20711979.780    20711978.040   108842185.40749  84812087.46048
  20412199.320    20412200.460   107266833.82549  83584549.07349
 18  3 26  7 28 30.0000000  0  7G13G28G02G09G07G05G30
  23005007.160    23005006.460   120892136.58748  94201649.58046
  24009315.060    24009314.520   126169801.07947  98314138.53644
  23052811.480    23052808.100   121143332.65348  94397384.16447
  22768103.920    22768105.560   119647182.88948  93231575.25147
  20993716.920    20993715.180   110322726.02349  85965752.51348
  20705159.500    20705157.920   108806344.86249  84784159.77048
  20408852.680    20408853.760   107249247.00349  83570845.05349
 18  3 26  7 29  0.0000000  0  7G13G28G02G09G07G05G30
  22988293.480    22988292.500   120804304.79648  94133209.22045
  23991144.220    23991143.600   126074312.54647  98239731.97344
  23067235.760    23067232.540   121219132.91148  94456449.21246
  22784458.400    22784459.920   119733126.40948  93298544.18247
  21000620.880    21000619.040   110359006.68549  85994023.15548
  20698433.660    20698432.120   108771000.49249  84756618.69248
  20405608.340    20405609.500   107232197.63749  83557559.84749
 18  3 26  7 29 30.0000000  0  7G13G28G02G09G07G05G30
  22971610.360    22971609.100   120716633.54448  94064893.98045
  23972993.740    23972992.980   125978931.46147  98165409.06244
  23081719.040    23081715.720   121295242.22048  94515755.14346
  22800840.940    22800841.980   119819217.79248  93365628.33847
  21007609.920    21007607.980   110395734.53549  86022642.26348
  20691802.440    20691800.980   108736153.76349  84729465.40148
  20402466.280    20402467.380   107215685.85849  83544693.52049
 18  3 26  7 30  0.0000000  0  7G13G28G02G09G07G05G30
  22954957.800    22954956.540   120629123.97448  93996704.72345
  23954864.340    23954863.500   125883661.47046  98091172.75144
  23096260.580    23096257.080   121371658.23948  94575300.10046
  22817251.700    22817252.600   119905456.72149  93432827.44647
  21014683.900    21014682.000   110432908.98249  86051609.35748
  20685266.380    20685264.960   108701806.77049  84702701.49848
  20399426.560    20399427.580   107199712.12449  83532246.46349
 18  3 26  7 30 30.0000000  0  7G13G28G02G09G07G05G30
  22938336.040    22938334.980   120541777.04748  93928642.13945
  23936756.400    23936755.860   125788505.52446  98017025.29745
  23110859.940    23110856.360   121448378.32048  94635081.94246
  22833690.440    22833691.420   119991842.31048  93500140.86147
  21021842.580    21021840.860   110470528.47249  86080923.24148
  20678825.700    20678824.380   108667961.04949  84676328.20948
  20396489.180    20396490.180   107184276.42949  83520218.65749
 18  3 26  7 31  0.0000000  0  7G13G28G02G09G07G05G30
  22921745.340    22921744.420   120454592.98548  93860706.50446
  23918670.760    23918670.040   125693466.43746  97942968.89244
  23125516.860    23125512.980   121525399.83848  94695098.70146
  22850156.780    22850157.640   120078373.72149  93567567.91447
  21029085.680    21029084.240   110508591.57249  86110582.79348
  20672480.660    20672479.340   108634617.77349  84650346.43148
  20393654.100    20393655.100   107169378.69849  83508610.02949
 18  3 26  7 31 30.0000000  0  7G13G28G02G09G07G05G30
  22905185.340    22905184.460   120367569.34548  93792895.89046
  23900607.260    23900606.420   125598543.18646  97869002.79445
  23140229.720    23140225.940   121602716.21148  94755345.17047
  22866650.160    22866650.980   120165046.26949  93635104.93247
  21036412.160    21036411.060   110547092.52149  86140583.51448
  20666230.920    20666229.480   108601774.94749  84624754.61748
  20390920.700    20390921.760   107155014.98449  83497417.53049
 18  3 26  7 32  0.0000000  0  7G13G28G02G09G07G05G30
  22888657.680    22888656.860   120280716.20848  93725218.16046
  23882568.300    23882567.640   125503748.34247  97795136.70945
  23154999.780    23154996.260   121680333.86248  94815826.41246
  22883171.900    22883173.040   120251868.61248  93702758.68947
  21043823.500    21043822.600   110586039.30549  86170931.65948
  20660078.440    20660076.900   108569443.20949  84599561.04748
  20388290.840    20388291.880   107141194.62149  83486648.41749
 18  3 26  7 32 30.0000000  0  7G13G28G02G09G07G05G30
  22872161.100    22872160.240   120194026.40748  93657667.69045
  23864552.900    23864552.400   125409076.64247  97721366.57144
  23169825.280    23169821.900   121758242.20248  94876534.14747
  22899720.320    22899721.380   120338831.71648  93770522.09646
  21051317.820    21051316.980   110625422.32549  86201619.71648
  20654021.920    20654020.400   108537616.16949  84574760.75648
  20385762.800    20385763.920   107127909.39049  83476296.29149
 18  3 26  7 33  0.0000000  0  7G13G28G02G09G07G05G30
  22855695.800    22855694.800   120107500.93248  93590245.26444
  23846561.660    23846561.140   125314531.41548  97647695.00144
  23184705.560    23184702.340   121836438.90548  94937466.62547
  22916295.740    22916296.660   120425935.39848  93838395.02347
  21058895.060    21058894.040   110665240.81149  86232647.09648
  20648061.800    20648060.280   108506295.56349  84550355.08548
  20383336.600    20383337.860   107115159.73649  83466361.49949
 18  3 26  7 33 30.0000000  0  7G13G28G02G09G07G05G30
  22839262.700    22839261.540   120021144.45648  93522954.51445
  23828595.840    23828595.360   125220119.49348  97574127.31045
  23199640.900    23199637.720   121914924.97848  94998624.57946
  22932898.340    22932899.700   120513182.32448  93906379.61047
  21066555.640    21066554.380   110705496.85249  86264015.45248
  20642199.100    20642197.580   108475486.97249  84526348.37448
  20381013.000    20381014.220   107102949.07249  83456846.70549
 18  3 26  7 34  0.0000000  0  7G13G28G02G09G07G05G30
  22822861.680    22822860.300   119934955.93948  93455794.64545
  23810655.520    23810655.200   125125841.84748  97500664.23345
  23214630.520    23214627.320   121993695.53748  95060004.22546
  22949527.580    22949529.240   120600569.85449  93974473.78347
  21074298.760    21074297.360   110746186.95549  86295722.01948
  20636433.680    20636432.260   108445189.42549  84502739.89848
  20378791.640    20378792.740   107091275.39249  83447750.33549
 18  3 26  7 34 30.0000000  0  7G13G28G02G09G07G05G30
  22806492.460    22806490.980   119848934.34848  93388764.82645
  23792740.820    23792740.660   125031699.13747  97427306.35445
  23229673.460    23229670.280   122072745.90348  95121601.87847
  22966183.280    22966184.520   120688095.25749  94042675.32247
  21082123.760    21082122.280   110787307.46349  86327763.96648
  20630765.440    20630764.080   108415402.53949  84479529.33948
  20376671.980    20376673.060   107080136.56949  83439070.73249
 18  3 26  7 35  0.0000000  0  7G13G28G02G09G07G05G30
  22790155.860    22790154.360   119763084.68348  93321869.01246
  23774853.100    23774853.100   124937698.87047  97354059.42546
  23244769.680    23244766.760   122152077.78948  95183418.89647
  22982865.780    22982866.900   120775762.07148  94110987.07047
  21090031.220    21090029.700   110828861.15149  86360143.45548
  20625195.460    20625194.140   108386132.09449  84456721.19848
  20374654.840    20374655.980   107069536.75049  83430811.14149
 18  3 26  7 35 30.0000000  0  7G13G28G02G09G07G05G30
  22773851.700    22773850.180   119677405.76848  93255106.23545
  23756992.660    23756992.760   124843841.84047  97280924.15945
  23259918.660    23259915.840   122231686.12548  95245451.31446
  22999574.400    22999575.920   120863567.07948  94179406.54747
  21098020.420    21098018.840   110870844.29949  86392857.59748
  20619723.600    20619722.300   108357377.30949  84434314.86748
  20372739.720    20372741.000   107059473.42849  83422969.59049
 18  3 26  7 36  0.0000000  0  7G13G28G02G09G07G05G30
  22757579.840    22757578.300   119591896.60648  93188475.71746
  23739159.720    23739159.820   124750129.23747  97207901.44145
  23275119.440    23275116.720   122311566.63748  95307695.84246
  23016309.020    23016310.600   120951508.08048  94247931.93447
  21106090.760    21106089.120   110913253.84149  86425903.99148
  20614349.840    20614348.400   108329138.01549  84412310.21248
  20370926.400    20370927.860   107049944.84549  83415544.72049
 18  3 26  7 36 30.0000000  0  7G13G28G02G09G07G05G30
  22741341.440    22741340.060   119506563.57148  93121982.46046
  23721355.660    23721355.680   124656569.48646  97134997.78145
  23290372.320    23290369.740   122391721.84848  95370154.41946
  23033070.460    23033071.880   121039589.59048  94316566.81647
  21114243.000    21114241.300   110956093.52649  86459285.55548
  20609075.420    20609074.000   108301420.55449  84390712.18648
  20369215.980    20369217.360   107040956.11349  83408540.52349
 18  3 26  7 37  0.0000000  0  7G13G28G02G09G07G05G30
  22725135.620    22725134.300   119421401.04248  93055622.04346
  23703579.940    23703579.980   124563158.93246  97062210.35045
  23305675.860    23305673.180   122472142.38548  95432819.75146
  23049857.180    23049858.760   121127804.27248  94385305.46447
  21122475.520    21122473.700   110999355.19649  86492995.95148
  20603899.300    20603898.040   108274219.99949  84369516.94048
  20367607.000    20367608.260   107032500.44049  83401951.68949
 18  3 26  7 37 30.0000000  0  7G13G28G02G09G07G05G30
  22708962.420    22708961.180   119336410.01648  92989395.28046
  23685833.380    23685833.320   124469900.63147  96989541.56944
  23321029.560    23321026.640   122552825.53047  95495689.70746
  23066669.080    23066670.560   121216151.43248  94454147.38846
  21130787.900    21130786.080   111043037.52349  86527034.11848
  20598821.940    20598820.760   108247538.10049  84348725.84448
  20366099.280    20366100.620   107024577.70449  83395778.12549
 18  3 26  7 38  0.0000000  0  7G13G28G02G09G07G05G30
  22692822.700    22692821.620   119251595.55448  92923306.11946
  23668117.240    23668117.060   124376801.84847  96916997.13244
  23336433.280    23336430.580   122633772.85747  95558765.52546
  23083507.020    23083507.980   121304634.65048  94523095.33446
  21139180.840    21139178.940   111087143.28849  86561402.24548
  20593844.320    20593843.160   108221380.27849  84328343.11648
  20364693.780    20364695.140   107017191.91549  83390022.95649
 18  3 26  7 38 30.0000000  0  7G13G28G02G09G07G05G30
  22676716.100    22676715.060   119166955.42548  92857352.79046
  23650431.480    23650431.140   124283862.64147  96844576.98344
  23351886.300    23351883.580   122714978.59947  95622042.68045
  23100370.160    23100370.740   121393249.99849  94592146.19546
  21147653.440    21147651.400   111131667.31549  86596096.29348
  20588966.040    20588964.840   108195744.84749  84308367.45048
  20363389.880    20363391.220   107010339.60649  83384683.50749
 18  3 26  7 39  0.0000000  0  7G13G28G02G09G07G05G30
  22660643.760    22660642.620   119082495.12648  92791539.56646
  23632777.500    23632777.100   124191090.41647  96772287.00744
  23367388.680    23367385.900   122796444.61047  95685522.67946
  23117259.080    23117260.000   121482001.33548  94661303.06147
  21156206.340    21156204.260   111176612.80849  86631118.75848
  20584188.320    20584187.060   108170637.66149  84288803.40248
  20362188.360    20362189.500   107004025.15549  83379763.16049
 18  3 26  7 39 30.0000000  0  7G13G28G02G09G07G05G30
  22644604.420    22644603.160   118998207.52348  92725860.92546
  23615154.440    23615153.940   124098480.20848  96700123.21945
  23382938.620    23382935.580   122878160.14447  95749197.02446
  23134172.240    23134173.460   121570880.06349  94730559.14247
  21164837.640    21164835.620   111221970.54849  86666462.43548
  20579509.780    20579508.620   108146052.05949  84269645.78848
  20361087.540    20361088.640   106998240.36249  83375255.53349
 18  3 26  7 40  0.0000000  0  7G13G28G02G09G07G05G30
  22628598.800    22628597.520   118914097.53048  92660320.69945
  23597563.600    23597562.860   124006039.05848  96628091.19344
  23398536.200    23398533.060   122960126.00147  95813066.50746
  23151110.400    23151111.200   121659889.29149  94799916.91346
  21173547.880    21173545.860   111267742.65949  86702129.02548
  20574931.560    20574930.380   108121993.48549  84250898.83248
  20360088.200    20360089.340   106992988.75649  83371163.37249
 18  3 26  7 40 30.0000000  0  7G13G28G02G09G07G05G30
  22612628.320    22612627.080   118830172.38848  92594924.50146
  23580006.600    23580005.740   123913776.04848  96556197.99044
  23414182.140    23414179.020   123042345.81347  95877133.80746
  23168074.100    23168074.820   121749034.39748  94869380.61347
  21182337.800    21182335.640   111313933.80649  86738122.13048
  20570455.060    20570453.860   108098469.26149  84232568.27448
  20359191.460    20359192.580   106988276.17749  83367491.23449
 18  3 26  7 41  0.0000000  0  7G13G28G02G09G07G05G30
  22596692.000    22596690.960   118746426.93248  92529668.31246
  23562482.780    23562481.900   123821688.01847  96484441.09545
  23429874.400    23429871.420   123124810.92846  95941392.29545
  23185062.220    23185063.400   121838308.75548  94938944.97846
  21191206.000    21191203.880   111360536.57449  86774435.97648
  20566079.280    20566078.080   108075474.32649  84214650.13548
  20358396.100    20358397.140   106984096.26949  83364234.15549
 18  3 26  7 41 30.0000000  0  7G13G28G02G09G07G05G30
  22580789.340    22580788.380   118662858.28348  92464549.89746
  23544992.120    23544991.400   123729774.32347  96412820.04945
  23445612.380    23445609.140   123207514.43747  96005836.53046
  23202074.280    23202075.840   121927707.80448  95008606.53146
  21200151.380    21200149.360   111407545.26349  86811066.10748
  20561803.820    20561802.640   108053006.43849  84197142.69048
  20357701.240    20357702.240   106980444.86849  83361388.90649
 18  3 26  7 42  0.0000000  0  7G13G28G02G09G07G05G30
  22564921.940    22564920.900   118579474.59748  92399575.60846
  23527536.680    23527536.160   123638045.47247  96341343.07345
  23461396.840    23461393.480   123290461.77947  96070470.81146
  23219111.100    23219113.180   122017238.48248  95078370.66646
  21209175.080    21209173.200   111454965.65749  86848017.05348
  20557630.500    20557629.280   108031074.98449  84180053.22248
  20357108.280    20357109.320   106977329.33349  83358961.22049
 18  3 26  7 42 30.0000000  0  7G13G28G02G09G07G05G30
  22549088.340    22549087.300   118496268.98748  92334740.10546
  23510115.420    23510114.840   123546496.17547  96270006.01044
  23477225.560    23477222.280   123373641.60248  96135286.22946
  23236171.480    23236173.600   122106891.76548  95148230.32046
  21218275.280    21218273.720   111502788.34349  86885281.46348
  20553557.820    20553556.520   108009672.40749  84163375.88548
  20356615.620    20356616.680   106974740.83949  83356944.22049
 18  3 26  7 43  0.0000000  0  7G13G28G02G09G07G05G30
  22533290.140    22533289.160   118413249.35148  92270049.48946
  23492730.080    23492729.660   123455136.86647  96198817.00544
  23493099.280    23493096.260   123457058.18548  96200286.15545
  23253256.340    23253258.660   122196673.99148  95218190.44746
  21227453.120    21227451.700   111551018.71949  86922863.55648
  20549587.380    20549585.940   107988807.33049  84147117.37848
  20356224.620    20356225.780   106972686.15549  83355343.17649
 18  3 26  7 43 30.0000000  0  7G13G28G02G09G07G05G30
  22517526.860    22517525.780   118330412.08648  92205500.96746
  23475380.280    23475380.200   123363965.42146  96127774.38946
  23509016.680    23509013.580   123540704.00948  96265464.70745
  23270364.620    23270367.520   122286579.81348  95288246.89146
  21236707.440    21236705.960   111599650.40549  86960758.38048
  20545718.400    20545716.960   107968475.96949  84131274.75048
  20355934.260    20355935.500   106971160.12749  83354154.06749
 18  3 26  7 44  0.0000000  0  7G13G28G02G09G07G05G30
  22501797.780    22501796.660   118247754.49848  92141092.46545
  23458066.320    23458066.600   123272981.54247  96056877.91745
  23524976.480    23524973.420   123624572.63648  96330816.90646
  23287495.980    23287498.960   122376605.07148  95358396.39945
  21246037.120    21246035.540   111648678.38349  86998961.99748
  20541950.500    20541949.200   107948676.13349  84115846.29948
  20355743.820    20355745.060   106970158.88249  83353373.87049
 18  3 26  7 44 30.0000000  0  7G13G28G02G09G07G05G30
  22486104.260    22486102.960   118165284.26748  92076829.93146
  23440790.240    23440790.740   123182194.83548  95986135.06145
  23540979.500    23540976.660   123708668.10948  96396345.79946
  23304651.360    23304653.700   122466755.69648  95428643.58446
  21255443.080    21255441.340   111698107.57249  87037478.25147
  20538285.220    20538284.000   107929415.75249  84100838.20648
  20355654.380    20355655.520   106969688.59849  83353007.42049
 18  3 26  7 45  0.0000000  0  7G13G28G02G09G07G05G30
  22470447.140    22470445.880   118083005.81448  92012716.88046
  23423553.200    23423553.720   123091612.47248  95915551.43445
  23557025.900    23557023.040   123792991.85647  96462052.59546
  23321830.980    23321832.880   122557035.11348  95498991.17846
  21264925.920    21264924.220   111747940.60049  87076309.18048
  20534723.700    20534722.600   107910700.25949  84086254.70748
  20355666.680    20355667.720   106969753.00249  83353057.60649
 18  3 26  7 45 30.0000000  0  7G13G28G02G09G07G05G30
  22454824.260    22454822.880   118000906.44548  91948743.34546
  23406352.760    23406353.180   123001222.77548  95845117.94345
  23573112.460    23573109.500   123877526.73547  96527923.90846
  23339032.280    23339033.960   122647427.92248  95569427.10646
  21274482.620    21274481.140   111798161.25649  87115442.13848
  20531263.280    20531262.260   107892515.90249  84072085.07248
  20355777.800    20355778.720   106970336.82349  83353512.52749
 18  3 26  7 46  0.0000000  0  7G13G28G02G09G07G05G30
  22439237.920    22439236.520   117918999.66048  91884919.90146
  23389192.020    23389192.200   122911042.09948  95774847.30746
  23589241.120    23589237.960   123962282.80548  96593967.56346
  23356257.740    23356259.260   122737946.73848  95639961.18346
  21284115.240    21284113.900   111848780.94049  87154886.02848
  20527906.720    20527905.740   107874877.08949  84058340.52248
  20355990.140    20355991.140   106971452.85149  83354382.16349
 18  3 26  7 46 30.0000000  0  7G13G28G02G09G07G05G30
  22423688.400    22423686.820   117837286.33448  91821247.16346
  23372071.320    23372071.300   122821072.45248  95704741.15245
  23605411.260    23605407.840   124047256.80248  96660180.97946
  23373506.620    23373508.340   122828590.32748  95710592.52946
  21293823.400    21293822.140   111899797.48649  87194639.18248
  20524654.200    20524653.160   107857784.85849  84045021.89848
  20356303.560    20356304.760   106973100.18949  83355665.79749
 18  3 26  7 47  0.0000000  0  7G13G28G02G09G07G05G30
  22408174.860    22408173.240   117755762.42549  91757722.04346
  23354990.680    23354990.280   122731312.91848  95634798.68045
  23621621.400    23621617.840   124132441.50547  96726558.65746
  23390778.340    23390780.140   122919353.79748  95781317.21246
  21303605.880    21303604.640   111951205.07349  87234697.03947
  20521505.000    20521504.000   107841235.69849  84032126.44248
  20356717.160    20356718.460   106975273.85049  83357359.55349
 18  3 26  7 47 30.0000000  0  7G13G28G02G09G07G05G30
  22392696.920    22392695.420   117674425.52548  91694342.65546
  23337949.860    23337949.060   122641762.24748  95565018.96144
  23637870.300    23637866.880   124217830.27548  96793095.32846
  23408072.080    23408073.740   123010232.14448  95852131.45646
  21313461.780    21313460.560   112002998.12749  87275055.25748
  20518458.580    20518457.580   107825226.66049  84019651.86448
  20357230.080    20357231.300   106977969.26549  83359459.88349
