     2.11           OBSERVATION DATA    G (GPS)             RINEX VERSION / TYPE
teqc  2016Nov7      IGN-RGP             20180327 16:10:03UTCPGM / RUN BY / DATE
Linux 2.4.21-27.ELsmp|Opteron|gcc|Linux x86_64|=+           COMMENT
teqc  2016Nov7      Administrateur RGP  20180327 16:10:02UTCCOMMENT
teqc  2013Mar15     Observatoire de Pari20180327 00:52:40UTCCOMMENT
BIT 2 OF LLI FLAGS DATA COLLECTED UNDER A/S CONDITION       COMMENT
OPMT                                                        MARKER NAME
10001S006                                                   MARKER NUMBER
Automatic           OP                                      OBSERVER / AGENCY
02942               ASHTECH Z-XII3T     1L01-1D04           REC # / TYPE / VERS
00019               3S-02-TSADM     NONE                    ANT # / TYPE
  4202777.6220   171367.7610  4778659.9840                  APPROX POSITION XYZ
        0.0000        0.0000        0.0000                  ANTENNA: DELTA H/E/N
     1     1                                                WAVELENGTH FACT L1/2
     7    L1    L2    C1    P1    P2    S1    S2            # / TYPES OF OBSERV
    30.0000                                                 INTERVAL
 SNR is mapped to RINEX snr flag value [0-9]                COMMENT
  L1 & L2: min(max(int(snr_dBHz/6), 0), 9)                  COMMENT
pseudorange smoothing corrections not applied               COMMENT
Forced Modulo Decimation to 30 seconds                      COMMENT
teqc_2016 edited: GLONASS # 25 - 30 excluded                COMMENT
  2018     3    26     0     0    0.0000000     GPS         TIME OF FIRST OBS
                                                            END OF HEADER
 18  3 26  0  0  0.0000000  0 11G14G18G10G22G11G03G32G28G08G27G01
  -5796514.80644  -4496795.05746  22628450.679    22628449.6814   22628452.5574
        43.0004         40.2004
 -17042935.86246 -13262670.83747  19881505.056    19881505.5604   19881507.8854
        48.8004         45.9004
  -2861429.00043  -2199792.85346  23731639.155    23731638.8374   23731643.0164
        39.9004         37.4004
 -14840159.11246 -11539525.78147  21335823.871    21335822.7214   21335823.6014
        47.2004         44.2004
 -12213559.59546  -9504162.39547  20286487.408    20286487.0034   20286488.1514
        48.6004         45.8004
  -7861764.97945  -6101311.10846  22640614.147    22640613.0704   22640619.5594
        43.6004         40.9004
 -10855200.28145  -8441921.40447  22477838.857    22477839.4174   22477843.7324
        45.1004         42.3004
  -7161227.19542  -5569604.68345  23046910.897    23046910.8274   23046910.0224
        36.4004         34.3004
 -13674244.18747 -10634870.70647  21017863.302    21017863.3044   21017869.0944
        49.6004         46.6004
    892155.53943    706962.91146  23686414.887    23686408.4684   23686413.6044
        38.7004         36.4004
 -16099723.53946 -12527708.77547  20776056.278    20776056.3024   20776061.2914
        49.5004         46.5004
 18  3 26  0  0 30.0000000  0 11G14G18G10G22G11G03G32G28G08G27G01
  -5849062.37644  -4537741.19746  22618451.097    22618449.9234   22618453.7374
        43.0004         40.4004
 -17046104.94546 -13265140.24947  19880901.973    19880902.4844   19880904.8754
        48.8004         45.9004
  -2762249.68843  -2122510.30346  23750513.192    23750513.3224   23750517.9874
        39.9004         37.4004
 -14900554.68646 -11586587.25147  21324331.035    21324330.1964   21324330.5174
        47.0004         44.0004
 -12251775.70846  -9533941.19147  20279215.008    20279214.5924   20279215.8444
        48.6004         45.8004
  -7957829.66245  -6176166.69446  22622333.055    22622333.5324   22622339.3974
        43.7004         40.9004
 -10858901.48245  -8444805.43747  22477134.659    22477134.2934   22477139.2804
        45.3004         42.5004
  -7169872.02842  -5576340.89845  23045264.845    23045264.3014   23045265.9154
        36.6004         34.6004
 -13614510.16546 -10588324.71247  21029229.494    21029230.0844   21029236.2994
        49.5004         46.5004
   1001358.02543    792055.73346  23707192.065    23707190.4564   23707193.7304
        38.7004         36.4004
 -16147598.82646 -12565014.19647  20766945.728    20766946.0824   20766950.6814
        49.5004         46.6004
 18  3 26  0  1  0.0000000  0 11G14G18G10G22G11G03G32G28G08G27G01
  -5901150.34844  -4578329.23146  22608538.304    22608538.6494   22608541.4954
        43.2004         40.6004
 -17048836.80846 -13267268.97547  19880382.912    19880382.5354   19880384.7564
        48.8004         45.9004
  -2662933.65443  -2045121.16946  23769411.204    23769410.6184   23769415.9024
        39.9004         37.4004
 -14960563.35346 -11633347.24847  21312911.111    21312910.6874   21312910.9674
        47.0004         44.2004
 -12289525.24146  -9563356.41347  20272031.194    20272030.9584   20272032.3294
        48.6004         45.8004
  -8053627.20545  -6250814.10846  22604104.182    22604104.4064   22604109.8644
        43.7004         40.9004
 -10862004.15945  -8447223.09447  22476543.760    22476545.2844   22476549.0604
        45.3004         42.5004
  -7177981.23042  -5582659.74845  23043724.095    23043723.2554   23043723.8124
        37.1004         35.2004
 -13554308.97146 -10541414.71247  21040687.015    21040686.4554   21040691.9334
        49.5004         46.6004
   1110715.69243    877269.51546  23727998.880    23727999.4194   23728004.5734
        39.0004         36.6004
 -16195150.21246 -12602067.22947  20757896.878    20757897.0814   20757901.9914
        49.5004         46.5004
 18  3 26  0  1 30.0000000  0 11G14G18G10G22G11G03G32G28G08G27G01
  -5952776.80544  -4618557.62846  22598716.359    22598715.8344   22598716.4934
        43.4004         40.9004
 -17051131.50746 -13269057.05447  19879946.222    19879945.9614   19879948.1094
        48.9004         46.1004
  -2563482.83343  -1967627.02246  23788334.882    23788336.0214   23788340.7294
        39.9004         37.4004
 -15020184.27346 -11679805.09647  21301565.824    21301564.9264   21301566.0964
        47.0004         44.2004
 -12326806.43446  -9592406.70147  20264937.017    20264936.9284   20264938.1564
        48.6004         45.9004
  -8149156.03145  -6325252.13446  22585925.551    22585925.1064   22585930.7314
        43.7004         40.9004
 -10864508.08845  -8449174.18747  22476067.742    22476067.4874   22476073.2094
        45.3004         42.1004
  -7185554.81842  -5588561.24845  23042281.567    23042280.7064   23042282.0254
        37.5004         35.5004
 -13493641.75547 -10494141.56747  21052230.759    21052231.0084   21052236.7604
        49.6004         46.6004
   1220226.74843    962602.79946  23748835.945    23748838.1204   23748845.2784
        39.0004         36.7004
 -16242376.91846 -12638867.26747  20748909.835    20748910.1854   20748915.0904
        49.5004         46.5004
 18  3 26  0  2  0.0000000  0 11G14G18G10G22G11G03G32G28G08G27G01
  -6003939.93245  -4658424.98546  22588980.317    22588978.3814   22588981.1814
        43.6004         41.1004
 -17052988.76546 -13270504.26047  19879592.304    19879592.6574   19879594.6284
        48.9004         46.1004
  -2463899.14843  -1890029.34946  23807287.496    23807288.1244   23807289.9184
        39.6004         36.7004
 -15079416.46846 -11725960.04247  21290294.294    21290293.3294   21290294.5214
        47.2004         44.4004
 -12363618.04146  -9621091.06447  20257931.533    20257931.3984   20257933.4294
        48.6004         45.9004
  -8244414.56645  -6399479.57046  22567798.784    22567798.8744   22567804.0794
        43.9004         41.1004
 -10866412.85545  -8450658.40947  22475704.507    22475704.8104   22475709.8264
        45.1004         42.3004
  -7192592.37343  -5594045.07945  23040941.506    23040940.6554   23040942.1804
        37.6004         35.7004
 -13432509.42947 -10446506.00047  21063865.290    21063864.5754   21063869.6094
        49.6004         46.6004
   1329889.23043   1048054.06346  23769709.123    23769708.0834   23769714.5544
        39.2004         36.9004
 -16289278.14347 -12675413.67147  20739984.537    20739985.0764   20739990.2574
        49.6004         46.6004
 18  3 26  0  2 30.0000000  0 11G14G18G10G22G11G03G32G28G08G27G01
  -6054637.50345  -4697929.58546  22579329.607    22579330.7554   22579334.5144
        43.6004         40.9004
 -17054408.33746 -13271610.42947  19879322.423    19879322.4504   19879324.5434
        48.9004         46.1004
  -2364184.64243  -1812329.73746  23826262.871    23826261.7724   23826265.8714
        39.6004         37.1004
 -15138259.13446 -11771811.46747  21279096.729    21279096.3624   21279097.2994
        47.2004         44.4004
 -12399958.76246  -9649408.50847  20251016.732    20251016.1864   20251017.7894
        48.6004         45.9004
  -8339401.28645  -6473495.16346  22549723.247    22549722.4934   22549727.6954
        43.7004         40.7004
 -10867718.33845  -8451675.65047  22475456.992    22475457.3874   22475461.5794
        45.1004         42.5004
  -7199094.21743  -5599111.47646  23039705.603    23039705.0064   23039706.3024
        38.2004         36.2004
 -13370913.84446 -10398509.45347  21075585.129    21075585.4194   21075590.6104
        49.5004         46.5004
   1439701.20943   1133621.82146  23790607.453    23790604.1774   23790609.4924
        39.0004         36.6004
 -16335853.07047 -12711705.80947  20731121.845    20731122.0364   20731127.4924
        49.6004         46.8004
 18  3 26  0  3  0.0000000  0 11G14G18G10G22G11G03G32G28G08G27G01
  -6104867.14545  -4737069.56246  22569771.295    22569772.0994   22569775.3694
        43.7004         40.9004
 -17055389.97146 -13272375.33747  19879135.987    19879135.7184   19879138.0934
        48.9004         46.1004
  -2264341.28743  -1734529.74146  23845261.360    23845262.2634   23845263.8914
        39.2004         36.9004
 -15196711.37946 -11817358.65547  21267974.090    21267973.0334   21267974.0844
        47.2004         44.4004
 -12435826.97346  -9677357.75447  20244190.954    20244190.7904   20244192.1964
        48.6004         45.8004
  -8434114.61745  -6547297.75746  22531698.912    22531699.5074   22531703.8774
        43.7004         40.9004
 -10868424.27945  -8452225.70547  22475322.486    22475322.9344   22475326.1424
        45.1004         42.3004
  -7205060.20643  -5603760.32446  23038568.818    23038569.8594   23038570.0744
        39.0004         36.7004
 -13308855.81847 -10350152.55447  21087395.370    21087394.8654   21087400.3404
        49.6004         46.6004
   1549660.71543   1219304.54046  23811527.990    23811528.0254   23811531.6084
        38.7004         36.2004
 -16382100.94247 -12747743.10247  20722321.412    20722321.4744   20722327.0404
        49.8004         47.0004
 18  3 26  0  3 30.0000000  0 11G14G18G10G22G11G03G32G28G08G27G01
  -6154627.20745  -4775843.60746  22560305.250    22560303.6044   22560306.9184
        43.9004         41.2004
 -17055933.62446 -13272798.97047  19879032.025    19879032.3994   19879034.6044
        48.9004         46.1004
  -2164371.05343  -1656630.80346  23864284.283    23864284.5864   23864287.6584
        38.9004         36.2004
 -15254772.47246 -11862601.05947  21256925.059    21256924.3004   21256925.0124
        47.2004         44.4004
 -12471221.11246  -9704937.60147  20237455.895    20237455.4994   20237456.8374
        48.6004         45.6004
  -8528553.01345  -6620886.11346  22513728.979    22513729.8794   22513733.0624
        43.9004         41.2004
 -10868530.42045  -8452308.38647  22475301.212    22475302.1054   22475306.5354
        44.9004         42.1004
  -7210490.30743  -5607991.55546  23037536.264    23037535.6254   23037537.7194
        39.6004         37.3004
 -13246336.91747 -10301436.52547  21099291.663    21099291.8554   21099297.4454
        49.6004         46.6004
   1659765.87943   1305100.75445  23832476.176    23832479.4674   23832483.3954
        38.3004         35.9004
 -16428020.95047 -12783524.92347  20713582.825    20713583.1314   20713588.4254
        49.8004         46.8004
 18  3 26  0  4  0.0000000  0 11G14G18G10G22G11G03G32G28G08G27G01
  -6203915.59345  -4814250.12746  22550924.895    22550924.5024   22550928.1314
        44.1004         41.2004
 -17056039.16646 -13272881.20747  19879011.850    19879011.9354   19879014.4904
        48.9004         46.1004
  -2064275.85443  -1578634.58046  23883331.725    23883331.5764   23883336.2024
        38.9004         36.4004
 -15312442.11946 -11907538.43447  21245950.916    21245950.3254   21245950.9174
        47.2004         44.4004
 -12506140.22446  -9732147.29247  20230810.676    20230810.4974   20230812.3944
        48.4004         45.6004
  -8622714.93645  -6694259.03846  22495810.519    22495810.7794   22495814.0264
        44.1004         41.1004
 -10868036.56645  -8451923.55047  22475396.013    22475396.9364   22475401.0494
        45.1004         42.3004
  -7215384.42843  -5611805.15046  23036604.631    23036604.8024   23036606.0714
        40.1004         37.8004
 -13183358.51347 -10252362.44947  21111276.670    21111276.4044   21111281.5394
        49.6004         46.6004
   1770014.71043   1391008.93545  23853456.456    23853459.2034   23853462.3664
        38.2004         35.9004
 -16473612.30647 -12819050.65747  20704906.810    20704907.4924   20704912.3814
        49.6004         46.6004
 18  3 26  0  4 30.0000000  0 11G14G18G10G22G11G03G32G28G08G27G01
  -6252730.61145  -4852287.80146  22541635.852    22541635.1984   22541638.2494
        43.9004         41.1004
 -17055706.40346 -13272621.91647  19879075.452    19879075.3964   19879077.8514
        48.9004         46.1004
  -1964057.68943  -1500542.48645  23902403.335    23902403.5004   23902406.0094
        38.3004         35.9004
 -15369719.23846 -11952169.95247  21235051.123    21235050.7754   21235051.7744
        47.2004         44.2004
 -12540582.77146  -9758985.64447  20224256.567    20224256.5504   20224257.8064
        48.4004         45.8004
  -8716598.87445  -6767415.34946  22477944.370    22477945.3784   22477948.8674
        44.1004         41.2004
 -10866942.65845  -8451071.13947  22475604.414    22475604.6924   22475607.8304
        44.9004         42.1004
  -7219742.35143  -5615200.94346  23035775.521    23035774.7234   23035776.7184
        40.3004         37.8004
 -13119921.76146 -10202931.22447  21123348.466    21123347.8004   21123353.4244
        49.5004         46.5004
   1880405.34043   1477027.57646  23874468.263    23874466.3354   23874471.1624
        38.2004         36.0004
 -16518874.24747 -12854319.71147  20696294.158    20696294.5204   20696299.5744
        49.8004         46.8004
 18  3 26  0  5  0.0000000  0 11G14G18G10G22G11G03G32G28G08G27G01
  -6301069.87945  -4889954.75546  22532436.836    22532436.7054   22532439.1214
        43.9004         40.9004
 -17054935.18546 -13272020.96947  19879222.203    19879222.6574   19879224.7614
        48.9004         46.1004
  -1863718.50043  -1422356.09546  23921497.611    23921497.5904   23921501.3994
        38.3004         36.0004
 -15426603.09446 -11996495.01947  21224226.697    21224226.3044   21224227.2964
        47.2004         44.4004
 -12574547.07946  -9785451.34347  20217793.329    20217793.3804   20217794.5924
        48.6004         45.8004
  -8810203.27945  -6840353.82546  22460132.878    22460133.4184   22460138.4574
        44.4004         41.8004
 -10865248.49245  -8449751.00047  22475926.737    22475927.4934   22475930.8084
        44.9004         42.1004
  -7223564.47543  -5618179.23846  23035047.453    23035046.9634   23035048.5444
        40.3004         37.8004
 -13056027.87946 -10153143.78947  21135506.182    21135506.3344   21135511.8084
        49.3004         46.3004
   1990935.77443   1563155.16245  23895501.104    23895499.9984   23895504.5504
        38.2004         35.9004
 -16563805.96947 -12889331.44647  20687743.809    20687744.1414   20687749.4974
        49.8004         47.0004
 18  3 26  0  5 30.0000000  0 11G14G18G10G22G11G03G32G28G08G27G01
  -6348931.67345  -4927249.64246  22523329.277    22523329.0254   22523331.3984
        43.9004         41.1004
 -17053725.47046 -13271078.33247  19879452.210    19879452.4784   19879454.8914
        48.9004         46.1004
  -1763260.18743  -1344076.93146  23940613.657    23940613.0914   23940618.0744
        38.5004         36.4004
 -15483092.87646 -12040513.01247  21213477.210    21213476.6094   21213477.3654
        47.2004         44.5004
 -12608032.11046  -9811543.57247  20211421.138    20211420.6874   20211422.9524
        48.4004         45.8004
  -8903526.65045  -6913073.32046  22442373.501    22442373.0354   22442379.3484
        44.6004         41.8004
 -10862954.00245  -8447963.06046  22476362.452    22476362.9534   22476368.0144
        44.9004         41.9004
  -7226851.09344  -5620740.23946  23034422.399    23034421.8834   23034424.4074
        40.8004         38.3004
 -12991678.58546 -10103001.49547  21147751.621    21147751.4184   21147756.7574
        49.3004         46.3004
   2101604.05543   1649390.17146  23916562.483    23916559.9294   23916564.6264
        38.5004         36.2004
 -16608406.67047 -12924085.22947  20679257.007    20679257.2384   20679262.3514
        50.0004         47.2004
 18  3 26  0  6  0.0000000  0 11G14G18G10G22G11G03G32G28G08G27G01
  -6396314.17645  -4964171.05246  22514312.158    22514311.5694   22514315.3224
        43.7004         40.9004
 -17052077.04446 -13269793.85247  19879766.220    19879765.9754   19879768.6754
        48.9004         46.1004
  -1662684.74543  -1265706.43946  23959751.756    23959752.9904   23959756.4124
        38.7004         36.4004
 -15539188.06246 -12084223.53247  21202803.204    21202802.1354   21202803.1724
        47.4004         44.5004
 -12641036.37546  -9837261.17647  20205141.207    20205140.9074   20205142.4234
        48.6004         45.9004
  -8996567.41345  -6985572.59246  22424668.211    22424668.8534   22424673.3894
        44.4004         41.6004
 -10860059.11845  -8445707.29046  22476914.347    22476914.6414   22476918.9324
        44.8004         41.9004
  -7229601.95144  -5622883.76746  23033899.292    23033898.9894   23033900.9544
        41.1004         38.5004
 -12926875.04846 -10052505.24147  21160083.377    21160083.3544   21160088.9664
        49.1004         46.3004
   2212408.30143   1735731.13546  23937645.882    23937644.4384   23937648.7914
        38.3004         36.0004
 -16652675.58347 -12958580.48447  20670832.961    20670833.2944   20670837.9724
        50.2004         47.2004
 18  3 26  0  6 30.0000000  0 11G14G18G10G22G11G03G32G28G08G27G01
  -6443215.59745  -5000717.60946  22505386.263    22505386.0824   22505390.0704
        43.9004         41.1004
 -17049989.70546 -13268167.35247  19880162.776    19880162.8544   19880165.7634
        48.9004         45.9004
  -1561994.01543  -1187246.15345  23978913.161    23978912.4204   23978917.4184
        38.5004         35.9004
 -15594888.05146 -12127626.12147  21192203.086    21192202.6364   21192203.2894
        47.4004         44.5004
 -12673558.60646  -9862603.17547  20198952.032    20198951.8274   20198953.8374
        48.6004         45.8004
  -9089324.15045  -7057850.53146  22407017.593    22407017.9214   22407022.2864
        44.4004         41.6004
 -10856563.72745  -8442983.59646  22477579.547    22477579.9834   22477582.9864
        44.8004         41.8004
  -7231816.81444  -5624609.63646  23033477.922    23033477.4844   23033478.9504
        41.5004         39.0004
 -12861618.56346 -10001656.03847  21172501.602    21172501.2264   21172506.7944
        49.1004         46.1004
   2323346.51443   1822176.52146  23958753.672    23958754.8924   23958759.0854
        38.3004         36.0004
 -16696611.90547 -12992816.58247  20662472.369    20662472.5404   20662477.3294
        50.2004         47.2004
 18  3 26  0  7  0.0000000  0 11G14G18G10G22G11G03G32G28G08G27G01
  -6489634.00045  -5036887.78146  22496554.411    22496554.0554   22496556.5254
        43.9004         41.2004
 -17047463.50946 -13266198.89647  19880643.536    19880643.8354   19880646.1344
        48.8004         45.9004
  -1461189.96843  -1108697.52746  23998096.030    23998095.9384   23998101.1124
        38.3004         36.2004
 -15650191.81546 -12170719.95247  21181679.711    21181678.8454   21181679.2364
        47.5004         44.7004
 -12705597.22346  -9887568.32647  20192855.273    20192855.3394   20192856.6904
        48.4004         45.6004
  -9181795.29245  -7129905.95146  22389420.400    22389420.4774   22389425.4224
        44.4004         41.4004
 -10852467.87645  -8439792.00146  22478358.725    22478358.8004   22478361.8544
        44.6004         41.8004
  -7233496.23644  -5625918.26246  23033157.182    23033157.7124   23033159.8904
        41.8004         39.3004
 -12795910.64346  -9950455.06347  21185005.132    21185004.9554   21185010.4524
        49.1004         46.1004
   2434416.78943   1908724.77746  23979891.180    23979891.5404   23979895.9704
        38.3004         36.2004
 -16740214.87047 -13026792.90447  20654174.494    20654174.7674   20654179.9624
        50.2004         47.2004
 18  3 26  0  7 30.0000000  0 11G14G18G10G22G11G03G32G28G08G27G01
  -6535567.54345  -5072680.13546  22487812.357    22487812.7224   22487815.6764
        43.9004         41.2004
 -17044498.38346 -13263888.40647  19881207.909    19881208.3954   19881210.5574
        48.8004         45.9004
  -1360274.54243  -1030062.12646  24017297.453    24017299.0854   24017303.6634
        38.5004         36.2004
 -15705099.00946 -12213504.76847  21171231.506    21171230.3484   21171230.8864
        47.5004         44.7004
 -12737151.00046  -9912155.68547  20186850.704    20186850.3874   20186852.2754
        48.4004         45.6004
  -9273979.38045  -7201737.70446  22371877.001    22371878.4754   22371882.7914
        44.2004         41.2004
 -10847771.48945  -8436132.46946  22479251.118    22479251.8014   22479256.3564
        44.6004         41.8004
  -7234640.56944  -5626809.95146  23032941.584    23032940.5094   23032941.9664
        42.2004         39.7004
 -12729752.62846  -9898903.36847  21197595.241    21197594.6694   21197599.6794
        48.9004         45.9004
   2545617.13143   1995374.39546  24001050.617    24001051.3184   24001057.1844
        38.5004         36.0004
 -16783483.69247 -13060508.86447  20645941.030    20645941.1144   20645946.1094
        50.2004         47.2004
 18  3 26  0  8  0.0000000  0 11G14G18G10G22G11G03G32G28G08G27G01
  -6581014.13845  -5108093.05946  22479165.498    22479165.0064   22479167.7204
        44.1004         41.2004
 -17041093.94646 -13261235.59747  19881855.943    19881855.9414   19881858.5654
        48.8004         45.9004
  -1259249.57943   -951341.35546  24036524.936    24036523.5994   24036528.4084
        38.5004         36.2004
 -15759608.85946 -12255979.97247  21160858.482    21160857.7594   21160857.9954
        47.7004         44.7004
 -12768218.67546  -9936364.26147  20180938.828    20180938.6564   20180940.3564
        48.4004         45.6004
  -9365874.91945  -7273344.56946  22354392.086    22354391.5904   22354396.5854
        44.2004         41.6004
 -10842474.65345  -8432005.04247  22480259.961    22480259.8354   22480265.2454
        44.6004         42.1004
  -7235249.79544  -5627284.66246  23032824.754    23032824.8254   23032826.8134
        42.5004         40.2004
 -12663145.97346  -9847002.08347  21210269.495    21210268.9534   21210275.0054
        48.9004         45.9004
   2656945.64043   2082123.87846  24022240.815    24022237.2594   24022242.8784
        38.3004         36.2004
 -16826417.60047 -13093963.85447  20637770.928    20637770.8854   20637776.2084
        50.2004         47.2004
 18  3 26  0  8 30.0000000  0 11G14G18G10G22G11G03G32G28G08G27G01
  -6625972.22445  -5143125.31646  22470609.034    22470609.4534   22470612.0204
        43.9004         41.2004
 -17037250.50846 -13258240.71247  19882587.024    19882587.4724   19882589.9374
        48.8004         45.9004
  -1158116.98243   -872536.74646  24055765.411    24055767.6314   24055773.0884
        38.3004         36.0004
 -15813720.57346 -12298144.93447  21150561.527    21150560.7814   21150560.5464
        47.7004         44.7004
 -12798798.83346  -9960192.95347  20175119.672    20175119.8034   20175121.2654
        48.4004         45.6004
  -9457480.41245  -7344725.45846  22336959.764    22336959.6294   22336964.9074
        44.6004         41.8004
 -10836577.38345  -8427409.74747  22481382.598    22481382.6214   22481387.7404
        44.8004         42.1004
  -7235323.93744  -5627342.45046  23032810.993    23032810.5274   23032812.5504
        43.0004         40.4004
 -12596092.22246  -9794752.41547  21223029.494    21223028.9504   21223034.6464
        48.9004         45.9004
   2768400.33043   2168971.68945  24043450.321    24043446.1414   24043453.4774
        38.3004         35.9004
 -16869015.80547 -13127157.27347  20629664.954    20629665.2354   20629669.8334
        50.2004         47.2004
 18  3 26  0  9  0.0000000  0 11G14G18G10G22G11G03G32G28G08G27G01
  -6670439.55345  -5177775.14846  22462147.752    22462147.6174   22462150.7954
        43.9004         41.1004
 -17032967.62146 -13254903.39747  19883401.673    19883402.3004   19883404.9454
        48.8004         45.9004
  -1056878.70543   -793649.77646  24075034.258    24075034.0214   24075038.8824
        38.7004         36.4004
 -15867433.49246 -12339999.15147  21140340.176    21140339.2944   21140339.2904
        47.7004         44.7004
 -12828890.44946  -9983640.96847  20169393.820    20169393.3734   20169395.0124
        48.4004         45.6004
  -9548794.38445  -7415879.19246  22319583.036    22319583.5864   22319588.2094
        44.8004         41.9004
 -10830079.72245  -8422346.61947  22482617.581    22482618.6534   22482623.8014
        44.9004         42.1004
  -7234863.35544  -5626983.56746  23032898.723    23032898.3634   23032899.7934
        43.0004         40.2004
 -12528592.78646  -9742155.46447  21235873.499    21235874.0364   21235879.5384
        48.9004         45.9004
   2879979.23243   2255916.28845  24064680.254    24064678.6264   24064684.3394
        38.2004         35.9004
 -16911277.50547 -13160088.46947  20621622.837    20621622.7814   20621627.7664
        50.2004         47.2004
 18  3 26  0  9 30.0000000  0 11G14G18G10G22G11G03G32G28G08G27G01
  -6714414.47345  -5212041.29946  22453780.399    22453779.6504   22453783.0304
        43.9004         41.1004
 -17028245.32246 -13251223.68347  19884301.086    19884301.3344   19884303.6074
        48.9004         46.1004
   -955536.55843   -714681.88046  24094316.644    24094317.5864   24094324.0464
        38.3004         36.0004
 -15920746.97046 -12381542.11947  21130194.647    21130193.5894   21130194.4934
        47.5004         44.7004
 -12858491.93746 -10006707.05847  20163760.340    20163759.9924   20163761.6844
        48.4004         45.6004
  -9639815.38845  -7486804.62746  22302262.396    22302262.8214   22302267.5244
        44.8004         41.9004
 -10822981.80745  -8416815.76747  22483969.395    22483969.7704   22483974.8474
        44.9004         42.5004
  -7233868.30444  -5626208.20746  23033087.451    23033087.5344   23033088.5874
        42.9004         40.2004
 -12460648.98646  -9689212.24947  21248802.730    21248802.9244   21248808.8524
        48.9004         45.9004
   2991680.41443   2342956.17345  24085933.689    24085935.8304   24085939.0934
        38.0004         35.7004
 -16953201.97347 -13192756.88347  20613644.082    20613644.6764   20613649.9314
        50.3004         47.3004
 18  3 26  0 10  0.0000000  0 11G14G18G10G22G11G03G32G28G08G27G01
  -6757895.53945  -5245922.64346  22445504.292    22445504.2464   22445507.6454
        43.9004         40.9004
 -17023083.57146 -13247201.54347  19885283.490    19885283.3354   19885285.9754
        48.9004         46.1004
   -854092.43843   -635634.50945  24113621.521    24113620.9784   24113627.0514
        38.2004         35.7004
 -15973660.70346 -12422773.58947  21120125.057    21120124.2564   21120125.1564
        47.5004         44.5004
 -12887601.99546 -10029390.21747  20158220.977    20158220.6554   20158222.6864
        48.2004         45.6004
  -9730541.93345  -7557500.62246  22284997.183    22284997.5874   22285002.7864
        44.8004         41.9004
 -10815283.77145  -8410817.28347  22485434.861    22485435.1594   22485439.9114
        45.1004         42.5004
  -7232338.78044  -5625016.38346  23033378.953    23033378.4234   23033379.8044
        42.7004         40.0004
 -12392262.43046  -9635924.02947  21261817.257    21261816.7074   21261822.6414
        48.9004         46.1004
   3103501.89843   2430089.80245  24107210.779    24107214.7974   24107218.9864
        37.8004         35.7004
 -16994788.38247 -13225161.87447  20605731.175    20605731.3214   20605736.5114
        50.3004         47.5004
 18  3 26  0 10 30.0000000  0 11G14G18G10G22G11G03G32G28G08G27G01
  -6800881.01645  -5279417.81646  22437326.176    22437325.8954   22437328.0464
        43.7004         41.1004
 -17017482.38546 -13242836.98747  19886349.221    19886349.2874   19886351.9804
        48.9004         46.3004
   -752548.21243   -556509.12445  24132944.400    24132944.2864   24132948.7644
        37.8004         35.5004
 -16026174.00346 -12463693.03747  21110132.431    21110131.0884   21110132.3394
        47.5004         44.5004
 -12916219.40146 -10051689.49647  20152775.045    20152775.0614   20152776.9504
        48.2004         45.6004
  -9820972.59745  -7627966.06547  22267788.548    22267789.2974   22267795.0694
        44.9004         42.1004
 -10806985.71545  -8404351.26547  22487012.579    22487014.0324   22487019.3414
        45.1004         42.3004
  -7230275.48844  -5623408.64646  23033771.646    23033770.7644   23033772.5294
        42.9004         40.2004
 -12323434.80746  -9582292.12747  21274914.522    21274914.5004   21274919.9084
        48.9004         45.9004
   3215441.73643   2517315.65345  24128511.948    24128515.2834   24128520.3454
        37.6004         35.5004
 -17036036.00947 -13257302.88347  20597882.549    20597882.2864   20597887.2014
        50.5004         47.5004
 18  3 26  0 11  0.0000000  0 11G14G18G10G22G11G03G32G28G08G27G01
  -6843368.80545  -5312525.17146  22429240.729    22429240.6044   22429243.1684
        43.9004         41.2004
 -17011441.68946 -13238129.95547  19887498.906    19887498.8794   19887501.1854
        49.1004         46.3004
   -650905.75343   -477307.21145  24152284.983    24152285.4844   24152291.8544
        37.8004         35.7004
 -16078285.81246 -12504299.63947  21100215.716    21100215.0004   21100215.6674
        47.5004         44.7004
 -12944343.32946 -10073604.24447  20147423.323    20147423.2534   20147424.9564
        48.2004         45.6004
  -9911105.91945  -7698199.81747  22250637.815    22250638.0044   22250642.8224
        44.9004         42.1004
 -10798087.84345  -8397417.84447  22488706.682    22488706.8914   22488712.0804
        45.1004         42.1004
  -7227678.84244  -5621385.28446  23034264.135    23034264.7154   23034266.3944
        42.7004         39.5004
 -12254167.47146  -9528317.58647  21288095.619    21288095.2584   21288100.7894
        48.8004         45.8004
   3327497.96042   2604632.23445  24149837.503    24149840.0674   24149844.8074
        37.5004         35.2004
 -17076944.04947 -13289179.28347  20590097.660    20590097.7784   20590102.6784
        50.5004         47.5004
 18  3 26  0 11 30.0000000  0 11G14G18G10G22G11G03G32G28G08G27G01
  -6885357.20345  -5345243.38746  22421251.399    22421250.4454   22421252.9634
        43.9004         41.2004
 -17004961.29746 -13233080.29847  19888731.861    19888731.6974   19888734.4074
        49.1004         46.3004
   -549166.92243   -398030.18646  24171648.016    24171647.3404   24171653.6074
        38.3004         36.0004
 -16129995.88046 -12544593.18847  21090375.780    21090375.1394   21090375.4114
        47.7004         44.9004
 -12971971.87646 -10095132.98447  20142166.008    20142165.8304   20142167.3154
        48.4004         45.6004
 -10000940.47045  -7768200.73247  22233541.894    22233542.3234   22233546.9324
        44.9004         42.1004
 -10788590.35045  -8390017.18046  22490513.906    22490514.2134   22490518.2544
        44.8004         41.8004
  -7224548.28744  -5618945.89446  23034861.193    23034861.0384   23034862.5324
        42.5004         39.9004
 -12184461.82746  -9474001.51247  21301359.903    21301359.8174   21301365.3224
        48.8004         45.8004
   3439668.63342   2692037.94745  24171183.452    24171183.4664   24171189.2234
        37.3004         35.2004
 -17117511.70947 -13320790.44647  20582377.751    20582377.9334   20582382.8064
        50.5004         47.5004
 18  3 26  0 12  0.0000000  0 11G14G18G10G22G11G03G32G28G08G27G01
  -6926844.63345  -5377571.24646  22413355.668    22413354.8854   22413357.8934
        43.7004         41.1004
 -16998041.27846 -13227688.08047  19890048.361    19890048.5634   19890051.4134
        49.1004         46.3004
   -447333.48843   -318679.46545  24191022.046    24191024.6944   24191031.2374
        38.2004         35.9004
 -16181303.75346 -12584573.34747  21080612.171    21080611.5034   21080612.1124
        47.7004         44.9004
 -12999103.46646 -10116274.48247  20137002.682    20137002.5024   20137004.3544
        48.2004         45.6004
 -10090474.78445  -7837967.70947  22216505.127    22216505.3344   22216508.9454
        45.1004         42.3004
 -10778493.44045  -8382149.43146  22492435.925    22492435.5944   22492440.0104
        44.8004         41.8004
  -7220884.67644  -5616091.12946  23035559.055    23035557.4854   23035559.2974
        42.3004         39.5004
 -12114319.35546  -9419345.04547  21314706.812    21314707.3204   21314713.0264
        48.8004         45.6004
   3551951.73342   2779531.29545  24192551.641    24192549.8734   24192555.3284
        37.3004         35.2004
 -17157738.26847 -13352135.80647  20574722.535    20574722.8924   20574728.0134
        50.5004         47.7004
 18  3 26  0 12 30.0000000  0 11G14G18G10G22G11G03G32G28G08G27G01
  -6967829.67645  -5409507.62146  22405556.651    22405556.5054   22405559.0764
        43.7004         41.1004
 -16990681.69146 -13221953.33747  19891448.601    19891448.9374   19891451.5714
        49.1004         46.3004
   -345407.36443   -239256.50945  24210421.488    24210420.2044   24210427.4194
        38.0004         35.9004
 -16232208.72346 -12624239.55147  21070925.702    21070924.3554   21070925.5694
        47.7004         44.9004
 -13025737.27746 -10137028.11047  20131934.905    20131934.5914   20131936.5324
        48.2004         45.6004
 -10179707.45345  -7907499.65547  22199524.628    22199525.4234   22199529.2884
        45.5004         42.8004
 -10767797.36945  -8373814.82447  22494470.551    22494471.1374   22494476.3414
        44.9004         42.1004
  -7216688.43944  -5612821.34146  23036356.634    23036356.7334   23036358.1594
        42.0004         38.8004
 -12043741.81546  -9364349.56547  21328138.915    21328138.4414   21328142.8654
        48.6004         45.6004
   3664345.34742   2867110.72245  24213939.910    24213938.9764   24213942.3284
        37.0004         34.8004
 -17197622.91147 -13383214.74647  20567132.507    20567132.6934   20567138.2004
        50.5004         47.5004
 18  3 26  0 13  0.0000000  0 11G14G18G10G22G11G03G32G28G08G27G01
  -7008310.45245  -5441051.06246  22397853.328    22397853.3144   22397855.6744
        43.7004         40.9004
 -16982882.19746 -13215875.81547  19892933.251    19892933.0674   19892936.0674
        49.1004         46.3004
   -243390.32843   -159762.71145  24229833.668    24229835.7444   24229840.6414
        38.2004         35.9004
 -16282709.90946 -12663591.12047  21061314.566    21061314.0964   21061315.1884
        47.7004         44.9004
 -13051872.43846 -10157393.18047  20126962.105    20126961.6824   20126962.7404
        48.4004         45.6004
 -10268637.07745  -7976795.44747  22182601.095    22182601.9704   22182606.5234
        45.5004         42.6004
 -10756502.40945  -8365013.55747  22496620.117    22496620.6044   22496625.4134
        45.1004         42.3004
  -7211959.96844  -5609136.81346  23037255.229    23037255.2744   23037257.2294
        41.1004         38.3004
 -11972730.65546  -9309016.19647  21341650.629    21341650.6184   21341656.0704
        48.6004         45.4004
   3776847.46642   2954774.72045  24235348.394    24235348.1834   24235350.1254
        36.8004         34.6004
 -17237164.89947 -13414026.68847  20559607.867    20559608.1334   20559613.6184
        50.3004         47.3004
 18  3 26  0 13 30.0000000  0 11G14G18G10G22G11G03G32G28G08G27G01
  -7048285.41945  -5472200.36146  22390247.190    22390245.9594   22390248.1684
        43.6004         40.7004
 -16974643.02346 -13209455.68447  19894501.263    19894500.9934   19894503.6784
        49.1004         46.3004
   -141284.26843    -80199.55046  24249266.677    24249265.2544   24249271.6914
        38.3004         36.0004
 -16332807.04946 -12702627.85047  21051782.527    21051781.3044   21051781.8274
        47.7004         44.9004
 -13077507.54346 -10177368.59047  20122083.652    20122083.1354   20122084.8434
        48.4004         45.6004
 -10357262.20845  -8045853.97547  22165734.603    22165735.7784   22165741.4684
        45.3004         42.3004
 -10744608.85945  -8355745.84447  22498884.074    22498884.6644   22498888.5644
        45.1004         42.5004
  -7206699.86844  -5605038.01846  23038257.207    23038257.6194   23038258.4094
        40.6004         37.9004
 -11901287.31646  -9253346.06847  21355246.293    21355246.5084   21355251.1284
        48.4004         45.4004
   3889456.12542   3042521.68445  24256776.251    24256777.1574   24256779.7824
        36.3004         34.1004
 -17276363.48047 -13444571.03147  20552148.493    20552148.7184   20552154.5204
        50.3004         47.3004
 18  3 26  0 14  0.0000000  0 11G14G18G10G22G11G03G32G28G08G27G01
  -7087752.39545  -5502953.82946  22382734.716    22382735.4004   22382738.7134
        43.6004         40.7004
 -16965963.87846 -13202692.71447  19896152.025    19896152.5974   19896155.1534
        49.1004         46.3004
    -39090.98043      -568.42746  24268712.073    24268712.0534   24268716.6124
        38.3004         36.0004
 -16382499.72046 -12741349.39747  21042326.056    21042325.2764   21042325.4234
        47.7004         44.9004
 -13102641.46246 -10196953.46247  20117300.049    20117300.0834   20117301.7424
        48.2004         45.4004
 -10445581.44045  -8114674.13647  22148930.473    22148929.9374   22148934.6624
        45.1004         42.3004
 -10732117.01245  -8346011.93647  22501261.421    22501260.9144   22501265.7364
        45.1004         42.1004
  -7200908.15044  -5600525.00546  23039360.481    23039359.9664   23039361.0784
        40.6004         37.9004
 -11829413.59446  -9197340.57547  21368923.640    21368923.1994   21368928.9044
        48.4004         45.4004
   4002169.34442   3130350.17045  24278219.860    24278223.2714   24278228.7904
        36.3004         34.3004
 -17315217.85047 -13474847.16447  20544755.144    20544755.1164   20544760.7194
        50.3004         47.3004
 18  3 26  0 14 30.0000000  0 11G14G18G10G22G11G03G32G28G08G27G01
  -7126710.51044  -5533310.77546  22375323.076    22375321.9794   22375324.9444
        43.4004         40.6004
 -16956845.13046 -13195587.19747  19897887.412    19897888.0124   19897890.5094
        49.1004         46.3004
     63187.75343     79129.28046  24288176.671    24288176.0314   24288180.3944
        38.3004         36.0004
 -16431787.34146 -12779755.32647  21032946.680    21032945.9124   21032946.3974
        47.9004         45.1004
 -13127272.87646 -10216146.77047  20112613.092    20112612.8574   20112614.3294
        48.2004         45.6004
 -10533593.42645  -8183254.88247  22132182.914    22132182.1374   22132187.1654
        45.3004         42.5004
 -10719027.22245  -8335812.10647  22503750.147    22503751.5704   22503756.1684
        44.9004         42.1004
  -7194585.53143  -5595598.26246  23040562.515    23040562.8624   23040564.2664
        40.3004         37.8004
 -11757110.81546  -9141000.74847  21382681.518    21382681.8174   21382687.8204
        48.4004         45.6004
   4114985.19842   3218258.62345  24299685.421    24299691.0164   24299696.0584
        35.9004         34.1004
 -17353727.26547 -13504854.49847  20537426.817    20537426.8564   20537432.7014
        50.3004         47.3004
 18  3 26  0 15  0.0000000  0 11G14G18G10G22G11G03G32G28G08G27G01
  -7165157.81144  -5563269.68346  22368004.225    22368003.9474   22368007.3404
        43.2004         40.2004
 -16947286.55546 -13188138.95847  19899706.260    19899706.4054   19899709.7164
        49.1004         46.3004
    165550.12643    158892.16646  24307655.331    24307656.1034   24307659.5654
        38.7004         36.4004
 -16480669.30246 -12817845.16447  21023645.492    21023644.6864   21023644.7754
        48.1004         45.1004
 -13151400.58446 -10234947.58247  20108021.219    20108020.8934   20108023.3274
        48.2004         45.4004
 -10621296.70045  -8251595.07447  22115492.145    22115492.5914   22115497.2244
        45.1004         42.3004
 -10705339.87945  -8325146.62847  22506355.687    22506356.3264   22506361.3324
        45.1004         42.3004
  -7187732.36543  -5590258.13446  23041867.332    23041866.7064   23041867.6424
        39.7004         37.1004
 -11684381.10346  -9084328.24947  21396522.674    21396522.2664   21396528.0504
        48.6004         45.6004
   4227901.69442   3306245.47145  24321177.693    24321178.6554   24321185.1974
        36.3004         34.3004
 -17391890.96847 -13534592.44147  20530164.403    20530164.5484   20530170.1324
        50.2004         47.2004
 18  3 26  0 15 30.0000000  0 11G14G18G10G22G11G03G32G28G08G27G01
  -7203092.85444  -5592829.45446  22360786.397    22360786.7414   22360790.1374
        43.0004         40.0004
 -16937288.13946 -13180347.98947  19901609.960    19901609.5214   19901612.1654
        49.1004         46.3004
    267994.34843    238718.83646  24327149.135    24327149.6764   24327153.8634
        38.9004         36.6004
 -16529145.10346 -12855618.50847  21014420.510    21014419.3384   21014420.2514
        48.1004         45.1004
 -13175023.47446 -10253355.03447  20103526.431    20103526.4614   20103527.3244
        48.1004         45.4004
 -10708689.93245  -8319693.69447  22098862.045    22098862.6154   22098866.8464
        45.3004         42.5004
 -10691055.37245  -8314015.82147  22509074.761    22509074.2934   22509078.9734
        45.1004         42.3004
  -7180349.36243  -5584505.14146  23043272.576    23043271.9974   23043273.7184
        39.4004         36.9004
 -11611225.68446  -9027324.04747  21410443.667    21410443.5494   21410448.6694
        48.6004         45.8004
   4340916.92742   3394309.22745  24342690.212    24342685.0314   24342690.8484
        36.3004         34.5004
 -17429708.18147 -13564060.39847  20522968.121    20522967.9744   20522973.7004
        50.2004         47.2004
 18  3 26  0 16  0.0000000  0 11G14G18G10G22G11G03G32G28G08G27G01
  -7240513.98044  -5621988.73846  22353667.730    22353666.0894   22353668.4014
        43.0004         40.2004
 -16926850.09546 -13172214.45147  19903595.715    19903595.7694   19903598.9114
        49.1004         46.5004
    370518.66243    318607.92946  24346661.015    24346661.0014   24346664.4004
        38.9004         36.6004
 -16577214.38946 -12893075.09047  21005272.289    21005271.5544   21005272.5664
        47.9004         44.9004
 -13198140.26346 -10271368.12947  20099127.521    20099127.0224   20099128.8174
        48.2004         45.4004
 -10795771.73245  -8387549.62747  22082291.244    22082290.5604   22082295.9744
        45.3004         42.5004
 -10676174.07745  -8302419.99946  22511904.555    22511905.3864   22511911.0634
        44.9004         41.9004
  -7172436.69243  -5578339.45146  23044778.273    23044777.3804   23044777.5524
        38.7004         36.2004
 -11537646.41346  -8969989.55547  21424444.270    21424444.3494   21424450.0374
        48.6004         45.6004
   4454028.81242   3482448.32745  24364220.084    24364210.4634   24364215.2174
        36.6004         34.6004
 -17467178.19447 -13593257.80947  20515837.395    20515837.7354   20515843.4794
        50.2004         47.2004
 18  3 26  0 16 30.0000000  0 11G14G18G10G22G11G03G32G28G08G27G01
  -7277419.98244  -5650746.63246  22346641.901    22346642.0494   22346644.6274
        42.9004         40.2004
 -16915972.28846 -13163738.24347  19905665.571    19905665.6884   19905668.7294
        49.1004         46.3004
    473121.21143    398557.95746  24366185.322    24366185.2714   24366188.4554
        38.5004         36.0004
 -16624876.35146 -12930214.27247  20996202.884    20996202.0564   20996202.8114
        47.9004         45.1004
 -13220749.83046 -10288985.97447  20094824.911    20094824.9594   20094826.1334
        48.2004         45.4004
 -10882540.69545  -8455161.79547  22065778.829    22065779.2514   22065784.8584
        45.5004         42.6004
 -10660696.47645  -8290359.52946  22514849.048    22514850.1984   22514855.5024
        44.8004         41.8004
  -7163995.11143  -5571761.61945  23046382.492    23046383.5694   23046384.9034
        38.2004         35.9004
 -11463644.78346  -8912325.95147  21438527.380    21438526.8524   21438532.3864
        48.4004         45.4004
   4567235.40142   3570661.21445  24385760.018    24385754.6394   24385757.4174
        36.6004         34.6004
 -17504300.18647 -13622184.03847  20508773.338    20508773.6934   20508779.1304
        50.2004         47.3004
 18  3 26  0 17  0.0000000  0 11G14G18G10G22G11G03G32G28G08G27G01
  -7313808.84344  -5679101.57346  22339717.533    22339717.7734   22339721.2134
        43.0004         40.2004
 -16904654.67346 -13154919.32647  19907819.105    19907819.2994   19907822.3614
        49.1004         46.3004
    575800.28443    478567.63145  24385722.450    24385723.7094   24385725.3574
        38.2004         35.7004
 -16672131.08346 -12967036.13047  20987210.947    20987209.9704   20987210.8824
        48.1004         45.2004
 -13242851.06646 -10306207.72247  20090619.943    20090619.4854   20090620.6174
        48.2004         45.6004
 -10968995.51145  -8522529.16247  22049327.606    22049328.1194   22049332.7434
        45.6004         42.8004
 -10644623.02145  -8277834.75246  22517908.939    22517909.5504   22517914.4984
        44.6004         41.9004
  -7155025.07243  -5564772.01045  23048091.428    23048090.7784   23048089.8754
        38.2004         35.9004
 -11389222.57346  -8854334.62147  21452689.634    21452689.0974   21452694.3314
        48.4004         45.4004
   4680534.77742   3658946.43045  24407317.089    24407314.7434   24407317.8034
        36.8004         34.8004
 -17541073.40647 -13650838.48847  20501776.004    20501776.3984   20501781.6894
        50.3004         47.5004
 18  3 26  0 17 30.0000000  0 11G14G18G10G22G11G03G32G28G08G27G01
  -7349679.39844  -5707052.64846  22332893.261    22332893.1854   22332895.9574
        43.2004         40.6004
 -16892897.48846 -13145757.88947  19910056.605    19910056.6944   19910059.2864
        49.1004         46.3004
    678554.15543    558635.58646  24405276.906    24405276.8154   24405280.4024
        38.3004         36.0004
 -16718977.68246 -13003539.96247  20978296.544    20978295.5814   20978296.2354
        48.1004         45.2004
 -13264443.13246 -10323032.71447  20086510.627    20086510.4534   20086512.1094
        48.2004         45.4004
 -11055134.82245  -8589650.68347  22032935.292    22032935.8334   22032940.4914
        45.6004         42.8004
 -10627954.22545  -8264846.07446  22521082.808    22521082.0704   22521086.3064
        44.8004         41.9004
  -7145527.48743  -5557371.33946  23049897.351    23049897.5834   23049898.1284
        38.5004         36.4004
 -11314381.32046  -8796016.76347  21466930.396    21466930.6034   21466936.1714
        48.2004         45.2004
   4793924.88642   3747302.36745  24428889.444    24428890.5364   24428896.7614
        36.6004         34.6004
 -17577497.12547 -13679220.60647  20494844.875    20494845.1494   20494850.4004
        50.3004         47.3004
 18  3 26  0 18  0.0000000  0 11G14G18G10G22G11G03G32G28G08G27G01
  -7385030.15244  -5734598.66646  22326164.758    22326164.2664   22326167.5194
        43.2004         40.4004
 -16880700.61946 -13136253.83447  19912377.751    19912377.9914   19912380.1664
        49.1004         46.3004
    781380.95843    638760.38246  24424844.840    24424844.6514   24424847.7214
        38.3004         36.2004
 -16765415.38946 -13039725.17747  20969459.652    20969458.5494   20969459.0844
        48.1004         45.2004
 -13285524.57446 -10339459.81347  20082499.082    20082498.7064   20082500.2774
        48.2004         45.4004
 -11140957.23145  -8656525.27247  22016604.065    22016604.1284   22016609.1284
        45.6004         42.8004
 -10610690.56545  -8251393.87046  22524366.151    22524367.4594   22524371.4984
        44.8004         41.8004
  -7135502.69043  -5549559.81646  23051804.406    23051804.2764   23051807.1694
        39.0004         36.9004
 -11239122.80546  -8737373.77947  21481252.561    21481252.3204   21481257.5184
        48.1004         45.1004
   4907403.81042   3835727.48445  24450481.915    24450484.8124   24450487.7674
        36.8004         34.8004
 -17613570.57547 -13707329.78247  20487980.457    20487980.5444   20487985.5884
        50.3004         47.3004
 18  3 26  0 18 30.0000000  0 11G14G18G10G22G11G03G32G28G08G27G01
  -7419859.48144  -5761738.39646  22319537.067    22319537.2494   22319539.5174
        43.0004         40.4004
 -16868064.21946 -13126407.28747  19914782.629    19914782.4614   19914784.8624
        49.1004         46.3004
    884279.05443    718940.68145  24444426.303    24444425.5664   24444427.2644
        38.2004         35.9004
 -16811444.26146 -13075591.82047  20960700.438    20960699.9954   20960700.3204
        48.1004         45.2004
 -13306094.18646 -10355488.08647  20078584.802    20078584.5664   20078585.9134
        48.2004         45.6004
 -11226461.43145  -8723151.90247  22000334.470    22000334.1764   22000339.0104
        46.0004         43.3004
 -10592832.60145  -8237478.56846  22527764.591    22527766.2134   22527770.0394
        44.6004         41.9004
  -7124951.48543  -5541338.09746  23053813.035    23053813.0424   23053815.4884
        39.7004         37.6004
 -11163448.55346  -8678406.83947  21495652.275    21495651.9444   21495657.6624
        48.1004         45.1004
   5020969.50242   3924220.24045  24472094.908    24472095.8164   24472102.8234
        36.6004         34.5004
 -17649293.03647 -13735165.46247  20481182.678    20481182.8454   20481187.9014
        50.3004         47.5004
 18  3 26  0 19  0.0000000  0 11G14G18G10G22G11G03G32G28G08G27G01
  -7454166.03644  -5788470.74146  22313010.167    22313009.5514   22313012.4694
        43.2004         40.6004
 -16854988.27746 -13116218.24747  19917270.042    19917270.6444   19917273.3274
        49.1004         46.3004
    987246.63143    799175.15345  24464019.977    24464018.8924   24464020.6214
        37.6004         35.3004
 -16857063.72446 -13111139.45447  20952019.082    20952018.6124   20952019.0834
        48.1004         45.2004
 -13326151.23046 -10371116.95647  20074768.020    20074767.6014   20074769.7504
        48.2004         45.6004
 -11311646.07745  -8789529.52647  21984123.302    21984124.0174   21984129.0924
        46.3004         43.3004
 -10574380.89045  -8223100.59346  22531276.260    22531276.4394   22531281.1804
        44.6004         41.8004
  -7113874.08843  -5532706.38546  23055921.508    23055921.4124   23055923.3424
        40.3004         37.9004
 -11087360.29646  -8619117.29847  21510131.347    21510131.5154   21510136.9324
        48.1004         45.1004
   5134620.02942   4012779.06845  24493722.508    24493723.5374   24493727.9854
        36.8004         34.6004
 -17684663.73947 -13762727.04947  20474451.660    20474452.0594   20474457.2614
        50.3004         47.5004
 18  3 26  0 19 30.0000000  0 11G14G18G10G22G11G03G32G28G08G27G01
  -7487948.50044  -5814794.71646  22306582.009    22306580.1184   22306583.2774
        43.4004         40.6004
 -16841472.78846 -13105686.70847  19919842.276    19919842.2424   19919845.0554
        49.1004         46.3004
   1090282.02342    879462.49745  24483627.205    24483626.9254   24483628.6424
        37.5004         35.5004
 -16902273.83246 -13146368.10347  20943416.129    20943415.0004   20943416.2604
        48.1004         45.2004
 -13345694.19046 -10386345.24247  20071049.099    20071048.8724   20071050.5504
        48.2004         45.6004
 -11396509.84945  -8855657.12747  21967973.979    21967974.2744   21967979.7204
        46.2004         43.2004
 -10555335.99845  -8208260.42946  22534899.740    22534900.6514   22534905.7024
        44.6004         41.8004
  -7102271.52644  -5523665.46046  23058129.975    23058129.6034   23058131.4414
        40.6004         38.3004
 -11010859.81246  -8559506.54047  21524689.492    21524689.5544   21524694.5244
        48.2004         45.2004
   5248353.40142   4101402.43445  24515365.897    24515365.5364   24515371.6724
        37.1004         35.2004
 -17719681.93547 -13790013.95547  20467787.908    20467787.9674   20467793.3844
        50.3004         47.3004
 18  3 26  0 20  0.0000000  0 11G14G18G10G22G11G03G32G28G08G27G01
  -7521205.41544  -5840709.18246  22300250.491    22300252.1164   22300253.7274
        43.2004         40.4004
 -16827517.95746 -13094812.81547  19922497.937    19922497.8544   19922500.9654
        49.1004         46.3004
   1193383.43143    959801.23445  24503244.378    24503245.7204   24503248.8294
        37.6004         35.7004
 -16947073.38746 -13181276.84247  20934890.692    20934890.3644   20934890.9204
        48.1004         45.2004
 -13364722.36746 -10401172.39947  20067428.066    20067427.8604   20067429.3744
        48.2004         45.6004
 -11481051.45445  -8921533.66947  21951886.051    21951886.4264   21951890.7984
        46.0004         43.0004
 -10535698.56945  -8192958.53946  22538637.062    22538638.2284   22538642.2844
        44.6004         41.9004
  -7090144.34544  -5514215.72946  23060437.200    23060436.7214   23060438.6074
        40.8004         38.3004
 -10933948.98246  -8499576.02647  21539325.681    21539325.2464   21539330.0924
        48.2004         45.2004
   5362167.61842   4190088.83145  24537026.131    24537024.5514   24537029.9584
        37.1004         35.0004
 -17754346.89847 -13817025.60547  20461191.159    20461191.5334   20461197.0934
        50.3004         47.3004
 18  3 26  0 20 30.0000000  0 11G14G18G10G22G11G03G32G28G08G27G01
  -7553935.50744  -5866213.13846  22294024.982    22294024.2064   22294025.8634
        43.2004         40.7004
 -16813123.86446 -13083596.64147  19925236.967    19925236.9154   19925240.2864
        49.1004         46.3004
   1296549.19243   1040190.12745  24522876.640    24522877.0354   24522879.3844
        37.8004         35.5004
 -16991462.31946 -13215865.61047  20926444.631    20926443.2904   20926443.8904
        48.2004         45.2004
 -13383234.72246 -10415597.60947  20063904.729    20063904.6924   20063906.9014
        48.2004         45.4004
 -11565269.52545  -8987158.13047  21935859.489    21935860.1534   21935865.7234
        46.0004         43.2004
 -10515469.22445  -8177195.39247  22542486.787    22542487.2184   22542492.4754
        44.8004         42.1004
  -7077493.58844  -5504358.01646  23062844.100    23062843.8044   23062846.7774
        40.8004         38.3004
 -10856629.64546  -8439327.19847  21554038.283    21554038.7584   21554043.3234
        48.2004         45.1004
   5476060.74542   4278836.72745  24558697.989    24558697.9144   24558701.6284
        37.5004         35.3004
 -17788657.86947 -13843761.43547  20454662.451    20454662.6684   20454667.8634
        50.3004         47.5004
 18  3 26  0 21  0.0000000  0 11G14G18G10G22G11G03G32G28G08G27G01
  -7586137.09344  -5891305.27346  22287897.255    22287896.8234   22287898.0274
        43.4004         40.9004
 -16798290.39846 -13072038.10247  19928059.675    19928060.0174   19928062.5424
        49.1004         46.3004
   1399777.56743   1120627.81345  24542519.727    24542521.9134   24542523.6034
        37.8004         35.5004
 -17035440.13846 -13250134.04047  20918075.623    20918074.9934   20918075.1514
        48.2004         45.4004
 -13401229.88746 -10429619.82647  20060481.310    20060480.6834   20060482.2124
        48.2004         45.6004
 -11649162.82245  -9052529.51547  21919896.292    21919896.4444   21919900.5284
        46.2004         43.3004
 -10494648.60245  -8160971.52247  22546449.327    22546449.5834   22546454.9384
        44.9004         42.3004
  -7064319.68144  -5494092.62046  23065351.043    23065350.7644   23065354.3074
        40.9004         38.3004
 -10778903.07046  -8378761.04547  21568829.244    21568829.3534   21568834.3104
        48.1004         45.1004
   5590030.77142   4367644.53745  24580385.222    24580385.0954   24580390.2194
        37.5004         35.3004
 -17822614.09347 -13870220.82647  20448200.660    20448200.9794   20448206.2284
        50.5004         47.5004
 18  3 26  0 21 30.0000000  0 11G14G18G10G22G11G03G32G28G08G27G01
  -7617809.28845  -5915984.91546  22281869.075    22281868.8534   22281871.0874
        43.6004         40.7004
 -16783017.80046 -13060137.38547  19930966.181    19930966.3764   19930968.8344
        49.1004         46.3004
   1503066.90842   1201113.02545  24562176.834    24562176.0334   24562178.2454
        37.3004         35.2004
 -17079006.84946 -13284082.12047  20909785.312    20909784.5114   20909784.8974
        48.4004         45.6004
 -13418707.08146 -10443238.41947  20057155.053    20057154.8334   20057156.6524
        48.2004         45.6004
 -11732730.02645  -9117646.80247  21903994.098    21903993.5954   21903998.1704
        46.2004         43.2004
 -10473237.39145  -8144287.46847  22550522.951    22550524.3314   22550528.9174
        44.9004         42.1004
  -7050623.19644  -5483420.04146  23067957.703    23067957.4344   23067959.4024
        40.6004         38.1004
 -10700771.31446  -8317879.16447  21583697.234    21583697.4774   21583702.4924
        48.1004         45.1004
   5704075.76242   4456510.74445  24602087.660    24602087.8554   24602094.1494
        37.5004         35.3004
 -17856214.85347 -13896403.22947  20441806.550    20441806.6024   20441812.3674
        50.5004         47.5004
 18  3 26  0 22  0.0000000  0 11G14G18G10G22G11G03G32G28G08G27G01
  -7648950.31145  -5940250.62746  22275943.330    22275943.6184   22275945.4504
        43.6004         40.7004
 -16767306.10946 -13047894.51147  19933955.670    19933955.8434   19933958.3214
        49.1004         46.1004
   1606415.50542   1281644.36945  24581841.602    24581840.6884   24581844.9684
        36.8004         34.8004
 -17122161.72246 -13317709.28847  20901572.758    20901572.4114   20901572.7404
        48.4004         45.6004
 -13435665.27146 -10456452.60547  20053927.653    20053927.7914   20053929.3694
        48.2004         45.4004
 -11815969.83745  -9182508.96947  21888153.561    21888154.0404   21888159.0714
        46.2004         43.5004
 -10451236.35345  -8127143.76747  22554710.875    22554710.6954   22554715.8454
        44.8004         42.1004
  -7036405.27844  -5472341.13746  23070664.279    23070663.0384   23070664.9014
        40.8004         38.1004
 -10622236.29546  -8256683.04447  21598641.511    21598641.9214   21598647.0924
        47.9004         45.1004
   5818193.64942   4545433.77845  24623804.037    24623803.0254   24623808.1394
        37.3004         35.2004
