     2.11           OBSERVATION DATA    G (GPS)             RINEX VERSION / TYPE
teqc  2016Nov7                          20180328 12:56:15UTCPGM / RUN BY / DATE
Linux 2.4.21-27.ELsmp|Opteron|gcc|Linux x86_64|=+           COMMENT
teqc  2016Nov7                          20180328 12:56:14UTCCOMMENT
     2.11           OBSERVATION DATA    M (MIXED)           COMMENT
teqc  2016Nov7                          20180328 12:56:12UTCCOMMENT
teqc  2016Nov7      IGN-RGP             20180221 09:14:32UTCCOMMENT
teqc  2015Jun23     IGN-RGP             20180221 09:07:07UTCCOMMENT
Linux2.4.20-8|i386|gcc|Win32-MinGW32|=                      COMMENT
   0.000      (antenna height)                              COMMENT
 +48.74122643 (latitude)                                    COMMENT
  +3.11041611 (longitude)                                   COMMENT
0219.653      (elevation)                                   COMMENT
BIT 2 OF LLI FLAGS DATA COLLECTED UNDER A/S CONDITION       COMMENT
19602M001 (COGO code)                                       COMMENT
SXJ1                                                        MARKER NAME
19602M001                                                   MARKER NUMBER
Automatic           GIE COOP&TECH                           OBSERVER / AGENCY
4909K60865          TRIMBLE NETR5       4.70                REC # / TYPE / VERS
99999               TRM57971.00     NONE                    ANT # / TYPE
  4208047.3850   228666.9550  4771795.1550                  APPROX POSITION XYZ
        1.3000        0.0000        0.0000                  ANTENNA: DELTA H/E/N
     1     1                                                WAVELENGTH FACT L1/2
     7    L1    L2    C1    P1    P2    S1    S2            # / TYPES OF OBSERV
    30.0000                                                 INTERVAL
    18                                                      LEAP SECONDS
 SNR is mapped to RINEX snr flag value [0-9]                COMMENT
  L1 & L2: min(max(int(snr_dBHz/6), 0), 9)                  COMMENT
teqc_2016 edited: GLONASS # 25 - 30 excluded                COMMENT
Forced Modulo Decimation to 30 seconds                      COMMENT
teqc_2016 edited: all GLONASS satellites excluded           COMMENT
teqc_2016 edited: all SBAS satellites excluded              COMMENT
teqc_2016 edited: all Galileo satellites excluded           COMMENT
  2018     2    21     8     0    0.0000000     GPS         TIME OF FIRST OBS
                                                            END OF HEADER
 18  2 21  8  0  0.0000000  0  8G02G07G23G09G30G06G16G05
 115230956.784 7  89790376.68246  21927726.438                    21927727.531
        47.300          37.500
 113437978.608 8  88393275.29146  21586532.172                    21586536.164
        51.100          40.500
 118650452.771 8  92454954.20445  22578437.281                    22578439.445
        49.600          33.500
 106433586.123 8  82935321.51647  20253640.969                    20253647.355
        52.300          46.100
 120503795.856 7  93899142.64045  22931117.281                    22931124.551
        47.900          33.800
 111460946.894 8  86852742.51347  21210322.750                    21210330.055
        50.000          42.100
 127205877.695 6  99121497.77043  24206477.117                    24206480.238
        40.900          21.500
 124455639.321 7  96978451.03844  23683127.648                    23683131.168
        43.000          26.700
 18  2 21  8  0 30.0000000  0  8G02G07G23G09G30G06G16G05
 115205736.211 7  89770724.28146  21922927.031                    21922928.551
        47.900          37.900
 113371466.107 8  88341447.37746  21573875.445                    21573879.414
        51.900          40.600
 118726550.449 8  92514251.06545  22592918.742                    22592920.555
        48.300          33.200
 106465368.142 8  82960086.71847  20259689.344                    20259695.328
        52.100          46.000
 120400760.418 8  93818855.32445  22911509.961                    22911517.254
        48.000          34.200
 111518575.932 8  86897648.25446  21221289.055                    21221296.484
        50.000          41.800
 127181885.066 6  99102802.20643  24201910.273                    24201914.172
        40.400          21.100
 124357281.691 7  96901808.74944  23664410.633                    23664414.660
        43.900          28.000
 18  2 21  8  1  0.0000000  0  8G02G07G23G09G30G06G16G05
 115181049.252 7  89751487.69446  21918228.883                    21918230.652
        47.300          37.400
 113305379.593 8  88289951.39946  21561299.633                    21561303.551
        52.400          40.800
 118802824.259 8  92573685.19145  22607432.461                    22607434.797
        48.600          33.300
 106497525.206 8  82985144.17047  20265808.422                    20265814.535
        51.900          46.000
 120297950.693 7  93738743.87945  22891946.273                    22891952.973
        47.200          33.700
 111576725.956 8  86942959.95147  21232354.867                    21232362.680
        48.800          42.000
 127158470.498 6  99084557.10143  24197455.164                    24197458.965
        39.200          22.600
 124259029.190 7  96825248.36344  23645714.008                    23645718.313
        44.500          28.100
 18  2 21  8  1 30.0000000  0  8G02G07G23G09G30G06G16G05
 115156896.908 8  89732667.67546  21913633.047                    21913634.563
        48.300          37.600
 113239720.960 8  88238788.82846  21548805.258                    21548809.125
        52.300          41.000
 118879273.170 8  92633255.75245  22621980.438                    22621982.441
        49.300          32.600
 106530056.322 8  83010493.08447  20271998.664                    20272004.805
        52.100          45.900
 120195369.258 7  93658810.33245  22872425.828                    22872432.641
        47.200          34.600
 111635395.176 8  86988676.22346  21243519.516                    21243527.031
        49.900          41.800
 127135635.824 6  99066763.89143  24193110.016                    24193113.676
        41.100          22.600
 124160883.401 7  96748771.14244  23627037.648                    23627041.574
        43.900          28.100
 18  2 21  8  2  0.0000000  0  8G02G07G23G09G30G06G16G05
 115133280.144 8  89714265.00446  21909138.609                    21909140.379
        48.000          37.600
 113174492.097 8  88187961.15246  21536392.344                    21536396.719
        51.800          41.100
 118955896.137 8  92692961.93745  22636561.383                    22636563.285
        48.100          32.000
 106562960.220 8  83036132.47547  20278260.047                    20278266.246
        51.300          45.700
 120093018.564 7  93579056.57945  22852948.617                    22852955.871
        47.000          33.900
 111694581.534 8  87034795.45447  21254782.289                    21254789.902
        48.900          42.000
 127113381.821 7  99049423.08443  24188874.820                    24188877.238
        42.500          20.600
 124062846.506 7  96672378.74844  23608381.273                    23608385.273
        45.800          27.500
 18  2 21  8  2 30.0000000  0  8G02G07G23G09G30G06G16G05
 115110200.169 8  89696280.60546  21904747.141                    21904748.574
        48.000          37.700
 113109694.588 8  88137469.58846  21524061.758                    21524065.742
        51.100          40.300
 119032692.240 8  92752803.02945  22651175.188                    22651177.113
        48.100          32.600
 106596236.006 8  83062061.64547  20284592.484                    20284598.375
        52.000          45.300
 119990901.281 7  93499484.71145  22833516.633                    22833523.523
        47.500          34.300
 111754283.372 8  87081316.35547  21266142.703                    21266150.609
        50.300          42.100
 127091710.329 7  99032536.16743  24184750.820                    24184754.371
        42.300          22.500
 123964918.966 7  96596071.59044  23589746.539                    23589750.402
        43.600          26.700
 18  2 21  8  3  0.0000000  0  8G02G07G23G09G30G06G16G05
 115087657.753 7  89678715.08246  21900457.328                    21900458.719
        47.600          37.500
 113045330.103 8  88087315.45046  21511813.898                    21511817.484
        51.200          40.500
 119109659.800 8  92812777.75645  22665821.898                    22665823.863
        48.400          32.500
 106629882.296 8  83088279.52947  20290995.180                    20291001.172
        52.300          45.900
 119889019.699 7  93420096.50445  22814128.953                    22814136.230
        47.200          34.600
 111814498.426 8  87128237.18046  21277601.469                    21277608.891
        50.000          41.800
 127070622.419 6  99016104.03943  24180738.594                    24180742.086
        39.800          22.500
 123867103.274 7  96519851.55244  23571132.234                    23571136.613
        44.600          28.800
 18  2 21  8  3 30.0000000  0  8G02G07G23G09G30G06G16G05
 115065653.970 8  89661569.27546  21896270.125                    21896271.461
        48.000          37.500
 112981400.711 8  88037500.34246  21499648.414                    21499652.863
        51.600          39.900
 119186798.069 8  92872885.46445  22680500.797                    22680502.887
        48.500          32.600
 106663898.175 8  83114785.40247  20297468.117                    20297473.898
        52.300          46.300
 119787376.531 7  93340894.07945  22794787.266                    22794794.270
        47.800          35.100
 111875225.023 8  87175556.60246  21289157.500                    21289164.977
        49.400          41.700
 127050119.808 6  99000128.04843  24176836.883                    24176839.609
        40.200          20.600
 123769400.875 7  96443719.82644  23552540.125                    23552544.359
        44.700          27.900
 18  2 21  8  4  0.0000000  0  8G02G07G23G09G30G06G16G05
 115044189.624 8  89644843.80546  21892185.641                    21892187.160
        48.100          38.100
 112917908.090 8  87988025.57646  21487565.797                    21487570.348
        51.500          39.600
 119264105.935 8  92933125.34245  22695211.727                    22695214.074
        48.400          32.700
 106698282.351 8  83141578.26247  20304010.953                    20304017.574
        52.200          45.800
 119685974.179 7  93261879.30145  22775490.320                    22775498.074
        47.900          35.300
 111936461.046 8  87223272.98246  21300810.375                    21300817.105
        49.100          41.500
 127030203.641 7  98984608.92443  24173047.047                    24173049.188
        42.500          22.000
 123671812.232 7  96367676.74744  23533970.172                    23533974.156
        45.600          28.100
 18  2 21  8  4 30.0000000  0  8G02G07G23G09G30G06G16G05
 115023265.577 8  89628539.34746  21888203.945                    21888205.363
        48.200          37.900
 112854854.141 8  87938892.62646  21475567.039                    21475571.285
        51.200          39.400
 119341582.395 8  92993496.59945  22709954.773                    22709957.516
        48.000          32.100
 106733033.958 8  83168657.43547  20310624.094                    20310630.559
        52.700          46.000
 119584815.345 8  93183054.26945  22756240.641                    22756248.086
        48.300          35.300
 111998204.711 8  87271384.93147  21312560.000                    21312567.191
        49.600          42.000
 127010875.105 6  98969547.68243  24169369.250                    24169371.867
        41.800          22.000
 123574339.776 7  96291724.20744  23515421.641                    23515425.152
        45.300          27.400
 18  2 21  8  5  0.0000000  0  8G02G07G23G09G30G06G16G05
 115002882.203 8  89612656.19546  21884325.125                    21884327.016
        48.600          37.900
 112792239.983 8  87890102.38246  21463652.063                    21463656.188
        50.900          39.300
 119419225.870 7  93053997.98445  22724730.453                    22724732.270
        47.400          32.100
 106768151.504 9  83196021.74447  20317306.836                    20317313.047
        54.000          45.800
 119483902.159 7  93104420.66245  22737037.898                    22737044.777
        47.800          35.700
 112060453.671 8  87319890.60846  21324405.586                    21324412.785
        50.300          41.800
 126992135.348 6  98954945.29043  24165802.688                    24165806.160
        40.700          21.800
 123476985.500 7  96215863.73244  23496895.680                    23496899.512
        45.100          27.900
 18  2 21  8  5 30.0000000  0  8G02G07G23G09G30G06G16G05
 114983040.853 8  89597195.39346  21880549.906                    21880551.168
        48.500          37.900
 112730067.455 8  87841656.26746  21451820.930                    21451825.309
        51.300          39.400
 119497035.204 8  93114628.62245  22739537.016                    22739539.195
        48.400          33.200
 106803633.810 8  83223670.28447  20324059.063                    20324065.098
        52.600          46.000
 119383237.136 8  93025980.42145  22717881.844                    22717888.609
        48.000          35.800
 112123205.877 8  87368788.41847  21336347.000                    21336354.324
        48.800          42.100
 126973985.570 6  98940802.61643  24162348.750                    24162352.383
        41.700          22.200
 123379751.165 7  96140096.73744  23478392.875                    23478396.371
        45.100          28.600
 18  2 21  8  6  0.0000000  0  8G02G07G23G09G30G06G16G05
 114963742.444 8  89582157.66646  21876877.063                    21876878.484
        48.000          37.900
 112668338.459 8  87793555.75546  21440074.641                    21440078.418
        52.000          39.500
 119575009.521 8  93175387.81145  22754374.891                    22754377.516
        48.000          33.100
 106839479.930 8  83251602.32347  20330880.219                    20330886.754
        52.500          46.000
 119282822.974 7  92947735.66946  22698773.281                    22698781.051
        46.400          37.300
 112186459.448 8  87418076.90047  21348383.680                    21348390.828
        49.300          42.400
 126956427.119 7  98927120.69943  24159007.625                    24159010.738
        42.100          20.600
 123282637.859 7  96064424.03644  23459912.789                    23459916.770
        42.700          27.800
 18  2 21  8  6 30.0000000  0  8G02G07G23G09G30G06G16G05
 114944987.657 8  89567543.53946  21873308.359                    21873309.555
        48.400          37.600
 112607054.682 8  87745802.15546  21428412.680                    21428416.180
        51.500          39.200
 119653148.092 7  93236274.98945  22769244.555                    22769246.879
        47.800          33.400
 106875688.916 8  83279817.10947  20337770.695                    20337776.711
        53.400          46.300
 119182662.303 7  92869688.44446  22679713.680                    22679721.086
        47.900          36.600
 112250212.585 8  87467754.65546  21360515.633                    21360522.168
        50.500          41.800
 126939461.384 6  98913900.65643  24155779.938                    24155782.176
        40.900          21.500
 123185646.924 7  95988846.69844  23441455.492                    23441459.609
        44.800          27.700
 18  2 21  8  7  0.0000000  0  8G02G07G23G09G30G06G16G05
 114926777.596 8  89553353.86846  21869842.672                    21869844.375
        48.100          38.300
 112546217.707 8  87698396.72546  21416835.633                    21416839.695
        52.100          39.300
 119731449.342 7  93297288.94345  22784144.617                    22784146.871
        47.300          33.200
 106912259.407 8  83308313.59547  20344729.969                    20344736.090
        53.800          45.600
 119082757.391 7  92791840.49846  22660702.531                    22660709.461
        47.600          37.300
 112314462.950 8  87517819.86147  21372742.172                    21372749.129
        49.900          42.100
 126923089.206 6  98901143.14243  24152663.648                    24152668.418
        39.800          21.800
 123088780.204 7  95913366.15644  23423022.508                    23423026.488
        45.700          28.700
 18  2 21  8  7 30.0000000  0  8G02G07G23G09G30G06G16G05
 114909112.203 8  89539588.62146  21866481.133                    21866482.750
        48.100          37.900
 112485829.118 8  87651340.67946  21405344.141                    21405347.809
        52.700          39.600
 119809912.247 7  93358428.85145  22799075.227                    22799078.129
        47.600          33.300
 106949190.219 8  83337090.83747  20351757.641                    20351763.500
        53.400          45.700
 118983110.726 7  92714193.77946  22641740.195                    22641747.508
        47.000          37.400
 112379208.461 8  87568270.89646  21385062.531                    21385069.754
        49.900          41.500
 126907311.839 6  98888849.09643  24149661.117                    24149666.199
        39.200          22.500
 122992039.468 7  95837983.78144  23404613.336                    23404617.473
        43.100          28.900
 18  2 21  8  8  0.0000000  0  8G02G07G23G09G30G06G16G05
 114891993.024 8  89526248.98446  21863223.578                    21863225.102
        48.300          37.900
 112425890.581 8  87604635.32946  21393938.422                    21393942.223
        51.900          40.000
 119888535.598 8  93419693.77245  22814037.273                    22814039.891
        48.100          33.100
 106986480.171 8  83366147.93747  20358853.461                    20358859.668
        53.400          45.500
 118883724.734 8  92636750.18446  22622827.555                    22622834.883
        48.500          37.400
 112444446.938 8  87619106.06646  21397476.828                    21397484.277
        50.800          41.100
 126892130.441 6  98877019.42643  24146772.508                    24146775.750
        37.100          20.100
 122895426.605 7  95762701.04244  23386228.469                    23386232.918
        46.300          29.500
 18  2 21  8  8 30.0000000  0  8G02G07G23G09G30G06G16G05
 114875420.398 8  89513335.24946  21860070.250                    21860071.648
        48.700          37.300
 112366403.743 8  87558281.96346  21382618.305                    21382622.473
        51.900          40.600
 119967318.404 7  93481082.97845  22829028.922                    22829032.027
        47.000          33.200
 107024128.120 9  83395484.00247  20366017.289                    20366023.691
        54.100          45.600
 118784601.878 7  92559511.63046  22603964.891                    22603972.504
        46.400          38.100
 112510176.309 8  87670323.74346  21409984.930                    21409992.035
        50.200          41.100
 126877545.671 6  98865654.66243  24143997.203                    24144000.430
        38.900          20.400
 122798943.065 7  95687519.08545  23367868.516                    23367872.789
        42.900          30.200
 18  2 21  8  9  0.0000000  0  8G02G07G23G09G30G06G16G05
 114859394.853 8  89500847.80646  21857020.539                    21857022.355
        48.100          37.500
 112307369.801 8  87512281.49246  21371384.445                    21371388.641
        52.200          40.100
 120046259.381 7  93542595.38945  22844051.031                    22844053.957
        47.000          32.400
 107062132.683 8  83425097.94347  20373249.711                    20373255.809
        52.300          45.500
 118685744.369 8  92482479.84046  22585153.156                    22585160.203
        48.200          37.900
 112576394.159 8  87721922.05446  21422585.664                    21422593.051
        49.000          41.400
 126863558.758 6  98854755.80943  24141335.094                    24141338.930
        40.200          21.100
 122702590.418 7  95612439.11245  23349532.836                    23349537.281
        46.300          30.500
 18  2 21  8  9 30.0000000  0  8G02G07G23G09G30G06G16G05
 114843917.464 8  89488787.49246  21854075.266                    21854076.703
        48.700          37.800
 112248790.749 8  87466635.47546  21360237.281                    21360241.133
        52.800          40.900
 120125357.819 7  93604230.52745  22859103.023                    22859105.387
        47.200          33.200
 107100493.101 8  83454989.16647  20380549.602                    20380555.574
        52.900          45.900
 118587155.164 8  92405657.10446  22566392.313                    22566399.297
        48.900          38.000
 112643098.715 8  87773899.60146  21435278.820                    21435286.039
        50.000          40.900
 126850170.936 7  98844323.73643  24138787.789                    24138792.012
        42.600          21.300
 122606370.134 7  95537462.26344  23331222.625                    23331227.000
        45.900          29.700
 18  2 21  8 10  0.0000000  0  8G02G07G23G09G30G06G16G05
 114828988.747 8  89477154.71946  21851234.414                    21851236.078
        49.000          37.500
 112190668.102 8  87421345.09546  21349177.164                    21349180.973
        51.900          40.700
 120204612.243 7  93665987.20845  22874184.539                    22874187.094
        46.600          31.800
 107139208.052 8  83485156.65947  20387916.734                    20387922.504
        52.000          45.700
 118488836.519 8  92329045.19146  22547682.563                    22547689.703
        48.900          37.900
 112710287.701 7  87826254.62446  21448065.000                    21448072.082
        47.800          41.200
 126837383.210 6  98834359.30043  24136354.602                    24136358.715
        39.800          20.100
 122510284.040 7  95462589.99344  23312938.164                    23312942.883
        46.800          29.700
 18  2 21  8 10 30.0000000  0  8G02G07G23G09G30G06G16G05
 114814609.093 8  89465949.79146  21848498.117                    21848499.316
        48.500          38.000
 112133003.009 8  87376411.25246  21338203.656                    21338207.918
        51.900          40.900
 120284021.657 7  93727864.64145  22889295.898                    22889298.465
        46.200          32.600
 107178276.190 8  83515599.35247  20395351.180                    20395357.207
        52.800          45.800
 118390790.697 8  92252645.87546  22529025.422                    22529032.473
        48.500          37.900
 112777958.686 8  87878985.21646  21460942.289                    21460949.461
        48.400          40.000
 126825196.347 6  98824863.07043  24134035.641                    24134038.273
        39.200          19.000
 122414333.532 7  95387823.38745  23294679.188                    23294683.648
        46.200          30.200
 18  2 21  8 11  0.0000000  0  8G02G07G23G09G30G06G16G05
 114800779.440 8  89455173.42246  21845866.320                    21845868.148
        48.400          38.000
 112075797.284 8  87331835.35346  21327317.750                    21327321.949
        52.100          40.800
 120363585.169 7  93789862.17545  22904436.523                    22904439.094
        45.700          32.300
 107217696.515 9  83546316.48747  20402852.516                    20402858.805
        54.300          45.600
 118293020.353 8  92176461.22946  22510420.570                    22510427.652
        49.500          38.300
 112846109.685 8  87932089.85046  21473911.047                    21473917.969
        49.100          41.300
 126813611.015 6  98815835.54143  24131829.875                    24131834.051
        39.200          19.900
 122318520.931 7  95313164.21845  23276447.242                    23276451.539
        47.300          30.600
 18  2 21  8 11 30.0000000  0  8G02G07G23G09G30G06G16G05
 114787500.045 7  89444825.83846  21843339.242                    21843341.004
        47.300          37.100
 112019052.243 8  87287618.43146  21316519.352                    21316523.555
        52.200          40.300
 120443301.349 7  93851978.66545  22919605.703                    22919608.262
        45.300          32.800
 107257467.637 9  83577306.96547  20410420.898                    20410427.055
        54.200          45.900
 118195527.639 8  92100492.89546  22491868.141                    22491874.750
        50.000          38.000
 112914738.196 8  87985566.57546  21486970.711                    21486977.531
        50.300          41.000
 126802628.296 6  98807277.54743  24129740.305                    24129744.023
        41.800          19.900
 122222847.631 7  95238613.61545  23258241.063                    23258245.234
        46.300          31.100
 18  2 21  8 12  0.0000000  0  8G02G07G23G09G30G06G16G05
 114774771.499 8  89434907.47846  21840916.938                    21840918.617
        48.200          37.300
 111962769.525 8  87243761.75146  21305809.172                    21305813.434
        52.100          40.900
 120523169.625 7  93914213.67445  22934803.766                    22934806.754
        45.100          32.800
 107297588.547 9  83608570.00347  20418055.797                    20418061.488
        54.500          45.700
 118098315.145 8  92024742.92246  22473369.211                    22473375.863
        48.800          38.300
 112983842.189 8  88039413.78446  21500120.656                    21500127.656
        50.200          41.000
 126792249.126 6  98799189.85843  24127765.609                    24127768.375
        39.200          19.600
 122127314.986 7  95164172.60045  23240061.805                    23240066.043
        47.200          30.800
 18  2 21  8 12 30.0000000  0  8G02G07G23G09G30G06G16G05
 114762594.357 7  89425418.79146  21838599.781                    21838601.563
        47.100          37.300
 111906950.764 8  87200266.60646  21295187.133                    21295191.316
        52.300          41.100
 120603188.544 7  93976566.05745  22950031.141                    22950033.496
        45.300          31.900
 107338058.010 8  83640104.63447  20425756.633                    20425762.645
        53.700          45.800
 118001385.358 8  91949213.24146  22454923.805                    22454930.961
        50.000          38.600
 113053419.329 8  88093629.68046  21513360.828                    21513368.125
        50.000          41.100
 126782474.179 6  98791573.05343  24125905.492                    24125909.004
        37.200          19.900
 122031925.261 7  95089842.96645  23221909.375                    23221914.320
        47.300          31.000
 18  2 21  8 13  0.0000000  0  8G02G07G23G09G30G06G16G05
 114750969.620 7  89416360.55146  21836387.906                    21836389.391
        47.800          37.500
 111851597.102 8  87157133.89446  21284653.875                    21284657.801
        52.100          40.700
 120683357.298 7  94039035.19945  22965286.844                    22965288.902
        46.400          31.800
 107378875.092 9  83671910.15047  20433523.773                    20433530.031
        54.000          45.900
 117904740.859 8  91873905.86646  22436532.930                    22436540.254
        50.300          37.800
 113123467.665 8  88148212.77146  21526690.781                    21526697.859
        50.300          40.800
 126773304.664 6  98784427.98643  24124159.992                    24124164.172
        39.400          20.100
 121936680.065 7  95015625.94145  23203785.063                    23203789.547
        47.200          30.600
 18  2 21  8 13 30.0000000  0  8G02G07G23G09G30G06G16G05
 114739897.502 7  89407732.91246  21834280.859                    21834282.816
        47.400          37.900
 111796710.601 8  87114365.20446  21274209.383                    21274213.445
        52.200          41.000
 120763674.822 7  94101620.28345  22980570.711                    22980573.363
        46.300          31.400
 107420038.561 9  83703985.57547  20441356.953                    20441363.121
        54.100          45.200
 117808384.038 8  91798822.65646  22418196.859                    22418203.891
        49.600          38.300
 113193984.777 8  88203161.15046  21540109.688                    21540116.629
        50.700          40.800
 126764741.691 6  98777755.54043  24122530.672                    24122534.227
        39.300          19.900
 121841579.822 7  94941521.86945  23185687.875                    23185692.344
        47.400          31.000
 18  2 21  8 14  0.0000000  0  8G02G07G23G09G30G06G16G05
 114729378.217 7  89399536.06546  21832279.047                    21832280.895
        47.400          37.300
 111742292.071 8  87071961.16046  21263853.742                    21263857.902
        52.600          41.300
 120844139.794 7  94164320.24445  22995882.586                    22995885.117
        45.700          31.400
 107461546.907 9  83736329.73147  20449255.773                    20449262.031
        54.200          46.200
 117712316.977 8  91723965.21846  22399915.844                    22399922.879
        49.500          37.200
 113264968.130 8  88258472.86146  21553617.258                    21553624.141
        50.200          40.900
 126756785.231 6  98771555.66743  24121016.852                    24121019.941
        41.100          19.600
 121746627.730 7  94867533.23545  23167619.414                    23167623.773
        47.900          31.800
 18  2 21  8 14 30.0000000  0  8G02G07G23G09G30G06G16G05
 114719412.784 7  89391770.78546  21830383.211                    21830384.480
        47.000          37.700
 111688343.085 8  87029923.00146  21253587.398                    21253591.531
        52.400          40.600
 120924751.266 7  94227134.35845  23011222.633                    23011225.199
        45.900          30.800
 107503399.234 9  83768941.92547  20457219.938                    20457226.004
        54.400          45.700
 117616542.320 8  91649335.63646  22381690.109                    22381697.676
        48.900          37.800
 113336415.578 8  88314146.19546  21567213.133                    21567220.496
        49.700          40.100
 126749436.369 6  98765829.27643  24119618.047                    24119621.297
        39.400          20.400
 121651825.837 7  94793661.65245  23149579.563                    23149583.195
        47.000          31.900
 18  2 21  8 15  0.0000000  0  8G02G07G23G09G30G06G16G05
 114710001.106 7  89384437.00046  21828591.906                    21828593.313
        47.200          37.900
 111634864.824 8  86988251.64246  21243411.133                    21243414.699
        52.600          41.400
 121005508.002 7  94290061.66545  23026590.133                    23026592.109
        46.400          31.300
 107545594.141 9  83801821.06547  20465249.383                    20465255.813
        54.500          45.000
 117521062.292 8  91574935.63546  22363521.359                    22363527.988
        48.700          37.700
 113408324.528 8  88370179.11746  21580896.719                    21580904.293
        50.600          40.500
 126742695.804 6  98760576.84543  24118335.781                    24118338.398
        40.800          20.900
 121557175.270 7  94719907.97945  23131567.828                    23131571.848
        47.800          31.000
 18  2 21  8 15 30.0000000  0  8G02G07G23G09G30G06G16G05
 114701144.080 7  89377535.41946  21826906.328                    21826907.984
        46.600          37.600
 111581859.094 8  86946948.49446  21233324.531                    21233328.410
        53.200          41.000
 121086409.409 7  94353101.70945  23041984.883                    23041987.363
        46.500          31.800
 107588130.709 9  83834966.43947  20473343.859                    20473349.547
        54.400          45.800
 117425879.549 8  91500767.28846  22345408.883                    22345415.535
        49.300          37.700
 113480692.940 8  88426570.03546  21594668.141                    21594675.188
        48.800          40.000
 126736563.958 6  98755798.79943  24117168.641                    24117171.867
        40.400          21.300
 121462677.826 7  94646273.61645  23113585.156                    23113589.555
        47.500          31.500
 18  2 21  8 16  0.0000000  0  8G02G07G23G09G30G06G16G05
 114692842.079 7  89371066.32046  21825326.813                    21825327.973
        46.900          38.100
 111529327.423 8  86906014.72846  21223327.859                    21223331.719
        53.100          41.800
 121167454.507 7  94416253.70245  23057407.492                    23057409.684
        46.400          31.500
 107631007.734 9  83868377.09647  20481503.289                    20481509.477
        54.100          45.600
 117330996.503 8  91426832.47946  22327352.602                    22327359.926
        48.700          37.400
 113553518.448 8  88483317.13246  21608526.398                    21608533.922
        49.500          39.500
 126731041.883 6  98751495.90543  24116117.641                    24116121.594
        40.500          21.500
 121368334.310 7  94572759.20645  23095632.445                    23095637.051
        46.500          31.600
 18  2 21  8 16 30.0000000  0  8G02G07G23G09G30G06G16G05
 114685095.261 7  89365029.82846  21823852.094                    21823853.863
        46.100          37.200
 111477270.657 8  86865451.01946  21213421.891                    21213426.066
        53.000          41.600
 121248641.898 7  94479516.58345  23072857.297                    23072858.848
        46.900          31.300
 107674223.977 9  83902052.07747  20489726.789                    20489732.773
        54.500          45.200
 117236415.467 8  91353132.99846  22309354.211                    22309361.574
        48.500          37.500
 113626798.714 8  88540418.58346  21622471.148                    21622478.570
        50.000          39.300
 126726130.057 6  98747668.49043  24115183.656                    24115186.918
        40.900          22.000
 121274147.363 7  94499366.78945  23077708.883                    23077713.504
        47.000          31.100
 18  2 21  8 17  0.0000000  0  8G02G07G23G09G30G06G16G05
 114677904.111 7  89359426.32646  21822484.078                    21822485.531
        45.700          37.500
 111425690.338 8  86825258.56946  21203606.336                    21203610.449
        52.900          41.000
 121329970.552 7  94542889.53045  23088333.617                    23088335.594
        46.700          31.800
 107717778.191 9  83935990.41747  20498015.117                    20498021.191
        54.700          45.400
 117142138.735 8  91279670.63546  22291414.281                    22291421.273
        49.100          37.800
 113700531.225 8  88597872.46146  21636502.008                    21636509.281
        49.300          39.200
 126721829.077 6  98744317.05943  24114364.188                    24114368.852
        41.600          22.300
 121180118.776 7  94426097.77045  23059815.938                    23059820.391
        46.400          31.100
 18  2 21  8 17 30.0000000  0  8G02G07G23G09G30G06G16G05
 114671268.615 7  89354255.80446  21821221.250                    21821223.027
        46.000          37.900
 111374587.800 8  86785438.41646  21193881.906                    21193885.820
        52.900          41.800
 121411439.339 7  94606371.66945  23103836.766                    23103838.418
        46.800          30.700
 107761669.244 8  83970191.23947  20506367.305                    20506373.176
        53.200          45.000
 117048168.752 8  91206447.31346  22273532.469                    22273539.594
        49.400          37.600
 113774713.599 8  88655676.85146  21650618.531                    21650626.023
        48.600          39.400
 126718139.619 7  98741442.17143  24113662.703                    24113667.039
        42.400          22.800
 121086250.746 7  94352953.86945  23041953.438                    23041958.043
        47.300          31.400
 18  2 21  8 18  0.0000000  0  8G02G07G23G09G30G06G16G05
 114665189.366 7  89349518.71446  21820064.305                    21820066.313
        46.000          38.000
 111323964.313 8  86745991.55346  21184248.594                    21184252.984
        52.500          41.100
 121493047.496 7  94669962.43344  23119366.047                    23119367.785
        46.800          29.400
 107805895.921 8  84004653.57747  20514783.250                    20514789.797
        53.200          44.700
 116954507.801 8  91133464.77746  22255709.469                    22255716.301
        48.800          38.100
 113849343.369 8  88713829.85746  21664819.992                    21664827.363
        48.900          39.700
 126715062.261 6  98739044.22943  24113075.836                    24113081.773
        40.900          22.500
 120992543.990 7  94279935.62545  23024121.391                    23024126.156
        46.400          31.700
 18  2 21  8 18 30.0000000  0  8G02G07G23G09G30G06G16G05
 114659666.754 7  89345215.37846  21819013.625                    21819015.156
        45.800          37.400
 111273821.082 8  86706918.91446  21174706.664                    21174710.586
        51.900          41.000
 121574794.001 7  94733660.98645  23134921.406                    23134923.461
        46.300          30.600
 107850456.929 8  84039376.43047  20523263.070                    20523269.305
        53.200          45.100
 116861158.221 7  91060724.86946  22237945.594                    22237952.367
        47.900          38.100
 113924418.096 8  88772329.57446  21679106.375                    21679113.898
        49.800          40.000
 126712597.249 6  98737123.43843  24112607.750                    24112612.180
        39.500          22.900
 120899001.146 7  94207045.10545  23006320.594                    23006325.629
        46.600          31.900
 18  2 21  8 19  0.0000000  0  8G02G07G23G09G30G06G16G05
 114654701.002 7  89341345.95146  21818068.664                    21818070.211
        46.600          37.400
 111224159.592 8  86668221.66146  21165256.281                    21165260.340
        52.100          40.900
 121656677.787 7  94797466.51045  23150503.844                    23150505.645
        46.500          30.500
 107895351.236 8  84074359.00447  20531805.813                    20531812.434
        53.700          44.900
 116768122.483 8  90988229.50846  22220241.203                    22220248.188
        48.800          38.100
 113999935.452 8  88831174.18846  21693477.156                    21693484.254
        48.900          39.700
 126710745.313 6  98735680.34843  24112255.625                    24112259.559
        40.200          22.200
 120805623.517 7  94134283.33245  22988551.906                    22988556.480
        47.300          31.900
 18  2 21  8 19 30.0000000  0  8G02G07G23G09G30G06G16G05
 114650292.248 7  89337910.55446  21817229.781                    21817231.504
        46.500          37.900
 111174980.982 8  86629900.68046  21155897.891                    21155902.070
        51.000          41.300
 121738697.925 7  94861378.26145  23166112.141                    23166113.469
        47.000          30.200
 107940577.520 8  84109600.26347  20540411.961                    20540418.910
        53.200          45.000
 116675402.792 8  90915980.41346  22202597.203                    22202604.383
        48.700          37.700
 114075892.923 8  88890361.76946  21707930.930                    21707938.746
        48.400          39.200
 126709506.875 6  98734715.32943  24112020.797                    24112023.961
        41.400          23.300
 120712412.981 7  94061651.76145  22970814.180                    22970818.836
        46.300          32.400
 18  2 21  8 20  0.0000000  0  8G02G07G23G09G30G06G16G05
 114646440.730 7  89334909.36346  21816496.508                    21816498.754
        46.800          37.700
 111126286.452 8  86591956.90246  21146631.508                    21146635.484
        52.300          40.600
 121820853.386 8  94925395.49445  23181745.398                    23181747.328
        48.400          30.700
 107986134.545 8  84145099.23247  20549081.352                    20549088.035
        52.900          44.400
 116583001.570 8  90843979.47746  22185014.070                    22185020.719
        48.500          38.100
 114152287.989 8  88949890.32746  21722468.953                    21722476.605
        48.700          38.800
 126708882.310 6  98734228.66143  24111901.016                    24111904.555
        39.300          23.000
 120619371.296 7  93989151.75645  22953109.398                    22953113.730
        46.700          32.200
 18  2 21  8 20 30.0000000  0  8G02G07G23G09G30G06G16G05
 114643146.841 7  89332342.69446  21815869.789                    21815871.527
        46.200          37.900
 111078077.510 8  86554391.49746  21137457.617                    21137461.625
        50.900          41.000
 121903143.152 7  94989517.36244  23197405.055                    23197406.570
        46.700          29.800
 108032021.393 8  84180855.20747  20557813.344                    20557819.465
        52.100          44.600
 116490921.254 8  90772228.60846  22167491.758                    22167498.535
        49.000          38.600
 114229118.381 7  89009758.10046  21737089.555                    21737096.852
        47.900          39.400
 126708871.972 6  98734220.60043  24111899.352                    24111902.426
        39.200          22.800
 120526500.462 7  93916784.88845  22935436.313                    22935440.547
        47.300          32.500
 18  2 21  8 21  0.0000000  0  8G02G07G23G09G30G06G16G05
 114640410.604 7  89330210.54446  21815349.133                    21815350.992
        47.200          37.200
 111030355.005 8  86517205.13846  21128376.625                    21128380.871
        51.200          41.000
 121985566.067 7  95053742.97744  23213089.555                    23213091.348
        47.500          29.800
 108078236.769 8  84216867.18547  20566607.906                    20566613.969
        52.900          44.800
 116399164.148 8  90700729.58846  22150030.805                    22150037.668
        49.100          37.900
 114306381.558 7  89069963.11946  21751791.664                    21751799.656
        47.500          39.900
 126709476.521 6  98734691.67943  24112014.758                    24112017.754
        40.600          22.600
 120433802.025 7  93844552.35445  22917796.953                    22917800.848
        47.700          32.900
 18  2 21  8 21 30.0000000  0  8G02G07G23G09G30G06G16G05
 114638231.995 7  89328512.92446  21814934.242                    21814936.383
        45.800          37.200
 110983120.397 8  86480398.96446  21119387.758                    21119391.875
        51.000          40.800
 122068121.368 7  95118071.77345  23228798.938                    23228801.047
        47.500          30.200
 108124779.409 8  84253134.16447  20575464.953                    20575470.855
        52.900          44.200
 116307732.494 8  90629484.16746  22132632.164                    22132639.480
        49.600          38.600
 114384074.977 8  89130503.42346  21766576.352                    21766584.051
        49.500          39.400
 126710696.201 6  98735642.08843  24112246.922                    24112249.855
        40.500          22.600
 120341277.574 8  93772455.39045  22900189.758                    22900193.879
        48.200          32.700
 18  2 21  8 22  0.0000000  0  8G02G07G23G09G30G06G16G05
 114636612.409 7  89327250.90546  21814626.242                    21814628.363
        46.000          37.200
 110936375.624 8  86443974.47446  21110492.781                    21110497.004
        49.100          40.700
 122150808.801 7  95182503.50745  23244534.063                    23244536.129
        47.500          30.200
 108171649.079 8  84289655.98047  20584383.828                    20584390.023
        52.500          44.500
 116216629.534 8  90558494.86646  22115295.539                    22115302.680
        49.800          39.000
 114462196.876 8  89191377.60546  21781442.695                    21781450.172
        48.700          39.500
 126712532.247 6  98737072.73643  24112595.789                    24112599.367
        39.300          22.900
 120248930.733 7  93700496.82945  22882616.898                    22882621.395
        47.500          33.300
 18  2 21  8 22 30.0000000  0  8G02G07G23G09G30G06G16G05
 114635550.963 7  89326423.78646  21814424.320                    21814426.379
        46.400          37.000
 110890120.916 8  86407931.83446  21101690.891                    21101694.754
        50.300          40.900
 122233626.588 7  95247036.82244  23260293.813                    23260295.902
        46.400          29.800
 108218843.530 8  84326430.86347  20593364.688                    20593371.063
        53.200          44.500
 116125856.555 8  90487762.70046  22098022.141                    22098028.910
        50.100          39.000
 114540743.936 8  89252583.06546  21796389.914                    21796397.051
        48.000          38.900
 126714983.834 6  98738983.08343  24113062.609                    24113065.465
        40.500          22.500
 120156761.376 7  93628676.55845  22865077.398                    22865081.930
        47.000          33.800
 18  2 21  8 23  0.0000000  0  8G02G07G23G09G30G06G16G05
 114635047.732 7  89326031.65046  21814328.641                    21814330.512
        47.700          36.900
 110844357.197 8  86372271.81346  21092981.977                    21092986.375
        50.700          41.400
 122316573.530 7  95311670.78045  23276078.258                    23276080.359
        46.300          30.100
 108266361.697 8  84363457.99247  20602407.086                    20602412.910
        51.600          44.600
 116035416.049 8  90417289.60646  22080812.023                    22080818.637
        50.500          38.900
 114619713.686 7  89314117.92346  21811417.297                    21811424.582
        47.100          38.700
 126718051.335 6  98741373.34543  24113646.219                    24113649.441
        40.400          22.900
 120064771.581 7  93556996.20745  22847572.992                    22847577.125
        47.800          34.200
 18  2 21  8 23 30.0000000  0  8G02G07G23G09G30G06G16G05
 114635102.412 7  89326074.23746  21814338.914                    21814341.199
        46.800          37.200
 110799085.758 8  86336995.37546  21084367.008                    21084370.938
        50.600          41.400
 122399648.513 7  95376404.49144  23291886.688                    23291888.996
        45.000          29.200
 108314202.187 8  84400736.28647  20611510.469                    20611516.371
        52.300          44.000
 115945310.024 8  90347077.14546  22063665.602                    22063672.164
        51.100          38.400
 114699103.384 7  89375980.01146  21826524.516                    21826532.250
        46.800          39.000
 126721734.766 6  98744243.54343  24114346.008                    24114351.031
        39.400          21.800
 119972963.473 7  93485457.43845  22830102.227                    22830106.516
        47.800          33.800
 18  2 21  8 24  0.0000000  0  8G02G07G23G09G30G06G16G05
 114635715.407 7  89326551.88846  21814455.500                    21814457.422
        45.700          37.200
 110754307.949 8  86302103.59046  21075846.172                    21075850.652
        51.000          41.600
 122482850.767 7  95441237.38044  23307719.266                    23307721.910
        47.000          29.300
 108362363.967 8  84438264.93747  20620675.758                    20620681.559
        52.000          44.300
 115855540.887 8  90277127.19046  22046582.984                    22046589.629
        50.400          39.200
 114778910.483 7  89438167.34546  21841711.523                    21841719.313
        47.900          38.200
 126726034.748 6  98747594.18243  24115165.305                    24115169.039
        40.500          22.500
 119881339.066 7  93414061.80045  22812666.625                    22812670.805
        47.800          34.000
 18  2 21  8 24 30.0000000  0  8G02G07G23G09G30G06G16G05
 114636886.823 7  89327464.67446  21814678.477                    21814680.609
        45.800          37.200
 110710024.345 8  86267596.89046  21067419.445                    21067423.707
        50.600          41.200
 122566179.625 7  95506168.93244  23323576.813                    23323578.641
        44.100          28.700
 108410845.779 8  84476042.97247  20629901.469                    20629907.336
        51.900          44.100
 115766110.936 8  90207441.54046  22029564.969                    22029571.715
        50.400          38.700
 114859132.484 7  89500677.99046  21856976.906                    21856984.934
        47.500          38.600
 126730951.675 6  98751425.53043  24116100.656                    24116105.055
        41.600          22.300
 119789899.508 7  93342810.20345  22795266.266                    22795270.066
        47.800          34.400
 18  2 21  8 25  0.0000000  0  8G02G07G23G09G30G06G16G05
 114638616.253 7  89328812.27146  21815007.945                    21815009.793
        45.400          37.300
 110666236.243 8  86233476.32946  21059086.758                    21059090.680
        49.900          41.300
 122649633.485 7  95571197.88844  23339456.484                    23339459.352
        45.100          29.700
 108459646.342 8  84514069.37347  20639187.516                    20639193.887
        51.900          44.300
 115677022.359 8  90138021.88346  22012611.664                    22012618.477
        50.400          38.700
 114939766.695 7  89563509.82946  21872321.484                    21872328.859
        47.600          38.300
 126736484.689 6  98755736.94843  24117154.094                    24117157.801
        41.700          22.200
 119698647.239 8  93271704.54245  22777901.219                    22777905.258
        48.400          34.100
 18  2 21  8 25 30.0000000  0  8G02G07G23G09G30G06G16G05
 114640903.998 7  89330594.92046  21815443.125                    21815444.934
        47.500          37.300
 110622945.193 8  86199743.04547  21050848.930                    21050853.012
        50.400          42.100
 122733212.199 7  95636324.12444  23355361.914                    23355364.070
        43.200          28.600
 108508764.852 8  84552343.52647  20648534.742                    20648540.953
        50.100          44.200
 115588277.703 8  90068870.21146  21995724.219                    21995730.934
        49.900          39.800
 115020810.862 7  89626661.11546  21887743.461                    21887751.445
        46.000          38.800
 126742635.052 6  98760529.43843  24118323.992                    24118328.449
        41.200          22.200
 119607583.857 8  93200746.06845  22760573.164                    22760576.832
        48.500          34.400
 18  2 21  8 26  0.0000000  0  8G02G07G23G09G30G06G16G05
 114643749.861 7  89332812.46946  21815984.555                    21815986.504
        45.200          38.400
 110580151.620 8  86166397.41446  21042705.664                    21042709.574
        51.000          41.900
 122816914.315 7  95701546.53244  23371289.977                    23371292.129
        45.000          28.500
 108558199.790 8  84590864.25147  20657942.219                    20657948.098
        51.600          44.100
 115499879.042 8  89999988.14746  21978902.930                    21978909.398
        49.600          39.800
 115102262.090 8  89690129.59146  21903243.266                    21903251.434
        48.300          39.200
 126749402.549 6  98765802.80243  24119611.461                    24119616.336
        41.400          21.500
 119516710.910 8  93129935.98445  22743280.109                    22743284.211
        48.300          34.400
 18  2 21  8 26 30.0000000  0  8G02G07G23G09G30G06G16G05
 114647154.029 7  89335465.04846  21816632.727                    21816634.211
        45.400          37.000
 110537856.737 8  86133440.36547  21034657.148                    21034661.180
        51.200          42.000
 122900738.908 7  95766864.36044  23387240.711                    23387243.324
        44.700          29.100
 108607950.029 8  84629630.66947  20667409.219                    20667415.004
        52.000          44.000
 115411828.601 8  89931377.43646  21962147.219                    21962153.871
        48.300          39.900
 115184117.840 7  89753913.27546  21918820.086                    21918827.543
        47.800          38.600
 126756786.704 6  98771556.65743  24121016.836                    24121020.824
        41.600          21.300
 119426031.401 7  93059276.62845  22726024.695                    22726028.613
        46.100          34.000
 18  2 21  8 27  0.0000000  0  8G02G07G23G09G30G06G16G05
 114651116.421 7  89338552.62746  21817386.867                    21817388.566
        46.700          37.700
 110496061.775 8  86100872.87847  21026703.898                    21026707.871
        51.300          42.300
 122984685.232 7  95832277.06144  23403215.617                    23403217.805
        42.600          29.800
 108658014.512 8  84668641.94447  20676935.813                    20676941.922
        51.300          44.000
 115324128.799 8  89863039.92446  21945458.641                    21945465.113
        50.600          40.200
 115266375.575 8  89818010.19946  21934473.211                    21934480.719
        48.200          38.400
 126764788.131 6  98777791.53643  24122539.594                    24122543.430
        41.400          21.300
 119335546.342 7  92988768.79645  22708805.570                    22708809.465
        47.700          33.900
 18  2 21  8 27 30.0000000  0  8G02G07G23G09G30G06G16G05
 114655637.123 7  89342075.23846  21818246.883                    21818249.059
        46.700          37.900
 110454767.753 8  86068695.70547  21018845.938                    21018849.852
        50.100          42.300
 123068752.257 7  95897783.79144  23419213.164                    23419214.977
        43.900          29.200
 108708392.140 8  84707897.22547  20686522.578                    20686528.602
        50.200          44.300
 115236781.945 8  89794977.45746  21928837.070                    21928843.598
        48.800          39.900
 115349032.770 7  89882418.37146  21950201.914                    21950210.191
        47.500          38.600
 126773406.821 6  98784507.35843  24124180.242                    24124183.488
        39.300          20.600
 119245257.760 7  92918414.07045  22691624.461                    22691628.414
        45.800          34.800
 18  2 21  8 28  0.0000000  0  8G02G07G23G09G30G06G16G05
 114660715.455 7  89346032.37446  21819213.500                    21819215.367
        46.600          38.300
 110413975.303 8  86036909.38446  21011083.461                    21011087.383
        50.500          41.600
 123152938.783 7  95963383.66144  23435232.891                    23435236.117
        42.400          28.000
 108759081.464 8  84747395.38847  20696168.570                    20696174.547
        50.900          43.900
 115149790.008 8  89727191.55746  21912283.148                    21912289.914
        50.600          40.900
 115432086.520 7  89947135.56046  21966006.484                    21966014.570
        46.800          38.500
 126782642.762 6  98791704.18043  24125938.078                    24125940.676
        39.200          19.900
 119155167.139 8  92848213.59545  22674480.406                    22674484.539
        48.200          33.700
 18  2 21  8 28 30.0000000  0  8G02G07G23G09G30G06G16G05
 114666351.637 7  89350424.19146  21820286.242                    21820288.082
        46.000          37.500
 110373685.709 8  86005514.91347  21003416.430                    21003420.320
        51.200          42.000
 123237244.448 6  96029076.36144  23451274.961                    23451278.301
        41.400          28.500
 108810081.499 8  84787135.66747  20705873.328                    20705879.551
        52.500          45.100
 115063155.426 8  89659684.11346  21895796.789                    21895803.633
        50.100          40.700
 115515534.403 7  90012159.84846  21981886.086                    21981894.406
        46.400          38.300
 126792495.983 6  98799381.97943  24127812.672                    24127815.941
        41.100          19.900
 119065277.024 8  92778169.36645  22657374.883                    22657378.984
        48.500          33.700
 18  2 21  8 29  0.0000000  0  8G02G07G23G09G30G06G16G05
 114672545.497 7  89355250.56146  21821464.453                    21821466.305
        47.100          38.000
 110333899.911 8  85974512.99947  20995845.359                    20995849.383
        50.900          42.000
 123321668.079 7  96094860.96344  23467341.102                    23467344.234
        42.400          28.000
 108861390.981 8  84827117.06947  20715637.305                    20715643.711
        51.200          44.300
 114976880.267 8  89592456.73546  21879379.195                    21879385.859
        48.800          41.200
 115599373.662 7  90077489.10546  21997840.734                    21997848.129
        46.800          38.500
 126802966.272 7  98807540.64343  24129805.031                    24129807.375
        42.600          20.600
 118975589.438 7  92708282.93245  22640307.898                    22640312.039
        45.800          34.300
 18  2 21  8 29 30.0000000  0  8G02G07G23G09G30G06G16G05
 114679296.628 7  89360511.17446  21822749.117                    21822751.273
        44.900          37.300
 110294618.302 8  85943903.95947  20988370.266                    20988374.105
        51.500          42.200
 123406208.290 7  96160736.42244  23483428.781                    23483431.832
        42.700          28.900
 108913008.374 8  84867338.41447  20725459.719                    20725465.820
        52.200          43.600
 114890966.449 8  89525510.92446  21863030.352                    21863037.375
        49.800          41.100
 115683601.276 7  90143120.97346  22013868.508                    22013876.391
        46.400          38.800
 126814053.600 7  98816180.09443  24131914.664                    24131917.281
        42.700          20.100
 118886105.484 7  92638555.19145  22623279.555                    22623284.133
        46.800          33.700
 18  2 21  8 30  0.0000000  0  8G02G07G23G09G30G06G16G05
 114686604.777 7  89366205.81846  21824139.813                    21824141.813
        46.600          38.200
 110255842.120 8  85913688.76347  20980991.602                    20980995.750
        51.300          42.000
 123490864.493 7  96226702.27144  23499537.594                    23499540.691
        42.400          28.100
 108964932.873 8  84907799.04847  20735341.141                    20735346.613
        52.500          43.900
 114805416.511 8  89458848.66346  21846750.430                    21846757.910
        49.100          41.200
 115768214.943 7  90209053.67946  22029970.039                    22029977.910
        47.300          39.500
 126825757.997 7  98825300.42043  24134142.109                    24134144.984
        43.700          20.400
 118796827.829 7  92568988.20245  22606290.430                    22606295.207
        45.900          34.500
 18  2 21  8 30 30.0000000  0  8G02G07G23G09G30G06G16G05
 114694469.917 7  89372334.48646  21825636.828                    21825638.348
        47.400          37.300
 110217572.178 8  85883868.03947  20973708.844                    20973713.012
        51.400          42.000
