     2.11           OBSERVATION DATA    G (GPS)             RINEX VERSION / TYPE
teqc  2016Nov7                          20180328 12:56:15UTCPGM / RUN BY / DATE
Linux 2.4.21-27.ELsmp|Opteron|gcc|Linux x86_64|=+           COMMENT
teqc  2016Nov7                          20180328 12:56:14UTCCOMMENT
     2.11           OBSERVATION DATA    M (MIXED)           COMMENT
teqc  2016Nov7                          20180328 12:56:11UTCCOMMENT
teqc  2016Nov7      IGN-RGP             20180221 09:16:00UTCCOMMENT
teqc  2015Jun23     IGN-RGP             20180221 09:06:48UTCCOMMENT
Linux2.4.20-8|i386|gcc|Win32-MinGW32|=                      COMMENT
   0.000      (antenna height)                              COMMENT
 +48.64478779 (latitude)                                    COMMENT
  +2.82290348 (longitude)                                   COMMENT
0189.374      (elevation)                                   COMMENT
BIT 2 OF LLI FLAGS DATA COLLECTED UNDER A/S CONDITION       COMMENT
19780M001 (COGO code)                                       COMMENT
SXJ3                                                        MARKER NAME
19780M001                                                   MARKER NUMBER
Automatic           GIE COOP&TECH                           OBSERVER / AGENCY
5010k65923          TRIMBLE NETR5       4.03                REC # / TYPE / VERS
1441003057          TRM55971.00     NONE                    ANT # / TYPE
  4217168.3290   207943.7820  4764693.1160                  APPROX POSITION XYZ
        1.2400        0.0000        0.0000                  ANTENNA: DELTA H/E/N
     1     1                                                WAVELENGTH FACT L1/2
     9    L1    L2    C1    P1    P2    D1    D2    S1    S2# / TYPES OF OBSERV
    30.0000                                                 INTERVAL
    18                                                      LEAP SECONDS
 SNR is mapped to RINEX snr flag value [0-9]                COMMENT
  L1 & L2: min(max(int(snr_dBHz/6), 0), 9)                  COMMENT
teqc_2016 edited: GLONASS # 25 - 30 excluded                COMMENT
Forced Modulo Decimation to 30 seconds                      COMMENT
teqc_2016 edited: all GLONASS satellites excluded           COMMENT
teqc_2016 edited: all SBAS satellites excluded              COMMENT
teqc_2016 edited: all Galileo satellites excluded           COMMENT
  2018     2    21     8     0    0.0000000     GPS         TIME OF FIRST OBS
                                                            END OF HEADER
 18  2 21  8  0  0.0000000  0  8G07G05G30G02G23G09G16G06
 113429824.582 8  88386904.56546  21584978.430                    21584982.160
      2215.902                          50.000          39.400
 124387274.331 7  96925178.67144  23670116.313                    23670120.859
      3273.656                          44.600          28.600
 120453066.977 8  93859566.78245  22921457.719                    22921464.363
      3433.082                          48.300          35.700
 115164544.475 7  89738666.28346  21915099.641                    21915100.746
       857.621                          46.000          39.300
 118753154.755 8  92534973.77245  22597981.133                    22597982.406
     -2541.527                          48.900          34.600
 106472313.129 8  82965471.52747  20261004.711                    20261010.141
     -1069.039                          52.500          46.300
 127326484.452 6  99215485.66143  24229433.625                    24229436.180
       812.203                          41.400          22.200
 111388831.071 8  86796545.69547  21196597.766                    21196604.719
     -1906.602                          50.500          42.400
 18  2 21  8  0 30.0000000  0  8G07G05G30G02G23G09G16G06
 113363559.472 8  88335269.43846  21572368.586                    21572372.703
      2201.645        1715.827          50.200          38.900
 124289116.528 7  96848692.05644  23651436.867                    23651441.773
      3270.094        2548.257          42.100          26.700
 120350186.425 8  93779400.14746  22901880.547                    22901887.199
      3425.539        2669.411          49.300          36.900
 115139078.779 8  89718822.87246  21910253.328                    21910254.883
       839.949         654.790          48.100          38.800
 118829487.688 8  92594453.95345  22612506.484                    22612508.500
     -2547.395       -1984.837          48.900          34.100
 106504572.574 8  82990608.75447  20267143.203                    20267149.074
     -1081.617        -842.599          52.000          45.800
 127302404.254 7  99196721.85043  24224850.922                    24224853.547
       793.035         618.249          42.100          22.200
 111446292.044 8  86841320.48047  21207532.531                    21207539.695
     -1924.191       -1499.024          50.200          42.500
 18  2 21  8  1  0.0000000  0  8G07G05G30G02G23G09G16G06
 113297721.549 8  88283967.16946  21559839.891                    21559843.637
      2187.504        1704.678          50.900          39.400
 124191063.968 7  96772287.46844  23632777.852                    23632783.984
      3266.758        2545.488          44.700          29.400
 120247532.703 8  93699410.26246  22882346.266                    22882352.934
      3418.016        2663.452          49.400          36.600
 115114146.350 7  89699394.99546  21905508.992                    21905509.961
       822.195         640.884          46.800          38.600
 118905995.128 8  92654070.12345  22627065.898                    22627066.887
     -2553.059       -1989.395          49.000          33.200
 106537206.173 8  83016037.52647  20273352.945                    20273358.801
     -1093.879        -852.313          52.800          45.300
 127278901.027 6  99178407.61743  24220378.664                    24220381.188
       773.883         603.202          40.000          22.300
 111504274.625 8  86886501.71247  21218566.133                    21218572.945
     -1941.379       -1512.583          50.400          43.000
 18  2 21  8  1 30.0000000  0  8G07G05G30G02G23G09G16G06
 113232312.460 8  88232999.05846  21547393.141                    21547396.836
      2173.188        1693.596          50.700          39.400
 124093118.057 7  96695965.99645  23614140.578                    23614146.039
      3263.105        2542.750          44.500          31.500
 120145108.290 8  93619599.06346  22862855.125                    22862861.715
      3410.430        2657.533          49.500          36.800
 115089747.936 7  89680383.23546  21900866.117                    21900867.031
       804.414         627.077          45.700          38.200
 118982675.849 8  92713821.32145  22641657.469                    22641659.605
     -2558.840       -1993.826          48.500          33.800
 106570212.805 8  83041756.97747  20279634.086                    20279639.590
     -1106.340        -861.938          51.800          45.400
 127255976.346 6  99160544.21043  24216016.063                    24216019.680
       754.688         588.259          39.400          21.800
 111562776.942 8  86932087.92347  21229698.414                    21229705.813
     -1958.664       -1525.999          49.200          42.900
 18  2 21  8  2  0.0000000  0  8G07G05G30G02G23G09G16G06
 113167334.038 8  88182366.53046  21535028.000                    21535031.805
      2158.691        1682.340          50.700          39.800
 123995280.833 7  96619729.17345  23595522.406                    23595528.266
      3259.426        2539.879          44.300          30.400
 120042915.478 8  93539968.33546  22843408.375                    22843415.336
      3402.445        2651.437          49.800          37.300
 115065884.469 7  89661788.32246  21896325.117                    21896325.742
       786.660         613.117          47.000          37.500
 119059528.641 8  92773706.59545  22656282.008                    22656283.656
     -2564.605       -1998.311          48.600          33.400
 106603591.053 8  83067765.99247  20285985.742                    20285991.152
     -1118.773        -871.607          53.000          45.300
 127233630.869 6  99143132.14643  24211764.172                    24211767.383
       735.176         573.139          41.100          22.000
 111621796.816 8  86978077.43147  21240929.625                    21240936.766
     -1975.918       -1539.447          49.900          42.300
 18  2 21  8  2 30.0000000  0  8G07G05G30G02G23G09G16G06
 113102787.987 8  88132070.90846  21522745.570                    21522749.020
      2144.289        1671.087          51.100          40.200
 123897552.891 7  96543577.56744  23576925.555                    23576931.047
      3255.715        2536.990          43.700          29.900
 119940957.157 8  93460520.32646  22824006.727                    22824013.160
      3394.719        2645.321          49.600          36.700
 115042557.336 7  89643611.33946  21891885.945                    21891886.816
       768.656         599.174          45.900          36.900
 119136552.840 8  92833725.43445  22670939.297                    22670941.195
     -2570.359       -2002.765          48.000          32.400
 106637340.173 8  83094063.99647  20292408.031                    20292413.480
     -1131.168        -881.228          52.100          44.900
 127211866.622 6  99126173.03443  24207621.531                    24207626.063
       715.914         558.023          39.600          22.600
 111681332.780 8  87024469.08747  21252258.883                    21252266.055
     -1993.191       -1552.844          48.900          42.600
 18  2 21  8  3  0.0000000  0  8G07G05G30G02G23G09G16G06
 113038675.932 8  88082113.46246  21510545.453                    21510548.824
      2129.867        1659.808          51.500          40.300
 123799936.605 7  96467512.94244  23558349.984                    23558355.094
      3252.059        2534.083          42.600          29.300
 119839235.516 8  93381256.74946  22804649.391                    22804656.117
      3386.805        2639.155          48.700          36.800
 115019767.217 7  89625852.81246  21887548.984                    21887550.430
       750.750         585.232          45.200          37.400
 119213746.609 8  92893876.40545  22685628.813                    22685630.738
     -2575.902       -2007.125          48.300          32.700
 106671458.685 8  83120649.84047  20298900.648                    20298906.043
     -1143.418        -890.795          52.800          45.700
 127190684.648 7  99109667.61243  24203590.633                    24203594.438
       696.414         542.884          42.000          22.500
 111741382.470 8  87071261.05047  21263686.211                    21263693.023
     -2010.160       -1566.137          48.700          42.500
 18  2 21  8  3 30.0000000  0  8G07G05G30G02G23G09G16G06
 112974999.769 8  88032495.67046  21498428.453                    21498431.762
      2115.273        1648.447          51.900          40.200
 123702433.357 7  96391536.37244  23539795.258                    23539800.461
      3248.211        2531.120          44.300          29.100
 119737753.135 8  93302179.60346  22785337.906                    22785344.699
      3378.680        2632.867          49.000          36.500
 114997515.069 7  89608513.47946  21883314.727                    21883315.539
       732.668         571.221          46.600          36.500
 119291109.070 8  92954158.83045  22700350.063                    22700352.488
     -2581.652       -2011.524          48.300          33.100
 106705945.496 8  83147522.67847  20305463.648                    20305468.750
     -1155.715        -900.367          52.700          46.200
 127170086.543 7  99093617.11943  24199671.320                    24199675.230
       676.887         527.710          42.400          22.300
 111801944.090 8  87118451.92046  21275210.430                    21275217.625
     -2027.273       -1579.441          48.900          41.700
 18  2 21  8  4  0.0000000  0  8G07G05G30G02G23G09G16G06
 112911761.862 8  87983219.37246  21486394.789                    21486398.055
      2100.500        1637.017          52.300          40.400
 123605044.221 7  96315648.72645  23521263.844                    23521268.266
      3244.273        2528.115          45.900          30.700
 119636513.034 8  93223291.24345  22766072.344                    22766079.340
      3370.445        2626.534          48.500          35.800
 114975802.322 7  89591594.46046  21879182.688                    21879183.770
       714.688         557.177          45.900          37.100
 119368639.757 8  93014572.34745  22715103.773                    22715106.328
     -2587.281       -2015.917          48.100          33.900
 106740800.013 8  83174682.04347  20312096.328                    20312101.574
     -1168.125        -909.949          52.500          46.300
 127150074.003 6  99078022.96843  24195862.742                    24195867.734
       657.074         512.428          40.600          22.500
 111863016.178 8  87166040.54247  21286832.398                    21286839.031
     -2044.352       -1592.689          48.300          42.200
 18  2 21  8  4 30.0000000  0  8G07G05G30G02G23G09G16G06
 112848963.576 8  87934285.64546  21474444.609                    21474448.137
      2085.988        1625.588          51.700          40.600
 123507771.136 7  96239851.50845  23502752.961                    23502757.914
      3240.461        2525.061          43.900          31.900
 119535517.461 7  93144593.44346  22746853.773                    22746860.406
      3362.426        2620.165          47.300          36.400
 114954629.424 7  89575096.09546  21875153.461                    21875154.770
       696.773         543.146          47.500          37.800
 119446337.155 7  93075115.75845  22729889.516                    22729891.449
     -2592.629       -2020.213          47.900          33.300
 106776020.783 8  83202126.79247  20318798.703                    20318803.898
     -1180.094        -919.435          53.000          46.600
 127130647.749 6  99062885.66243  24192166.648                    24192171.750
       637.742         497.187          40.400          22.000
 111924596.472 8  87214025.17947  21298550.469                    21298557.445
     -2061.125       -1605.856          49.700          42.400
 18  2 21  8  5  0.0000000  0  8G07G05G30G02G23G09G16G06
 112786606.026 8  87885695.34446  21462578.172                    21462581.930
      2071.148        1614.107          52.300          40.700
 123410616.031 7  96164146.24645  23484265.141                    23484270.406
      3236.402        2521.990          44.700          31.500
 119434768.533 7  93066087.81546  22727681.984                    22727688.547
      3354.129        2613.715          46.700          36.500
 114933996.663 7  89559018.61346  21871227.063                    21871228.324
       678.625         529.103          46.500          38.000
 119524199.689 8  93135787.84845  22744706.289                    22744708.309
     -2598.289       -2024.480          48.300          33.200
 106811606.317 8  83229855.77647  20325570.398                    20325575.594
     -1192.297        -928.874          53.500          46.600
 127111809.007 6  99048206.13443  24188580.734                    24188585.387
       617.996         481.895          39.900          21.500
 111986682.653 8  87262404.00847  21310365.039                    21310371.949
     -2078.035       -1618.983          48.900          42.300
 18  2 21  8  5 30.0000000  0  8G07G05G30G02G23G09G16G06
 112724690.951 8  87837449.83246  21450796.602                    21450799.906
      2056.516        1602.630          52.800          40.600
 123313580.476 7  96088534.16845  23465799.617                    23465804.543
      3232.590        2518.934          44.300          31.100
 119334268.621 7  92987776.23446  22708557.148                    22708563.797
      3346.000        2607.269          45.500          36.500
 114913905.341 7  89543363.03146  21867403.750                    21867405.656
       660.668         515.071          46.700          38.500
 119602226.067 7  93196587.60445  22759554.156                    22759556.762
     -2603.531       -2028.670          47.400          33.200
 106847555.273 8  83257867.94147  20332411.055                    20332417.047
     -1204.246        -938.243          53.000          46.300
 127093558.725 6  99033985.14843  24185107.719                    24185111.953
       598.625         466.682          41.600          21.300
 112049272.511 8  87311175.30947  21322275.711                    21322282.379
     -2094.680       -1632.003          49.700          42.100
 18  2 21  8  6  0.0000000  0  8G07G05G30G02G23G09G16G06
 112663220.508 8  87789550.78546  21439098.773                    21439102.375
      2041.508        1591.064          52.200          40.500
 123216665.908 7  96013016.31645  23447357.445                    23447361.594
      3228.434        2515.742          45.800          31.100
 119234020.712 7  92909661.02546  22689480.508                    22689487.754
      3337.316        2600.686          47.600          36.800
 114894356.608 7  89528130.23346  21863684.008                    21863685.480
       642.574         500.977          47.900          39.200
 119680415.696 8  93257514.57045  22774433.367                    22774435.324
     -2609.062       -2032.922          48.000          33.900
 106883867.002 8  83286162.79347  20339320.766                    20339326.684
     -1216.418        -947.678          53.200          46.300
 127075898.641 6  99020224.06543  24181747.375                    24181752.707
       578.809         451.322          41.100          22.000
 112112364.463 8  87360337.85547  21334281.797                    21334288.422
     -2111.379       -1645.007          50.100          42.000
 18  2 21  8  6 30.0000000  0  8G07G05G30G02G23G09G16G06
 112602196.386 8  87741999.51746  21427486.258                    21427489.695
      2026.695        1579.424          52.500          39.900
 123119873.709 7  95937593.78545  23428938.820                    23428942.777
      3224.469        2512.577          47.800          31.200
 119134027.481 7  92831744.26246  22670452.656                    22670459.352
      3328.918        2594.012          47.200          37.300
 114875351.234 7  89513320.84246  21860067.391                    21860069.051
       624.410         486.819          47.100          38.300
 119758767.798 7  93318568.13545  22789343.641                    22789345.352
     -2614.387       -2037.143          47.400          33.300
 106920540.539 8  83314739.56747  20346299.664                    20346305.418
     -1228.445        -957.075          52.300          46.400
 127058830.210 6  99006924.01943  24178498.594                    24178504.551
       559.059         435.916          37.800          19.900
 112175956.727 8  87409890.25647  21346382.836                    21346389.328
     -2128.039       -1658.002          48.600          42.300
 18  2 21  8  7  0.0000000  0  8G07G05G30G02G23G09G16G06
 112541620.230 8  87694797.32946  21415959.094                    21415962.246
      2011.625        1567.718          52.700          40.100
 123023205.732 7  95862268.10145  23410544.242                    23410547.770
      3220.055        2509.245          47.800          32.300
 119034291.243 7  92754027.75146  22651473.867                    22651480.734
      3320.168        2587.274          47.800          37.400
 114856890.352 8  89498935.71846  21856554.766                    21856556.164
       606.258         472.651          48.500          37.900
 119837280.944 7  93379747.19145  22804283.906                    22804285.914
     -2619.809       -2041.338          47.300          33.600
 106957574.572 9  83343597.25847  20353346.859                    20353352.715
     -1240.461        -966.466          54.100          46.600
 127042354.174 6  98994085.57843  24175364.391                    24175367.785
       539.168         420.479          39.000          20.900
 112240047.070 8  87459830.77246  21358578.797                    21358585.156
     -2144.664       -1670.946          50.400          41.600
 18  2 21  8  7 30.0000000  0  8G07G05G30G02G23G09G16G06
 112481493.163 8  87647945.07946  21404517.469                    21404520.652
      1996.691        1556.101          52.800          40.400
 122926663.200 7  95787040.16245  23392172.070                    23392176.398
      3216.043        2506.038          43.000          31.300
 118934814.031 7  92676513.07946  22632543.492                    22632550.582
      3311.602        2580.572          46.400          37.500
 114838973.438 8  89484974.47946  21853145.227                    21853146.375
       588.074         458.537          48.500          38.600
 119915953.576 7  93441050.51245  22819254.680                    22819257.055
     -2625.055       -2045.430          47.800          33.700
 106994967.422 9  83372734.53547  20360462.500                    20360468.871
     -1252.410        -975.719          54.000          46.300
 127026471.419 6  98981709.41843  24172341.938                    24172345.227
       519.453         405.072          39.500          20.600
 112304632.894 8  87510157.36746  21370869.328                    21370875.688
     -2161.145       -1683.745          50.200          41.600
 18  2 21  8  8  0.0000000  0  8G07G05G30G02G23G09G16G06
 112421817.062 8  87601444.22346  21393161.297                    21393164.375
      1981.645        1544.335          52.400          40.200
 122830248.287 7  95711911.68145  23373824.586                    23373829.219
      3211.633        2502.656          43.600          31.900
 118835598.501 7  92599202.31946  22613663.414                    22613670.238
      3302.840        2573.696          46.600          38.300
 114821602.299 8  89471438.51146  21849839.516                    21849840.570
       569.914         444.327          48.300          38.500
 119994784.685 7  93502477.32145  22834255.961                    22834258.281
     -2630.375       -2049.558          47.900          33.000
 107032718.138 8  83402150.66547  20367646.344                    20367652.195
     -1264.320        -985.031          52.300          46.500
 127011183.295 6  98969796.56943  24169432.648                    24169435.703
       499.848         389.627          36.700          19.300
 112369712.286 8  87560868.56246  21383253.688                    21383259.707
     -2177.523       -1696.563          48.800          41.300
 18  2 21  8  8 30.0000000  0  8G07G05G30G02G23G09G16G06
 112362593.624 8  87555296.09546  21381891.227                    21381894.402
      1966.457        1532.580          51.100          39.400
 122733962.463 7  95636883.80245  23355502.219                    23355506.184
      3207.223        2499.293          45.900          33.000
 118736647.118 7  92522097.37446  22594833.914                    22594840.852
      3293.809        2566.836          47.700          38.400
 114804777.292 8  89458328.11046  21846638.070                    21846639.082
       551.578         430.148          49.500          38.300
 120073773.392 7  93564026.93645  22849287.469                    22849288.781
     -2635.727       -2053.622          47.600          33.500
 107070825.580 8  83431844.77647  20374897.742                    20374903.699
     -1276.285        -994.272          53.800          47.000
 126996490.628 6  98958347.78243  24166637.625                    24166640.043
       479.746         374.125          38.600          18.600
 112435283.173 8  87611962.73746  21395731.453                    21395737.586
     -2193.965       -1709.288          49.900          41.400
 18  2 21  8  9  0.0000000  0  8G07G05G30G02G23G09G16G06
 112303824.067 8  87509501.64146  21370707.953                    21370711.484
      1951.355        1520.777          50.500          39.100
 122637807.315 7  95561957.72845  23337204.656                    23337208.316
      3203.023        2495.897          43.600          31.600
 118637962.188 7  92445200.05846  22576054.883                    22576061.523
      3284.918        2559.871          46.400          37.900
 114788499.007 8  89445643.72546  21843540.469                    21843541.316
       533.516         415.943          49.500          38.600
 120152918.319 7  93625698.29845  22864347.672                    22864350.059
     -2640.773       -2057.665          47.400          33.800
 107109288.397 8  83461815.79447  20382217.109                    20382223.027
     -1288.027       -1003.498          52.900          46.400
 126982394.498 5  98947363.81042  24163954.617                    24163957.227
       459.813         358.629          34.800          17.800
 112501343.233 8  87663438.06846  21408302.219                    21408308.309
     -2210.148       -1721.971          49.500          41.600
 18  2 21  8  9 30.0000000  0  8G07G05G30G02G23G09G16G06
 112245510.339 8  87464062.38346  21359611.219                    21359614.512
      1936.293        1508.953          50.200          38.500
 122541784.276 7  95487134.55345  23318931.898                    23318935.395
      3198.668        2492.470          46.500          32.900
 118539546.584 7  92368512.59446  22557326.805                    22557333.578
      3276.078        2552.898          47.800          38.200
 114772768.499 8  89433386.18046  21840548.055                    21840547.910
       515.309         401.746          49.700          39.200
 120232218.843 7  93687490.87545  22879438.094                    22879440.395
     -2645.855       -2061.643          47.200          33.500
 107148105.722 8  83492063.06147  20389603.703                    20389609.824
     -1299.738       -1012.643          53.900          46.400
 126968896.154 6  98936845.62843  24161385.469                    24161388.086
       440.066         343.150          39.900          18.300
 112567890.652 8  87715293.15146  21420965.938                    21420971.734
     -2226.262       -1734.567          49.300          41.100
 18  2 21  8 10  0.0000000  0  8G07G05G30G02G23G09G16G06
 112187654.244 8  87418979.71346  21348601.344                    21348604.754
      1920.813        1497.008          50.000          39.400
 122445895.350 7  95412415.93145  23300684.828                    23300688.727
      3194.035        2488.934          43.800          31.400
 118441402.831 7  92292036.95846  22538650.633                    22538657.121
      3266.926        2545.763          47.600          38.100
 114757586.519 8  89421556.05646  21837658.578                    21837658.953
       496.848         387.439          49.400          38.500
 120311673.670 7  93749403.72045  22894557.523                    22894560.141
     -2651.094       -2065.691          47.100          33.400
 107187276.547 8  83522585.77047  20397058.063                    20397064.043
     -1311.648       -1021.846          52.200          46.600
 126955996.950 6  98926794.30743  24158931.328                    24158933.125
       419.848         327.503          37.900          19.300
 112634923.411 8  87767526.42146  21433721.914                    21433727.621
     -2242.516       -1747.182          48.400          40.900
 18  2 21  8 10 30.0000000  0  8G07G05G30G02G23G09G16G06
 112130256.928 8  87374254.53446  21337678.742                    21337682.738
      1905.680        1485.074          50.900          38.600
 122350142.013 7  95337802.98745  23282463.563                    23282467.727
      3189.625        2485.377          44.000          31.700
 118343533.214 8  92215774.94746  22520026.695                    22520033.055
      3257.801        2538.616          48.800          38.300
 114742953.505 8  89410153.69746  21834873.703                    21834874.336
       478.688         373.197          49.100          39.200
 120391281.799 7  93811436.00745  22909706.461                    22909709.137
     -2656.105       -2069.642          47.000          34.000
 107226799.490 8  83553382.86047  20404579.180                    20404584.582
     -1323.187       -1030.972          53.800          46.700
 126943697.559 5  98917210.40543  24156590.188                    24156593.918
       399.930         311.950          35.800          19.300
 112702439.148 8  87820136.03846  21446569.711                    21446575.871
     -2258.453       -1759.682          50.300          40.500
 18  2 21  8 11  0.0000000  0  8G07G05G30G02G23G09G16G06
 112073319.680 8  87329887.85346  21326844.313                    21326847.980
      1890.223        1473.122          49.900          39.400
 122254526.072 7  95263297.05545  23264268.492                    23264272.469
      3184.906        2481.821          43.200          32.300
 118245939.878 7  92139728.22146  22501455.430                    22501461.746
      3248.512        2531.437          46.400          38.300
 114728869.938 8  89399179.48246  21832194.078                    21832194.590
       460.289         358.941          49.100          39.400
 120471041.906 7  93873586.72745  22924884.211                    22924886.844
     -2661.207       -2073.566          46.300          33.400
 107266673.068 8  83584453.16147  20412166.578                    20412172.203
     -1334.918       -1040.034          52.600          46.400
 126931998.305 6  98908094.08243  24154363.219                    24154366.988
       379.977         296.333          38.100          19.300
 112770435.317 8  87873120.00946  21459509.227                    21459515.180
     -2274.504       -1772.112          48.600          40.700
 18  2 21  8 11 30.0000000  0  8G07G05G30G02G23G09G16G06
 112016844.387 8  87285881.14246  21316097.438                    21316101.148
      1874.855        1461.094          51.100          39.500
 122159049.377 7  95188899.66045  23246099.938                    23246103.613
      3180.305        2478.165          46.400          32.000
 118148625.577 8  92063898.91646  22482936.969                    22482943.895
      3239.203        2524.142          49.000          37.300
 114715336.608 8  89388634.02346  21829618.219                    21829619.328
       441.918         344.612          48.000          38.900
 120550953.024 7  93935855.10445  22940091.703                    22940093.500
     -2666.195       -2077.491          47.800          33.600
 107306896.378 8  83615795.99147  20419821.078                    20419826.547
     -1346.457       -1049.126          53.000          46.800
 126920900.634 6  98899446.53443  24152251.078                    24152254.570
       360.051         280.726          37.600          20.400
 112838910.008 8  87926476.86046  21472539.250                    21472545.699
     -2290.320       -1784.520          50.000          40.700
 18  2 21  8 12  0.0000000  0  8G07G05G30G02G23G09G16G06
 111960832.572 8  87242235.58246  21305439.258                    21305442.719
      1859.301        1449.012          51.800          40.300
 122063713.251 7  95114611.75945  23227958.016                    23227961.938
      3175.410        2474.457          46.200          31.800
 118051592.764 8  91988288.95346  22464471.742                    22464478.391
      3229.711        2516.763          49.200          36.900
 114702353.944 7  89378517.65746  21827147.234                    21827148.844
       423.574         330.291          47.600          38.600
 120631014.488 7  93998240.65045  22955326.469                    22955328.891
     -2671.266       -2081.409          47.900          32.900
 107347468.283 8  83647410.45347  20427541.328                    20427546.691
     -1358.234       -1058.192          52.800          46.400
 126910405.497 6  98891268.49843  24150254.148                    24150257.492
       339.867         265.033          36.700          20.100
 112907861.055 8  87980204.89646  21485660.477                    21485666.309
     -2306.359       -1796.907          50.000          39.800
 18  2 21  8 12 30.0000000  0  8G07G05G30G02G23G09G16G06
 111905285.551 8  87198952.18946  21294868.695                    21294872.332
      1843.785        1436.925          52.000          40.400
 121968519.602 7  95040434.90345  23209843.055                    23209846.977
      3170.719        2470.751          42.400          31.200
 117954843.608 7  91912900.02846  22446061.266                    22446067.430
      3220.098        2509.382          46.200          37.600
 114689922.325 7  89368830.67246  21824781.422                    21824782.969
       405.172         315.972          47.200          38.000
 120711224.575 7  94060742.00545  22970589.906                    22970592.223
     -2676.113       -2085.233          47.600          33.200
 107388387.286 8  83679295.37847  20435328.094                    20435333.340
     -1369.770       -1067.201          53.000          45.600
 126900513.318 6  98883560.28643  24148371.359                    24148375.688
       319.793         249.346          38.900          20.600
 112977285.988 8  88034302.22946  21498871.555                    21498877.324
     -2322.008       -1809.187          48.800          39.500
 18  2 21  8 13  0.0000000  0  8G07G05G30G02G23G09G16G06
 111850204.360 8  87156031.79046  21284387.109                    21284390.625
      1828.156        1424.798          51.400          41.000
 121873469.948 7  94966370.24545  23191755.414                    23191759.387
      3165.898        2467.020          43.200          31.900
 117858380.654 7  91837734.10646  22427704.289                    22427711.695
      3210.512        2501.907          47.000          36.800
 114678042.628 7  89359573.76246  21822520.914                    21822522.473
       386.660         301.612          46.700          38.400
 120791582.376 7  94123358.46645  22985881.188                    22985883.465
     -2681.168       -2089.077          47.500          33.300
 107429652.335 9  83711449.94847  20443180.336                    20443186.152
     -1381.355       -1076.161          54.100          45.900
 126891225.228 6  98876322.79843  24146604.500                    24146608.086
       299.387         233.648          39.500          21.300
 113047182.598 8  88088767.12346  21512172.102                    21512177.977
     -2337.840       -1821.411          51.200          39.900
 18  2 21  8 13 30.0000000  0  8G07G05G30G02G23G09G16G06
 111795591.929 8  87113476.65746  21273994.758                    21273998.133
      1812.656        1412.588          51.800          41.000
 121778565.582 7  94892418.81345  23173695.813                    23173700.484
      3161.063        2463.159          47.300          32.800
 117762207.083 8  91762793.69046  22409403.484                    22409409.875
      3200.949        2494.341          48.500          36.900
 114666715.913 7  89350747.75046  21820365.531                    21820367.137
       368.371         287.231          47.300          38.100
 120872087.662 7  94186089.83145  23001201.180                    23001203.359
     -2685.875       -2092.896          47.600          32.800
 107471263.023 8  83743873.85247  20451098.477                    20451103.828
     -1392.707       -1085.153          53.800          45.800
 126882542.984 6  98869557.40043  24144952.281                    24144956.406
       279.367         217.868          40.500          21.300
 113117549.399 8  88143598.42146  21525562.625                    21525568.707
     -2353.250       -1833.621          50.200          40.200
 18  2 21  8 14  0.0000000  0  8G07G05G30G02G23G09G16G06
 111741448.272 8  87071286.80546  21263691.188                    21263695.156
      1797.113        1400.409          51.600          40.900
 121683808.902 7  94818582.46045  23155665.008                    23155668.539
      3156.070        2459.300          47.300          32.500
 117666324.244 7  91688079.81346  22391157.648                    22391164.598
      3191.293        2486.762          47.500          36.900
 114655941.658 8  89342352.22646  21818315.555                    21818316.496
       349.953         272.890          48.300          38.400
 120952738.368 7  94248934.53145  23016547.961                    23016550.668
     -2690.734       -2096.665          47.200          33.400
 107513217.067 8  83776565.30547  20459081.875                    20459087.969
     -1404.086       -1094.053          53.700          45.000
 126874466.000 6  98863263.62043  24143415.367                    24143418.453
       259.176         202.165          39.600          22.900
 113188382.945 8  88198793.39246  21539041.594                    21539047.906
     -2368.801       -1845.696          49.500          39.900
 18  2 21  8 14 30.0000000  0  8G07G05G30G02G23G09G16G06
 111687774.861 8  87029463.37846  21253477.492                    21253481.238
      1781.492        1388.249          51.400          40.200
 121589201.798 7  94744862.64245  23137661.352                    23137664.918
      3151.336        2455.490          46.100          31.300
 117570734.693 7  91613594.46546  22372967.578                    22372974.055
      3181.680        2479.200          46.800          37.700
 114645720.705 8  89334387.85646  21816370.797                    21816371.926
       331.734         258.578          49.100          39.300
 121033533.337 7  94311891.63645  23031922.883                    23031925.730
     -2695.266       -2100.320          47.200          33.100
 107555513.380 8  83809523.46747  20467130.555                    20467136.348
     -1415.301       -1102.840          52.800          45.400
 126866995.104 6  98857442.10743  24141994.445                    24141996.871
       239.137         186.462          40.200          22.600
 113259681.097 8  88254350.37646  21552609.484                    21552615.574
     -2384.055       -1857.663          50.100          40.200
 18  2 21  8 15  0.0000000  0  8G07G05G30G02G23G09G16G06
 111634573.163 8  86988007.50946  21243353.313                    21243357.465
      1765.492        1375.898          51.100          40.400
 121494745.702 7  94671260.53445  23119686.070                    23119689.988
      3146.066        2451.481          45.400          30.500
 117475440.917 7  91539339.58646  22354833.672                    22354840.910
      3171.461        2471.404          47.300          37.800
 114636053.379 8  89326854.86046  21814530.953                    21814532.195
       313.023         244.134          49.900          38.800
 121114471.722 7  94374960.48445  23047325.734                    23047327.691
     -2700.320       -2104.100          46.800          32.000
 107598150.916 8  83842747.51247  20475244.344                    20475250.070
     -1426.937       -1111.775          51.800          45.400
 126860131.426 6  98852093.77043  24140688.305                    24140691.164
       218.691         170.616          41.300          22.800
 113331441.597 8  88310267.60246  21566265.000                    21566271.305
     -2399.730       -1869.714          48.600          40.500
 18  2 21  8 15 30.0000000  0  8G07G05G30G02G23G09G16G06
 111581844.794 8  86946920.46246  21233319.422                    21233323.371
      1749.750        1363.605          50.900          40.100
 121400442.190 7  94597777.29344  23101740.984                    23101744.285
      3140.965        2447.518          46.700          29.900
 117380445.394 7  91465317.11546  22336756.711                    22336763.461
      3161.504        2463.633          47.600          37.500
 114626940.330 8  89319753.78246  21812797.359                    21812797.910
       294.512         229.718          48.800          39.400
 121195552.691 7  94438140.44745  23062754.148                    23062756.840
     -2705.070       -2107.794          47.300          32.600
 107641128.509 8  83876236.53547  20483422.617                    20483428.520
     -1438.258       -1120.569          53.200          45.100
 126853875.163 6  98847218.74543  24139497.883                    24139500.523
       198.438         154.869          41.300          22.800
 113403662.227 8  88366543.35846  21580007.984                    21580014.777
     -2414.945       -1881.645          48.700          40.400
 18  2 21  8 16  0.0000000  0  8G07G05G30G02G23G09G16G06
 111529591.852 8  86906203.88746  21223376.344                    21223379.934
      1733.859        1351.218          51.900          40.600
 121306292.691 7  94524414.04145  23083825.305                    23083828.652
      3135.785        2443.460          47.000          31.800
 117285751.078 7  91391529.36046  22318737.180                    22318743.859
      3151.488        2455.774          47.600          38.100
 114618382.507 8  89313085.33846  21811168.813                    21811169.289
       276.012         215.283          49.100          38.800
 121276775.799 8  94501431.16045  23078210.961                    23078212.918
     -2709.699       -2111.482          48.200          31.800
 107684445.527 8  83909990.05847  20491665.617                    20491671.320
     -1449.539       -1129.394          53.900          45.000
 126848227.876 7  98842818.25343  24138423.359                    24138426.625
       178.238         138.998          43.100          23.800
 113476341.231 8  88423176.30946  21593838.688                    21593845.055
     -2430.242       -1893.523          50.200          40.600
 18  2 21  8 16 30.0000000  0  8G07G05G30G02G23G09G16G06
 111477814.624 8  86865857.98946  21213523.781                    21213527.293
      1717.832        1338.824          52.100          40.600
 121212299.179 7  94451172.34745  23065939.242                    23065941.840
      3130.504        2439.397          45.800          31.000
 117191359.743 7  91317977.69446  22300774.945                    22300782.297
      3141.250        2447.859          47.600          38.300
 114610379.508 8  89306849.22346  21809645.836                    21809646.664
       257.461         200.855          49.600          39.200
 121358139.070 7  94564831.09745  23093693.617                    23093696.020
     -2714.461       -2115.120          47.700          32.800
 107728100.138 8  83944006.62747  20499973.133                    20499978.516
     -1460.879       -1138.160          53.900          45.500
 126843189.586 7  98838892.31844  24137464.609                    24137468.027
       157.641         123.181          43.700          24.700
 113549475.553 8  88480164.04346  21607755.617                    21607761.457
     -2445.406       -1905.327          50.700          41.100
 18  2 21  8 17  0.0000000  0  8G07G05G30G02G23G09G16G06
 111426514.784 8  86825884.08246  21203761.656                    21203765.543
      1702.008        1326.508          51.400          41.300
 121118463.652 7  94378053.79045  23048082.289                    23048085.973
      3125.203        2435.316          45.700          31.000
 117097273.893 7  91244664.07346  22282870.953                    22282878.184
      3131.004        2439.961          46.800          38.500
 114602932.028 8  89301045.97846  21808228.242                    21808229.156
       238.961         186.503          48.000          38.700
 121439641.709 7  94628339.60745  23109203.391                    23109205.340
     -2719.094       -2118.647          46.400          33.500
 107772091.253 9  83978285.40947  20508344.320                    20508350.023
     -1471.973       -1146.807          54.400          45.400
 126838760.858 7  98835441.36244  24136622.125                    24136625.020
       137.609         107.430          43.800          24.900
 113623062.894 8  88537504.76446  21621759.016                    21621765.285
     -2460.391       -1916.967          50.700          41.200
 18  2 21  8 17 30.0000000  0  8G07G05G30G02G23G09G16G06
 111375693.722 8  86786283.25246  21194090.703                    21194094.223
      1686.105        1313.984          52.100          41.100
 121024788.276 7  94305060.02545  23030256.031                    23030260.270
      3119.949        2431.097          45.600          32.100
 117003495.926 7  91171590.37946  22265025.406                    22265032.586
      3120.770        2431.877          47.500          38.700
 114596040.074 7  89295675.61546  21806916.875                    21806917.777
       220.449         172.006          47.300          38.700
 121521282.534 7  94691955.81345  23124738.953                    23124741.242
     -2723.566       -2122.280          47.600          32.600
 107816417.732 9  84012825.51647  20516779.297                    20516784.953
     -1483.098       -1155.571          54.100          45.300
 126834942.679 6  98832466.14444  24135895.750                    24135898.535
       117.156          91.501          41.600          25.100
 113697101.013 8  88595196.73546  21635847.969                    21635854.402
     -2475.363       -1928.723          50.300          41.000
 18  2 21  8 18  0.0000000  0  8G07G05G30G02G23G09G16G06
 111325352.818 8  86747056.57746  21184511.227                    21184515.313
      1669.809        1301.488          51.800          41.100
 120931273.991 7  94232191.75945  23012461.375                    23012464.617
      3114.344        2426.896          47.100          31.700
 116910028.347 7  91098758.52446  22247239.328                    22247246.555
      3110.211        2423.784          47.600          38.200
 114589704.386 7  89290738.71446  21805711.195                    21805712.277
       201.688         157.549          46.700          38.700
 121603061.025 7  94755679.28645  23140300.836                    23140302.984
     -2728.422       -2125.854          46.300          32.400
 107861078.515 9  84047626.11447  20525278.391                    20525283.754
     -1494.336       -1164.231          54.600          46.000
 126831735.586 7  98829967.11844  24135284.883                    24135288.227
        96.547          75.609          42.600          25.400
 113771587.549 8  88653238.11246  21650022.516                    21650028.910
     -2490.586       -1940.348          50.600          41.400
 18  2 21  8 18 30.0000000  0  8G07G05G30G02G23G09G16G06
 111275493.137 8  86708204.88146  21175023.367                    21175026.855
      1653.801        1288.992          51.400          41.100
 120837923.183 7  94159450.88045  22994697.281                    22994700.297
      3108.762        2422.612          46.900          31.500
 116816873.244 7  91026170.17646  22229511.984                    22229519.582
      3099.898        2415.661          47.300          38.100
 114583925.185 7  89286235.43446  21804610.969                    21804612.367
       183.223         143.108          47.500          38.100
 121684975.853 7  94819509.00745  23155888.641                    23155891.344
     -2732.914       -2129.377          47.000          33.200
 107906072.119 8  84082686.05547  20533840.414                    20533846.020
     -1505.418       -1172.852          53.900          45.600
 126829139.684 7  98827944.35244  24134790.867                    24134794.402
        76.203          59.728          42.100          25.200
 113846519.887 8  88711626.87046  21664281.242                    21664287.520
     -2505.316       -1951.905          50.300          40.900
 18  2 21  8 19  0.0000000  0  8G07G05G30G02G23G09G16G06
 111226116.287 8  86669729.40846  21165626.875                    21165630.934
      1637.902        1276.447          50.100          41.300
 120744737.290 7  94086838.49545  22976964.719                    22976966.941
      3103.555        2418.343          46.400          31.200
 116724033.323 7  90953827.40346  22211845.148                    22211853.117
      3089.426        2407.462          47.300          37.900
 114578702.904 7  89282166.12046  21803617.570                    21803618.602
       164.824         128.631          47.400          38.300
 121767026.204 7  94883444.32945  23171502.242                    23171504.781
     -2737.176       -2132.875          47.600          33.700
 107951397.678 8  84118004.65547  20542465.383                    20542470.941
     -1516.398       -1181.455          53.100          45.700
 126827155.905 6  98826398.57443  24134412.789                    24134417.156
        56.012          43.813          40.400          23.500
 113921895.864 8  88770361.32946  21678624.898                    21678631.594
     -2519.809       -1963.375          49.200          41.300
 18  2 21  8 19 30.0000000  0  8G07G05G30G02G23G09G16G06
 111177223.253 8  86631630.95446  21156322.766                    21156326.996
      1621.598        1263.856          49.600          40.900
 120651718.071 7  94014355.99845  22959263.438                    22959266.289
      3097.699        2413.939          46.200          31.000
 116631510.603 7  90881731.80346  22194238.813                    22194246.414
      3078.676        2399.155          46.800          38.000
 114574037.491 7  89278530.73446  21802729.578                    21802730.789
       146.113         114.159          47.300          37.800
 121849210.907 8  94947484.31845  23187141.867                    23187144.035
     -2741.832       -2136.359          48.300          33.200
 107997053.621 9  84153580.70847  20551153.445                    20551159.332
     -1527.477       -1190.038          54.200          45.700
 126825784.502 6  98825329.93744  24134152.023                    24134155.918
        35.281          27.891          40.100          25.200
 113997712.801 8  88829439.39646  21693052.641                    21693058.758
     -2534.684       -1974.814          50.200          40.500
 18  2 21  8 20  0.0000000  0  8G07G05G30G02G23G09G16G06
 111128815.192 8  86593910.39546  21147111.039                    21147115.148
      1605.664        1251.294          49.600          40.700
 120558867.180 7  93942004.68945  22941594.594                    22941597.367
      3092.285        2409.635          46.300          31.600
 116539307.440 7  90809885.21246  22176692.680                    22176700.172
      3068.219        2390.880          46.300          36.900
 114569929.156 7  89275329.42546  21801947.906                    21801949.137
       127.770          99.777          47.400          38.300
 121931528.961 8  95011628.24745  23202806.023                    23202808.645
     -2746.059       -2139.749          48.500          33.200
 108043038.754 8  84189413.27047  20559903.820                    20559909.871
     -1538.199       -1198.509          53.300          45.400
 126825025.815 6  98824738.75543  24134007.766                    24134011.457
        15.195          12.053          40.500          23.000
 114073968.161 8  88888859.09546  21707563.984                    21707569.965
     -2549.000       -1986.097          51.600          40.800
 18  2 21  8 20 30.0000000  0  8G07G05G30G02G23G09G16G06
 111080893.893 8  86556569.13146  21137991.758                    21137995.793
      1589.398        1238.647          50.000          40.700
 120466186.927 7  93869786.30545  22923958.211                    22923960.820
      3086.598        2405.172          47.100          32.200
 116447426.581 7  90738289.76546  22159208.164                    22159215.914
      3057.418        2382.503          46.500          36.300
 114566378.633 8  89272562.77646  21801272.422                    21801273.535
       109.266          85.277          48.800          38.700
 122013979.588 8  95075875.45645  23218496.594                    23218498.746
     -2750.457       -2143.170          48.400          33.600
 108089352.361 8  84225501.78247  20568717.219                    20568722.719
     -1549.113       -1207.005          53.500          44.800
 126824880.501 6  98824625.51943  24133980.242                    24133983.938
        -5.250          -3.874          39.900          23.900
 114150659.958 8  88948618.88746  21722157.813                    21722164.148
     -2563.551       -1997.392          51.900          40.900
 18  2 21  8 21  0.0000000  0  8G07G05G30G02G23G09G16G06
 111033460.110 8  86519607.75346  21128965.203                    21128969.105
      1572.930        1225.906          49.500          40.500
 120373678.760 8  93797702.02945  22906354.688                    22906357.016
      3080.719        2400.641          48.200          31.900
 116355870.282 7  90666947.22446  22141785.836                    22141793.254
      3046.324        2373.983          46.300          37.600
 114563385.839 8  89270230.72946  21800703.055                    21800703.832
        90.355          70.717          49.200          38.600
 122096561.566 8  95140225.03545  23234211.055                    23234213.219
     -2754.945       -2146.641          49.100          34.300
 108135993.080 8  84261845.19747  20577592.563                    20577597.957
     -1560.187       -1215.554          53.500          45.100
 126825349.155 6  98824990.71443  24134068.820                    24134073.391
       -25.828         -19.881          40.200          22.800
 114227785.635 8  89008716.79146  21736834.242                    21736840.598
     -2578.145       -2008.717          50.900          41.100
 18  2 21  8 21 30.0000000  0  8G07G05G30G02G23G09G16G06
 110986515.164 8  86483027.28646  21120032.188                    21120036.004
      1556.738        1213.215          50.200          40.400
 120281344.116 7  93725752.94945  22888784.352                    22888786.055
      3074.977        2396.121          47.400          31.800
 116264640.603 7  90595859.18746  22124425.531                    22124432.684
      3035.652        2365.501          47.200          36.900
 114560950.607 8  89268333.14046  21800239.453                    21800240.387
        71.988          56.248          48.300          39.100
 122179273.981 8  95204676.24745  23249951.039                    23249952.973
     -2759.121       -2149.983          48.900          33.300
 108182959.489 8  84298442.39247  20586529.930                    20586535.566
     -1570.898       -1223.981          53.500          45.000
 126826431.852 6  98825834.34443  24134274.570                    24134279.133
       -46.254         -35.802          39.700          22.500
 114305342.353 8  89069150.56546  21751593.219                    21751599.363
     -2592.285       -2019.849          51.500          40.900
 18  2 21  8 22  0.0000000  0  8G07G05G30G02G23G09G16G06
 110940060.146 8  86446828.58146  21111192.359                    21111195.582
      1540.301        1200.437          50.300          40.900
 120189185.677 7  93653941.18745  22871247.000                    22871248.691
      3069.098        2391.493          47.000          30.700
 116173739.977 7  90525027.55546  22107127.742                    22107134.840
      3024.512        2356.872          46.200          37.800
 114559073.532 8  89266870.48246  21799882.742                    21799882.836
        53.223          41.725          48.300          38.400
 122262115.708 8  95269228.21945  23265715.219                    23265717.207
     -2763.500       -2153.359          48.600          33.700
 108230250.482 8  84335292.50647  20595529.141                    20595534.453
     -1581.816       -1232.431          53.600          45.300
 126828129.004 6  98827156.79843  24134597.641                    24134601.375
       -66.766         -51.816          40.800          22.300
 114383327.614 8  89129918.26346  21766433.039                    21766439.727
     -2606.566       -2030.955          51.100          40.800
 18  2 21  8 22 30.0000000  0  8G07G05G30G02G23G09G16G06
 110894096.110 8  86411012.43046  21102445.547                    21102449.164
      1523.996        1187.683          50.200          41.400
 120097204.283 7  93582267.37445  22853743.813                    22853745.371
      3063.094        2386.875          46.200          32.100
 116083170.495 7  90454453.94446  22089892.609                    22089899.555
      3013.387        2348.253          45.300          37.800
 114557754.535 8  89265842.68746  21799631.336                    21799632.113
        34.777          27.219          48.800          39.000
 122345085.854 8  95333880.24945  23281504.063                    23281506.168
     -2767.781       -2156.689          48.200          34.000
 108277864.641 8  84372394.44547  20604589.438                    20604595.098
     -1592.434       -1240.805          52.500          44.700
 126830440.621 6  98828958.05943  24135038.211                    24135041.719
       -87.254         -67.780          40.400          22.300
 114461739.013 8  89191018.02846  21781354.359                    21781360.965
     -2620.703       -2042.016          50.200          40.600
 18  2 21  8 23  0.0000000  0  8G07G05G30G02G23G09G16G06
 110848624.166 8  86375579.76947  21093792.953                    21093796.074
      1507.648        1174.916          51.500          42.600
 120005402.123 7  93510733.22645  22836274.383                    22836276.879
      3057.211        2382.210          46.700          32.400
 115992934.828 8  90384140.46146  22072721.656                    22072728.480
      3002.355        2339.576          48.100          38.700
 114556993.944 8  89265250.00746  21799486.703                    21799487.598
        16.082          12.768          49.300          38.800
 122428183.338 7  95398631.51545  23297316.539                    23297319.000
     -2771.918       -2159.959          47.900          34.000
 108325801.090 8  84409747.51447  20613711.609                    20613717.266
     -1603.121       -1249.116          52.800          44.700
 126833367.275 7  98831238.56043  24135595.063                    24135598.238
      -107.711         -83.720          42.000          21.500
 114540574.180 8  89252448.02446  21796356.008                    21796362.586
     -2634.770       -2052.935          50.000          39.900
 18  2 21  8 23 30.0000000  0  8G07G05G30G02G23G09G16G06
 110803645.867 8  86340531.75847  21085233.688                    21085236.934
      1491.031        1162.043          51.300          42.300
 119913781.544 7  93439340.58645  22818839.906                    22818841.992
      3050.969        2377.433          47.000          33.600
 115903035.225 8  90314088.83446  22055614.383                    22055621.563
      2991.145        2330.835          49.500          39.000
 114556791.665 8  89265092.38146  21799448.406                    21799449.129
        -2.566          -1.766          49.100          38.900
 122511407.335 8  95463481.35045  23313153.930                    23313155.996
     -2776.246       -2163.237          48.200          33.500
 108374058.675 8  84447350.81747  20622894.945                    20622900.371
     -1613.902       -1257.467          52.600          45.100
 126836909.294 6  98833998.55343  24136269.117                    24136272.648
      -128.410         -99.735          41.100          22.000
 114619830.589 8  89314206.25646  21811438.273                    21811445.031
     -2648.922       -2063.892          50.000          39.900
 18  2 21  8 24  0.0000000  0  8G07G05G30G02G23G09G16G06
 110759162.046 8  86305869.05247  21076768.906                    21076771.938
      1474.637        1149.211          50.700          42.100
