     2.11           OBSERVATION DATA    G (GPS)             RINEX VERSION / TYPE
teqc  2016Nov7                          20180328 12:56:15UTCPGM / RUN BY / DATE
Linux 2.4.21-27.ELsmp|Opteron|gcc|Linux x86_64|=+           COMMENT
teqc  2016Nov7                          20180328 12:56:14UTCCOMMENT
     2.11           OBSERVATION DATA    M (MIXED)           COMMENT
teqc  2016Nov7                          20180328 12:56:11UTCCOMMENT
teqc  2016Nov7      IGN-RGP             20180221 09:16:09UTCCOMMENT
teqc  2015Jun23     IGN-RGP             20180221 09:06:51UTCCOMMENT
Linux2.4.20-8|i386|gcc|Win32-MinGW32|=                      COMMENT
   0.000      (antenna height)                              COMMENT
 +48.96934423 (latitude)                                    COMMENT
  +2.74931221 (longitude)                                   COMMENT
0175.602      (elevation)                                   COMMENT
BIT 2 OF LLI FLAGS DATA COLLECTED UNDER A/S CONDITION       COMMENT
19787M001 (COGO code)                                       COMMENT
SXJ4                                                        MARKER NAME
19787M001                                                   MARKER NUMBER
Automatic           GIE COOP&TECH                           OBSERVER / AGENCY
5132K77647          TRIMBLE NETR5       4.15                REC # / TYPE / VERS
1441009107          TRM55971.00     NONE                    ANT # / TYPE
  4190293.8430   201223.8300  4788453.8890                  APPROX POSITION XYZ
        1.1000        0.0000        0.0000                  ANTENNA: DELTA H/E/N
     1     1                                                WAVELENGTH FACT L1/2
     9    L1    L2    C1    P1    P2    D1    D2    S1    S2# / TYPES OF OBSERV
    30.0000                                                 INTERVAL
    18                                                      LEAP SECONDS
 SNR is mapped to RINEX snr flag value [0-9]                COMMENT
  L1 & L2: min(max(int(snr_dBHz/6), 0), 9)                  COMMENT
teqc_2016 edited: GLONASS # 25 - 30 excluded                COMMENT
Forced Modulo Decimation to 30 seconds                      COMMENT
teqc_2016 edited: all GLONASS satellites excluded           COMMENT
teqc_2016 edited: all SBAS satellites excluded              COMMENT
teqc_2016 edited: all Galileo satellites excluded           COMMENT
  2018     2    21     8     0    0.0000000     GPS         TIME OF FIRST OBS
                                                            END OF HEADER
 18  2 21  8  0  0.0000000  0  8G05G07G02G09G23G30G16G06
 124280725.020 7  96842141.11544  23649843.453                    23649848.070
      3275.602                          45.300          27.800
 113550826.224 8  88481160.17546  21607997.047                    21607999.512
      2236.852                          52.000          36.600
 115113613.826 7  89698972.82345  21905403.313                    21905403.426
       834.367                          46.200          35.100
 106448548.992 8  82946949.78747  20256483.469                    20256487.934
     -1063.230                          52.500          44.500
 118713516.255 8  92504087.46345  22590437.891                    22590439.734
     -2545.430                          49.000          34.100
 120619011.388 7  93988875.21043  22953032.117                    22953036.254
      3444.891                          43.300          22.300
 127242872.515 4  99150320.81142  24213514.219                    24213521.617
       832.520                          28.300          17.400
 111469848.514 8  86859664.02446  21212014.836                    21212019.664
     -1930.648                          50.900          40.200
 18  2 21  8  0 30.0000000  0  8G05G07G02G09G23G30G16G06
 124182514.197 7  96765613.19844  23631154.891                    23631159.234
      3271.598        2549.544          44.900          27.800
 113483936.064 8  88429037.96546  21595268.500                    21595270.602
      2222.461        1732.070          52.300          36.300
 115088854.532 7  89679679.85845  21900692.188                    21900691.547
       816.250         636.380          45.600          34.900
 106480639.942 8  82971955.71747  20262590.414                    20262595.059
     -1076.180        -838.303          52.300          44.600
 118789972.223 8  92563663.52745  22604987.125                    22604988.605
     -2551.621       -1988.107          48.400          33.900
 120515776.812 7  93908432.74343  22933388.133                    22933391.418
      3437.266        2678.617          43.200          22.800
 127218189.686 6  99131087.51743  24208827.102                    24208828.520
       813.027         633.852          41.100          22.300
 111528032.692 8  86905002.35746  21223086.859                    21223091.941
     -1948.328       -1517.823          51.100          40.200
 18  2 21  8  1  0.0000000  0  8G05G07G02G09G23G30G16G06
 124084411.401 7  96689169.46544  23612486.383                    23612490.785
      3268.109        2546.759          42.800          26.700
 113417470.538 8  88377246.64546  21582620.539                    21582623.176
      2208.332        1721.016          51.100          36.900
 115064629.360 7  89660803.09945  21896082.156                    21896081.668
       798.410         622.504          47.000          35.100
 106513108.367 8  82997255.78147  20268768.813                    20268773.000
     -1088.633        -848.074          51.900          44.500
 118866605.226 7  92623377.54045  22619569.852                    22619571.215
     -2557.473       -1992.674          47.900          33.800
 120412765.729 7  93828164.39943  22913785.102                    22913789.441
      3429.832        2672.777          43.000          22.300
 127194084.134 6  99112303.91543  24204236.102                    24204242.035
       793.699         618.854          38.600          20.400
 111586736.027 8  86950745.21346  21234257.609                    21234263.188
     -1965.543       -1531.270          50.200          40.600
 18  2 21  8  1 30.0000000  0  8G05G07G02G09G23G30G16G06
 123986418.614 7  96612811.44744  23593838.664                    23593843.426
      3264.422        2543.805          44.300          28.300
 113351431.893 8  88325787.96446  21570053.945                    21570056.508
      2194.074        1709.860          51.900          38.100
 115040939.662 7  89642343.59045  21891574.133                    21891573.469
       780.605         608.537          47.000          35.800
 106545953.653 8  83022849.50347  20275019.188                    20275023.414
     -1101.203        -857.891          52.300          44.700
 118943414.553 8  92683228.94845  22634186.195                    22634187.832
     -2563.324       -1997.291          49.000          33.700
 120309981.144 7  93748072.54143  22894226.297                    22894229.961
      3422.215        2666.808          43.700          22.300
 127170557.574 6  99093971.68243  24199763.375                    24199760.938
       774.371         603.747          40.500          19.000
 111645957.126 8  86996891.51746  21245527.367                    21245532.691
     -1982.793       -1544.751          50.700          40.400
 18  2 21  8  2  0.0000000  0  8G05G07G02G09G23G30G16G06
 123888537.247 7  96536540.25544  23575212.211                    23575217.039
      3260.852        2540.992          43.100          28.000
 113285821.347 8  88274662.85446  21557568.555                    21557571.371
      2179.836        1698.807          53.000          38.600
 115017785.736 7  89624301.56645  21887167.930                    21887167.379
       762.859         594.696          47.800          35.700
 106579173.823 8  83048735.34047  20281340.633                    20281345.063
     -1113.617        -867.527          52.700          44.200
 119020398.475 7  92743216.40245  22648836.016                    22648837.250
     -2569.016       -2001.739          47.800          32.400
 120207424.699 7  93668158.46543  22874710.016                    22874714.082
      3414.648        2660.946          43.400          23.000
 127147610.719 7  99076090.87643  24195398.383                    24195396.043
       755.195         588.760          44.600          22.900
 111705693.226 8  87043439.12646  21256894.492                    21256899.543
     -1999.773       -1558.010          50.600          40.100
 18  2 21  8  2 30.0000000  0  8G05G07G02G09G23G30G16G06
 123790768.423 7  96460356.76544  23556608.078                    23556612.313
      3257.273        2538.043          44.400          28.000
 113220641.061 8  88223873.01646  21545165.094                    21545167.789
      2165.605        1687.587          52.000          38.900
 114995169.324 7  89606678.38645  21882864.625                    21882864.012
       745.105         580.698          47.700          35.700
 106612768.545 8  83074913.03947  20287733.711                    20287738.000
     -1125.859        -877.256          51.500          44.300
 119097556.612 8  92803339.61645  22663518.445                    22663520.113
     -2574.762       -2006.270          48.500          33.100
 120105099.807 7  93588424.82543  22855238.297                    22855242.246
      3406.977        2654.870          42.200          22.800
 127125245.558 5  99058663.51243  24191137.320                    24191142.879
       735.785         573.621          33.300          19.300
 111765943.218 8  87090387.15946  21268359.625                    21268365.094
     -2016.707       -1571.344          49.700          40.200
 18  2 21  8  3  0.0000000  0  8G05G07G02G09G23G30G16G06
 123693114.665 7  96384262.93144  23538025.289                    23538029.266
      3253.055        2534.973          44.200          28.200
 113155892.851 8  88173419.86846  21532843.891                    21532846.898
      2150.977        1676.291          51.700          38.800
 114973091.321 7  89589474.74246  21878662.438                    21878662.582
       726.914         566.638          47.600          36.200
 106646736.491 8  83101381.56647  20294197.508                    20294201.695
     -1138.578        -886.994          52.400          44.700
 119174887.357 7  92863597.32145  22678234.414                    22678235.668
     -2580.629       -2010.781          47.500          32.100
 120003008.712 7  93508873.36443  22835811.211                    22835815.438
      3399.121        2648.716          42.600          22.600
 127103463.419 7  99041690.51543  24186996.773                    24186995.293
       716.285         558.396          43.900          20.400
 111826704.976 8  87137733.97646  21279922.297                    21279927.762
     -2034.008       -1584.679          49.800          40.100
 18  2 21  8  3 30.0000000  0  8G05G07G02G09G23G30G16G06
 123595576.800 7  96308259.38744  23519463.555                    23519467.832
      3249.133        2531.932          44.900          28.300
 113091578.103 8  88123304.48446  21520605.258                    21520608.195
      2136.406        1665.009          51.000          39.200
 114951552.062 7  89572690.90346  21874564.414                    21874563.941
       708.840         552.638          47.800          36.500
 106681076.109 8  83128139.70047  20300732.227                    20300736.336
     -1151.035        -896.629          51.800          44.500
 119252389.286 7  92923988.41545  22692981.859                    22692983.426
     -2586.375       -2015.214          47.300          32.800
 119901153.577 7  93429505.75743  22816428.938                    22816433.266
      3391.102        2642.555          42.500          22.500
 127082265.634 7  99025172.60543  24182961.867                    24182958.578
       696.707         543.181          42.000          18.300
 111887976.115 8  87185477.71346  21291581.789                    21291587.152
     -2050.957       -1597.885          49.800          40.200
 18  2 21  8  4  0.0000000  0  8G05G07G02G09G23G30G16G06
 123498156.176 7  96232347.22044  23500925.094                    23500929.309
      3245.320        2528.849          43.600          27.600
 113027699.436 8  88073528.90246  21508449.211                    21508452.703
      2122.156        1653.658          52.000          39.100
 114930553.275 8  89556328.20646  21870568.945                    21870567.953
       691.039         538.585          48.400          36.500
 106715786.983 8  83155187.13047  20307337.141                    20307341.781
     -1163.078        -906.273          52.000          44.200
 119330062.196 7  92984512.73945  22707763.148                    22707764.555
     -2591.895       -2019.670          46.600          32.100
 119799537.657 6  93350324.54643  22797091.297                    22797096.695
      3383.289        2636.324          41.600          22.900
 127061653.673 5  99009111.46942  24179037.281                    24179038.055
       677.406         527.957          35.900          16.900
 111949755.445 8  87233617.45046  21303338.156                    21303343.473
     -2067.633       -1611.066          48.700          39.600
 18  2 21  8  4 30.0000000  0  8G05G07G02G09G23G30G16G06
 123400854.779 7  96156527.97044  23482409.430                    23482413.027
      3241.348        2525.757          44.400          28.400
 112964258.325 8  88024094.28346  21496376.422                    21496380.145
      2107.406        1642.298          51.100          38.900
 114910095.423 8  89540387.03146  21866675.180                    21866675.430
       672.922         524.561          49.700          36.300
 106750867.825 8  83182522.84747  20314012.922                    20314017.195
     -1175.566        -915.848          52.600          44.400
 119407904.569 7  93045169.12645  22722576.188                    22722577.289
     -2597.488       -2023.995          47.300          31.800
 119698163.274 6  93271331.58143  22777800.523                    22777806.066
      3375.074        2630.034          40.900          23.600
 127041628.894 6  98993507.71543  24175227.672                    24175228.922
       657.738         512.726          41.400          19.300
 112012040.710 8  87282151.41746  21315190.375                    21315195.867
     -2084.531       -1624.150          49.400          40.100
 18  2 21  8  5  0.0000000  0  8G05G07G02G09G23G30G16G06
 123303674.736 7  96080803.26144  23463916.594                    23463920.461
      3237.246        2522.612          45.300          28.700
 112901256.008 8  87975001.56846  21484387.492                    21484390.836
      2092.578        1630.882          51.400          38.700
 114890178.927 8  89524867.67046  21862885.398                    21862885.285
       654.742         510.502          49.300          36.700
 106786317.164 8  83210145.69747  20320758.844                    20320763.402
     -1187.840        -925.371          53.000          44.500
 119485914.993 7  93105956.44745  22737421.148                    22737422.152
     -2603.172       -2028.344          46.900          32.100
 119597032.640 6  93192528.51043  22758556.555                    22758561.520
      3366.914        2623.700          41.100          22.200
 127022192.314 6  98978362.28942  24171526.133                    24171529.336
       638.016         497.503          39.400          17.800
 112074829.712 8  87331077.91146  21327138.805                    21327144.566
     -2101.355       -1637.198          49.400          39.500
 18  2 21  8  5 30.0000000  0  8G05G07G02G09G23G30G16G06
 123206618.055 7  96005174.65844  23445446.711                    23445451.020
      3232.902        2519.401          45.300          27.900
 112838694.589 8  87926252.43146  21472482.641                    21472485.789
      2077.773        1619.403          51.900          39.500
 114870805.377 8  89509771.38546  21859198.805                    21859198.836
       636.469         496.367          48.800          36.300
 106822134.094 8  83238054.99447  20327574.531                    20327578.797
     -1200.219        -934.929          53.800          44.500
 119564092.501 8  93166873.97545  22752297.523                    22752299.199
     -2608.980       -2032.702          48.000          31.900
 119496148.509 6  93113917.54143  22739358.281                    22739363.996
      3358.461        2617.264          41.000          22.500
 127003345.378 6  98963676.37042  24167940.391                    24167940.379
       618.070         482.071          37.500          17.800
 112138120.589 8  87380395.46946  21339182.563                    21339188.313
     -2118.277       -1650.228          48.100          39.700
 18  2 21  8  6  0.0000000  0  8G05G07G02G09G23G30G16G06
 123109685.443 7  95929642.76644  23427000.531                    23427005.172
      3229.102        2516.143          44.900          28.200
 112776575.681 8  87877848.09546  21460662.305                    21460665.570
      2063.188        1607.867          52.100          39.800
 114851975.328 8  89495098.61846  21855615.492                    21855615.668
       618.609         482.232          49.900          37.300
 106858317.300 8  83266249.69447  20334460.133                    20334464.129
     -1212.148        -944.438          52.100          45.200
 119642435.852 7  93227920.72845  22767205.953                    22767207.324
     -2614.176       -2036.998          47.900          32.300
 119395513.210 6  93035500.46744  22720208.086                    22720213.711
      3350.445        2610.758          40.700          24.700
 126985089.190 6  98949450.76943  24164466.844                    24164469.688
       598.602         466.782          40.100          19.000
 112201911.115 8  87430102.36346  21351321.102                    21351327.082
     -2134.641       -1663.186          48.700          39.400
 18  2 21  8  6 30.0000000  0  8G05G07G02G09G23G30G16G06
 123012878.244 7  95854208.59644  23408578.758                    23408584.113
      3224.965        2512.901          44.000          27.800
 112714900.853 8  87829789.78246  21448925.836                    21448928.984
      2048.480        1596.334          52.800          40.000
 114833689.423 8  89480849.85646  21852135.492                    21852135.656
       600.547         468.109          49.900          37.100
 106894865.780 8  83294729.02447  20341415.039                    20341419.223
     -1224.238        -953.897          53.700          44.900
 119720944.203 8  93289096.05745  22782145.953                    22782147.242
     -2619.586       -2041.247          48.800          32.300
 119295129.440 6  92957279.42343  22701106.523                    22701111.531
      3341.973        2604.152          40.400          23.000
 126967425.132 6  98935686.61443  24161106.070                    24161110.762
       579.152         451.371          39.100          20.100
 112266199.450 8  87480197.15146  21363555.109                    21363560.246
     -2151.156       -1676.065          49.400          39.400
 18  2 21  8  7  0.0000000  0  8G05G07G02G09G23G30G16G06
 122916198.539 7  95778873.76944  23390182.461                    23390186.375
      3220.484        2509.522          44.900          28.200
 112653672.017 8  87782078.98946  21437274.492                    21437277.648
      2033.477        1584.719          53.100          40.200
 114815948.994 8  89467026.14746  21848759.617                    21848760.215
       582.172         453.924          48.700          37.000
 106931778.416 8  83323492.10447  20348439.570                    20348443.563
     -1236.516        -963.345          52.500          44.900
 119799616.312 8  93350398.98045  22797117.063                    22797117.559
     -2625.180       -2045.503          49.100          32.400
 119194999.679 6  92879256.23643  22682051.781                    22682057.523
      3333.531        2597.571          40.300          22.900
 126950354.302 6  98922384.70643  24157857.266                    24157861.129
       559.000         435.904          41.000          19.300
 112330983.477 8  87530678.20346  21375883.438                    21375888.547
     -2167.789       -1688.918          49.300          39.100
 18  2 21  8  7 30.0000000  0  8G05G07G02G09G23G30G16G06
 122819647.934 7  95703639.54244  23371808.688                    23371813.039
      3216.113        2506.157          45.600          28.300
 112592890.659 8  87734716.88846  21425708.195                    21425710.672
      2018.441        1573.084          53.200          40.200
 114798753.830 8  89453627.31346  21845487.898                    21845488.195
       563.969         439.754          49.300          37.100
 106969053.845 9  83352537.88847  20355532.961                    20355536.984
     -1248.711        -972.753          54.300          44.700
 119878450.925 8  93411828.54145  22812117.961                    22812119.781
     -2630.621       -2049.697          49.200          32.300
 119095126.247 6  92801432.83143  22663046.070                    22663051.449
      3324.582        2590.876          40.100          23.500
 126933877.728 6  98909545.80343  24154720.688                    24154722.914
       539.316         420.485          38.800          19.300
 112396260.971 8  87581543.77046  21388305.422                    21388310.563
     -2184.176       -1701.716          50.100          38.400
 18  2 21  8  8  0.0000000  0  8G05G07G02G09G23G30G16G06
 122723228.273 7  95628507.33644  23353460.914                    23353464.957
      3211.813        2502.723          44.100          29.400
 112532558.350 8  87687704.68446  21414227.578                    21414230.059
      2003.594        1561.390          53.400          40.800
 114782105.428 8  89440654.52646  21842319.758                    21842320.129
       545.867         425.536          49.100          36.200
 107006690.843 8  83381865.41447  20362695.172                    20362699.191
     -1260.594        -982.135          53.400          44.500
 119957446.760 8  93473383.71845  22827150.898                    22827152.180
     -2635.820       -2053.877          48.500          33.100
 118995511.580 6  92723811.03643  22644090.008                    22644095.477
      3316.289        2584.110          40.600          23.300
 126917996.577 6  98897170.91043  24151700.883                    24151700.594
       519.453         404.979          39.900          19.600
 112462029.704 8  87632792.11746  21400820.961                    21400825.430
     -2200.414       -1714.458          49.400          39.000
 18  2 21  8  8 30.0000000  0  8G05G07G02G09G23G30G16G06
 122626940.972 7  95553478.30044  23335137.922                    23335142.215
      3207.332        2499.279          45.700          28.600
 112472676.784 8  87641043.71746  21402832.328                    21402835.035
      1988.574        1549.702          53.500          40.600
 114766004.038 8  89428107.98246  21839255.828                    21839256.086
       527.672         411.336          48.300          36.400
 107044688.180 8  83411473.72447  20369925.734                    20369929.855
     -1272.469        -991.461          53.200          44.800
 120036602.835 8  93535063.76845  22842213.445                    22842215.055
     -2641.117       -2058.013          49.100          32.900
 118896158.062 6  92646392.75443  22625183.102                    22625189.398
      3307.496        2577.293          39.000          22.900
 126902711.661 7  98885260.58643  24148792.250                    24148793.668
       499.707         389.550          42.000          20.900
 112528287.536 8  87684421.59346  21413429.391                    21413433.574
     -2216.652       -1727.109          50.400          38.700
 18  2 21  8  9  0.0000000  0  8G05G07G02G09G23G30G16G06
 122530787.699 7  95478553.66544  23316840.492                    23316845.207
      3202.871        2495.764          45.100          28.200
 112413247.275 8  87594735.01646  21391523.234                    21391525.602
      1973.395        1537.897          53.800          40.400
 114750450.338 8  89415988.20846  21836295.727                    21836296.332
       509.199         397.065          48.900          36.100
 107083044.617 8  83441361.85247  20377224.367                    20377228.887
     -1284.457       -1000.816          51.500          44.600
 120115917.900 8  93596867.69145  22857306.586                    22857307.926
     -2646.453       -2062.145          48.100          32.500
 118797068.063 6  92569179.80043  22606327.234                    22606333.418
      3298.496        2570.399          41.100          22.600
 126888024.200 6  98873815.80543  24145996.008                    24146000.777
       479.570         373.932          40.300          19.900
 112595032.203 8  87736430.41846  21426130.336                    21426135.121
     -2232.914       -1739.764          48.600          39.200
 18  2 21  8  9 30.0000000  0  8G05G07G02G09G23G30G16G06
 122434769.998 7  95403734.68144  23298568.477                    23298572.961
      3198.230        2492.188          45.700          29.000
 112354271.839 8  87548780.13946  21380300.711                    21380303.438
      1958.195        1526.075          53.700          40.700
 114735445.399 8  89404296.04246  21833440.484                    21833440.641
       490.957         382.801          48.600          36.100
 107121759.383 8  83471529.19247  20384591.617                    20384595.621
     -1296.535       -1010.104          53.600          44.500
 120195391.306 8  93658795.01945  22872429.688                    22872431.055
     -2651.699       -2066.264          48.300          32.800
 118698244.598 6  92492174.50744  22587521.891                    22587527.492
      3289.582        2563.457          40.500          24.400
 126873935.389 6  98862837.56643  24143315.258                    24143318.137
       459.551         358.385          39.500          19.600
 112662262.012 8  87788817.27346  21438923.813                    21438928.309
     -2249.145       -1752.353          50.000          38.400
 18  2 21  8 10  0.0000000  0  8G05G07G02G09G23G30G16G06
 122338889.552 7  95329022.67744  23280323.859                    23280327.617
      3193.547        2488.644          44.600          29.400
 112295751.980 8  87503180.25746  21369164.422                    21369167.293
      1942.848        1514.241          53.000          40.400
 114720989.679 8  89393031.83445  21830689.625                    21830689.961
       472.500         368.552          48.900          35.500
 107160831.099 8  83501974.68247  20392026.781                    20392030.797
     -1308.480       -1019.329          52.700          44.300
 120275021.503 7  93720844.49245  22887582.555                    22887584.316
     -2657.133       -2070.313          47.900          32.800
 118599689.824 6  92415378.61243  22568767.922                    22568772.695
      3280.414        2556.434          39.200          22.500
 126860446.404 7  98852326.67243  24140748.766                    24140748.551
       439.438         342.775          42.300          20.400
 112729974.532 8  87841580.27346  21451809.094                    21451813.719
     -2265.281       -1764.834          49.500          38.800
 18  2 21  8 10 30.0000000  0  8G05G07G02G09G23G30G16G06
 122243147.672 7  95254418.62144  23262104.469                    23262108.715
      3189.047        2485.026          46.200          29.300
 112237688.652 8  87457936.12146  21358115.133                    21358118.520
      1927.785        1502.376          53.000          40.200
 114707083.362 7  89382195.73246  21828043.273                    21828043.742
       454.367         354.281          47.200          36.500
 107200258.204 8  83532697.09847  20399529.664                    20399533.863
     -1320.113       -1028.551          52.400          44.200
 120354807.202 7  93783015.14545  22902765.625                    22902767.449
     -2662.121       -2074.314          47.300          32.400
 118501405.830 6  92338793.69743  22550064.859                    22550070.539
      3271.488        2549.368          40.100          22.800
 126847557.808 7  98842283.55243  24138296.648                    24138294.941
       419.664         327.222          43.400          20.900
 112798167.147 8  87894717.35646  21464785.672                    21464790.328
     -2281.031       -1777.251          48.400          38.100
 18  2 21  8 11  0.0000000  0  8G05G07G02G09G23G30G16G06
 122147547.018 7  95179924.61144  23243912.281                    23243916.023
      3184.367        2481.336          46.100          29.100
 112180084.048 8  87413049.42746  21347153.297                    21347156.297
      1912.570        1490.465          53.500          39.900
 114693727.759 7  89371788.75445  21825501.461                    21825502.344
       436.121         339.979          47.900          35.500
 107240040.037 8  83563695.92947  20407100.031                    20407103.730
     -1331.859       -1037.728          53.200          44.600
 120434747.966 7  93845306.63445  22917977.945                    22917979.527
     -2667.250       -2078.313          47.100          32.000
 118403395.645 7  92262422.12343  22531414.461                    22531419.203
      3262.449        2542.261          42.300          22.800
 126835270.610 6  98832709.05943  24135957.398                    24135958.336
       399.602         311.593          40.400          20.600
 112866838.238 8  87948227.26646  21477853.625                    21477857.898
     -2296.957       -1789.647          48.500          38.000
 18  2 21  8 11 30.0000000  0  8G05G07G02G09G23G30G16G06
 122052088.841 7  95105541.63945  23225747.547                    23225751.113
      3179.617        2477.643          45.500          30.200
 112122939.480 8  87368521.19246  21336279.164                    21336281.883
      1897.176        1478.482          53.900          40.100
 114680923.053 7  89361811.05345  21823065.273                    21823065.707
       417.652         325.677          47.800          35.900
 107280175.146 8  83594970.04047  20414737.125                    20414740.965
     -1343.637       -1046.901          53.900          44.100
 120514842.244 7  93907717.73445  22933219.664                    22933220.258
     -2672.398       -2082.304          46.800          31.500
 118305661.409 6  92186265.61443  22512816.055                    22512821.199
      3253.285        2535.056          40.200          22.800
 126823585.761 6  98823604.01943  24133733.688                    24133736.680
       379.414         295.885          40.400          21.300
 112935985.227 8  88002107.97946  21491011.219                    21491016.082
     -2312.711       -1801.972          48.500          37.700
 18  2 21  8 12  0.0000000  0  8G05G07G02G09G23G30G16G06
 121956774.571 7  95031270.80444  23207610.227                    23207613.164
      3174.945        2473.924          46.400          29.900
 112066256.549 9  87324352.67746  21325493.141                    21325495.422
      1882.047        1466.553          54.200          40.200
 114668669.736 7  89352263.00446  21820733.531                    21820734.129
       399.500         311.416          47.900          36.300
 107320662.439 8  83626518.57647  20422441.813                    20422445.621
     -1355.152       -1055.947          53.700          43.700
 120595089.360 7  93970247.93645  22948490.297                    22948491.113
     -2677.152       -2086.190          47.500          32.400
 118208205.668 7  92110326.08943  22494270.938                    22494275.957
      3244.270        2527.895          42.000          23.200
 126812504.235 6  98814969.05643  24131625.016                    24131628.785
       359.691         280.335          39.800          21.500
 113005606.069 8  88056357.94046  21504259.898                    21504264.855
     -2328.352       -1814.206          49.100          37.900
 18  2 21  8 12 30.0000000  0  8G05G07G02G09G23G30G16G06
 121861606.302 7  94957113.70344  23189498.984                    23189503.012
      3169.676        2470.077          46.600          29.700
 112010036.762 9  87280545.06646  21314794.805                    21314797.051
      1866.238        1454.471          54.000          40.600
 114656968.288 7  89343144.98445  21818506.672                    21818507.098
       380.754         297.030          47.600          35.900
 107361500.585 8  83658340.50347  20430212.938                    20430217.086
     -1367.191       -1065.108          53.800          43.900
 120675487.771 7  94032896.03045  22963789.422                    22963790.430
     -2682.531       -2090.127          46.800          32.100
 118111030.756 6  92034605.39643  22475778.664                    22475784.008
      3234.465        2520.537          41.000          22.500
 126802026.781 6  98806804.79743  24129632.266                    24129634.039
       339.094         264.561          41.900          21.300
 113075698.258 8  88110975.18446  21517597.789                    21517603.234
     -2344.297       -1826.438          48.800          37.500
 18  2 21  8 13  0.0000000  0  8G05G07G02G09G23G30G16G06
 121766585.555 7  94883071.60645  23171418.219                    23171421.156
      3164.758        2466.230          46.000          30.000
 111954281.292 9  87237099.25046  21304184.961                    21304187.328
      1850.602        1442.338          54.200          40.600
 114645819.686 8  89334457.75545  21816385.531                    21816385.566
       362.273         282.626          48.300          35.800
 107402688.618 8  83690435.07447  20438050.602                    20438055.047
     -1378.820       -1074.194          53.800          43.400
 120756036.643 7  94095661.36445  22979117.133                    22979118.156
     -2687.578       -2094.066          45.600          31.700
 118014139.334 7  91959105.61744  22457341.813                    22457346.840
      3224.883        2513.056          42.300          24.100
 126792154.518 6  98799112.07043  24127752.914                    24127753.082
       318.879         248.818          41.600          20.100
 113146259.829 8  88165958.16746  21531025.445                    21531030.457
     -2360.020       -1838.645          49.700          37.900
 18  2 21  8 13 30.0000000  0  8G05G07G02G09G23G30G16G06
 121671713.038 7  94809144.97244  23153364.453                    23153367.375
      3159.918        2462.290          47.000          29.600
 111898992.374 9  87194016.98246  21293663.648                    21293666.047
      1835.145        1430.173          54.500          40.100
 114635224.254 7  89326201.57246  21814369.273                    21814369.750
       343.930         268.225          47.500          36.200
 107444225.477 8  83722801.44247  20445954.945                    20445959.496
     -1390.336       -1083.290          53.700          43.800
 120836735.053 7  94158543.22045  22994473.930                    22994475.055
     -2692.461       -2097.970          46.800          32.700
 117917533.894 7  91883828.65244  22438958.000                    22438963.000
      3215.371        2505.577          43.200          25.000
 126782888.677 6  98791891.89843  24125988.859                    24125989.914
       298.855         232.997          38.600          19.300
 113217288.560 8  88221305.17746  21544541.805                    21544547.066
     -2375.355       -1850.787          49.400          37.900
 18  2 21  8 14  0.0000000  0  8G05G07G02G09G23G30G16G06
 121576991.771 7  94735336.19545  23135338.961                    23135342.254
      3154.762        2458.404          46.000          30.900
 111844170.669 8  87151298.77246  21283231.617                    21283233.785
      1819.504        1418.097          53.800          40.900
 114625182.099 8  89318376.50945  21812458.406                    21812458.402
       325.348         253.907          48.100          35.700
 107486109.431 8  83755438.28147  20453925.063                    20453929.465
     -1401.898       -1092.205          53.500          43.700
 120917581.538 7  94221540.46345  23009858.406                    23009859.527
     -2697.480       -2101.729          46.600          31.200
 117821216.384 7  91808776.07644  22420629.891                    22420634.375
      3205.578        2498.162          42.000          27.700
 126774229.060 6  98785144.17943  24124340.828                    24124344.008
       278.418         217.348          38.600          19.900
 113288781.640 8  88277014.01946  21558146.406                    21558151.465
     -2390.949       -1862.730          49.900          37.700
 18  2 21  8 14 30.0000000  0  8G05G07G02G09G23G30G16G06
 121482423.784 7  94661646.86444  23117343.391                    23117346.563
      3149.711        2454.334          47.600          29.300
 111789817.835 9  87108945.92246  21272888.539                    21272890.566
      1803.938        1405.830          54.100          40.300
 114615694.195 7  89310983.33145  21810652.742                    21810652.395
       306.961         239.443          47.600          35.600
 107528339.612 9  83788344.90347  20461961.070                    20461965.668
     -1413.371       -1101.256          54.300          43.500
 120998575.110 7  94284652.30845  23025271.008                    23025272.227
     -2702.164       -2105.588          46.200          32.200
 117725189.536 7  91733949.98444  22402356.180                    22402360.844
      3196.004        2490.516          42.700          27.400
 126766176.870 6  98778869.79043  24122809.609                    24122813.023
       258.344         201.462          40.300          20.900
 113360737.147 8  88333083.20946  21571838.852                    21571844.582
     -2406.141       -1874.794          50.200          38.200
 18  2 21  8 15  0.0000000  0  8G05G07G02G09G23G30G16G06
 121388010.123 7  94588077.79644  23099377.203                    23099380.031
      3144.520        2450.334          46.300          29.000
 111735934.926 9  87066959.24846  21262634.859                    21262636.918
      1788.188        1393.615          54.100          39.700
 114606760.387 8  89304021.91245  21808952.438                    21808952.473
       288.512         225.055          48.300          35.700
 107570914.506 8  83821520.13447  20470062.906                    20470067.352
     -1424.785       -1110.185          53.800          43.200
 121079714.429 7  94347877.73645  23040711.516                    23040712.262
     -2707.074       -2109.367          47.200          31.500
 117629455.430 7  91659351.99744  22384137.953                    22384143.512
      3186.230        2482.867          42.500          28.500
 126758732.875 6  98773069.26943  24121393.602                    24121397.340
       237.996         185.730          41.700          21.500
 113433152.442 8  88389510.72346  21585619.219                    21585625.035
     -2421.605       -1886.706          48.800          37.600
 18  2 21  8 15 30.0000000  0  8G05G07G02G09G23G30G16G06
 121293752.700 7  94514630.45944  23081441.109                    23081443.672
      3139.234        2446.284          47.000          29.700
 111682523.974 8  87025340.34546  21252470.727                    21252473.566
      1772.328        1381.352          52.800          39.600
 114598381.705 8  89297493.06646  21807358.531                    21807358.184
       269.840         210.650          48.600          36.200
 107613833.344 9  83854963.37447  20478230.102                    20478234.766
     -1436.586       -1119.080          54.000          43.500
 121160999.084 7  94411216.40845  23056179.594                    23056180.371
     -2712.047       -2113.108          45.800          31.400
 117534016.914 7  91584984.33844  22365976.922                    22365982.133
      3176.145        2475.191          42.600          28.000
 126751897.533 7  98767743.03043  24120092.758                    24120095.883
       217.535         169.883          42.800          22.800
 113506025.503 8  88446294.92846  21599486.758                    21599492.055
     -2436.793       -1898.542          48.800          38.000
 18  2 21  8 16  0.0000000  0  8G05G07G02G09G23G30G16G06
 121199652.451 7  94441305.60545  23063533.656                    23063536.883
      3134.121        2442.190          46.700          30.000
 111629586.518 8  86984090.39346  21242397.180                    21242399.699
      1756.879        1369.082          53.500          39.300
 114590558.492 8  89291397.05045  21805869.727                    21805869.383
       251.707         196.259          48.100          35.700
 107657094.901 8  83888673.66647  20486462.656                    20486466.883
     -1447.613       -1127.944          53.800          43.100
 121242428.002 7  94474667.49845  23071675.016                    23071675.645
     -2716.543       -2116.796          46.700          31.600
 117438876.392 7  91510848.89844  22347871.813                    22347877.457
      3166.566        2467.457          42.600          29.100
 126745671.927 7  98762891.91943  24118908.430                    24118910.504
       197.496         154.065          42.200          22.300
 113579353.936 8  88503433.95046  21613440.563                    21613445.629
     -2451.637       -1910.284          49.600          38.000
 18  2 21  8 16 30.0000000  0  8G05G07G02G09G23G30G16G06
 121105711.818 7  94368105.15444  23045658.516                    23045660.699
      3128.695        2437.991          47.000          29.800
 111577123.373 8  86943210.04246  21232413.492                    21232416.656
      1740.863        1356.684          52.600          40.400
 114583290.905 8  89285733.99146  21804486.938                    21804486.453
       233.051         181.764          48.100          36.000
 107700697.875 9  83922649.99847  20494759.852                    20494764.379
     -1459.125       -1136.848          54.000          43.200
 121323999.777 7  94538229.89845  23087197.633                    23087198.086
     -2721.453       -2120.548          47.200          31.800
 117344036.189 7  91436947.46844  22329824.328                    22329830.453
      3156.332        2459.570          42.900          29.000
 126740056.597 7  98758516.28343  24117839.359                    24117839.813
       177.059         138.161          43.000          21.800
 113653135.325 8  88560925.92146  21627480.883                    21627486.594
     -2466.832       -1922.093          49.300          38.900
 18  2 21  8 17  0.0000000  0  8G05G07G02G09G23G30G16G06
 121011932.771 7  94295030.56845  23027813.078                    23027814.891
      3123.270        2433.746          47.300          30.000
 111525136.128 8  86902700.51046  21222520.852                    21222523.688
      1724.934        1344.311          53.200          40.400
 114576579.417 7  89280504.25146  21803209.633                    21803209.680
       214.555         167.319          47.500          36.200
 107744641.065 8  83956891.43147  20503122.070                    20503126.547
     -1470.441       -1145.668          53.400          43.900
 121405713.410 7  94601902.83745  23102746.930                    23102747.520
     -2726.164       -2124.223          46.800          31.600
 117249498.659 7  91363281.91045  22311834.969                    22311840.750
      3146.121        2451.653          42.800          30.000
 126735052.027 6  98754616.58643  24116885.695                    24116886.504
       156.672         122.271          41.100          19.600
 113727367.199 8  88618768.89046  21641606.836                    21641612.359
     -2481.770       -1933.753          49.200          38.600
 18  2 21  8 17 30.0000000  0  8G05G07G02G09G23G30G16G06
 120918317.365 7  94222083.51244  23009997.695                    23010000.430
      3117.785        2429.504          46.800          29.800
 111473626.148 8  86862562.87346  21212718.898                    21212721.844
      1709.074        1331.898          53.400          40.900
 114570424.024 7  89275707.83746  21802037.914                    21802038.359
       195.914         152.881          47.800          36.900
 107788923.288 8  83991397.04147  20511548.313                    20511552.746
     -1481.715       -1154.446          53.000          43.000
 121487567.675 7  94665685.36145  23118323.156                    23118324.348
     -2730.816       -2127.848          46.400          32.000
 117155266.175 7  91289854.04445  22293903.000                    22293908.547
      3135.992        2443.736          43.400          30.400
 126730659.064 6  98751193.52943  24116049.727                    24116050.984
       136.227         106.416          39.600          20.600
 113802047.249 8  88676961.10546  21655817.906                    21655823.340
     -2496.793       -1945.369          48.500          38.900
 18  2 21  8 18  0.0000000  0  8G05G07G02G09G23G30G16G06
 120824866.421 7  94149264.63545  22992215.188                    22992217.398
      3112.449        2425.270          47.300          30.000
 111422594.743 8  86822798.14846  21203007.906                    21203010.938
      1693.281        1319.541          53.900          40.800
 114564825.283 7  89271345.17646  21800972.898                    21800972.832
       177.582         138.488          47.600          36.600
 107833543.322 8  84026165.88647  20520039.469                    20520043.813
     -1492.680       -1163.143          53.500          43.000
 121569561.936 7  94729576.96245  23133926.719                    23133927.348
     -2735.195       -2131.412          47.000          31.500
 117061341.123 7  91216665.71245  22276029.289                    22276035.238
      3125.898        2435.794          43.000          31.100
 126726878.237 6  98748247.44143  24115329.695                    24115331.777
       115.840          90.504          38.100          20.100
 113877172.987 8  88735500.57946  21670114.172                    21670119.250
     -2511.469       -1956.841          49.100          38.200
 18  2 21  8 18 30.0000000  0  8G05G07G02G09G23G30G16G06
 120731582.576 7  94076575.93045  22974463.930                    22974466.324
      3106.578        2420.787          47.600          30.700
 111372043.180 8  86783407.32946  21193388.547                    21193391.141
      1676.988        1306.929          53.400          41.300
 114559783.632 8  89267416.61446  21800013.594                    21800013.434
       158.676         123.902          48.100          37.700
 107878499.907 8  84061196.97647  20528594.359                    20528598.684
     -1504.262       -1171.993          53.800          43.000
 121651695.052 7  94793576.77745  23149556.227                    23149556.859
     -2740.223       -2135.123          47.800          32.000
 116967725.820 7  91143718.76045  22258215.055                    22258220.758
      3115.176        2427.596          43.800          31.900
 126723709.824 6  98745778.55743  24114727.820                    24114730.910
        95.309          74.528          38.700          19.300
 113952741.976 8  88794385.44446  21684494.234                    21684499.168
     -2526.422       -1968.438          48.400          38.300
 18  2 21  8 19  0.0000000  0  8G05G07G02G09G23G30G16G06
 120638466.939 8  94004018.30545  22956744.703                    22956746.691
      3100.961        2416.491          48.200          30.000
 111321972.756 9  86744391.42746  21183860.500                    21183863.238
      1660.957        1294.479          54.600          41.400
 114555299.085 7  89263922.15646  21799160.188                    21799160.320
       140.195         109.491          47.500          37.200
 107923791.824 8  84096489.36247  20537213.125                    20537217.527
     -1515.332       -1180.606          53.900          43.200
 121733965.846 8  94857683.86445  23165211.531                    23165211.969
     -2744.633       -2138.621          48.000          31.500
 116874422.643 7  91071015.00345  22240459.563                    22240465.965
      3104.750        2419.524          44.600          32.100
 126721154.516 6  98743787.40243  24114241.414                    24114245.488
        74.996          58.698          38.200          19.900
 114028751.794 8  88853613.81346  21698958.219                    21698963.723
     -2541.027       -1979.784          48.100          38.300
 18  2 21  8 19 30.0000000  0  8G05G07G02G09G23G30G16G06
 120545521.565 7  93931593.34845  22939057.516                    22939059.617
      3095.207        2412.020          47.700          30.800
 111272384.779 9  86705751.45246  21174423.867                    21174426.695
      1644.797        1281.943          54.000          41.300
 114551371.928 8  89260862.02146  21798412.836                    21798413.066
       121.535          95.022          48.700          37.100
 107969417.822 8  84132042.07747  20545895.641                    20545900.008
     -1526.480       -1189.268          53.700          43.400
 121816373.410 7  94921897.53345  23180893.438                    23180894.453
     -2749.289       -2142.145          47.000          31.000
 116781433.894 7  90998556.28345  22222764.453                    22222770.668
      3094.273        2411.328          45.400          32.500
 126719212.847 6  98742274.44243  24113872.508                    24113876.457
        54.438          42.766          41.400          20.900
 114105199.900 7  88913183.70346  21713505.797                    21713511.566
     -2555.652       -1991.128          47.500          37.600
 18  2 21  8 20  0.0000000  0  8G05G07G02G09G23G30G16G06
 120452748.109 7  93859302.36645  22921402.773                    22921405.391
      3089.590        2407.559          47.500          30.800
 111223280.412 8  86667488.31946  21165079.578                    21165082.363
      1628.715        1269.390          53.400          41.700
 114548002.299 8  89258236.32346  21797771.508                    21797772.207
       103.094          80.567          49.000          37.600
 108015376.658 9  84167854.14647  20554641.336                    20554645.590
     -1537.406       -1197.880          54.100          43.500
 121898916.765 7  94986217.00345  23196600.250                    23196601.637
     -2753.633       -2145.631          46.600          30.500
 116688761.942 7  90926344.38845  22205129.563                    22205135.594
      3083.734        2403.099          45.900          32.900
 126717885.194 6  98741239.89843  24113619.680                    24113623.707
        34.027          26.799          40.100          20.400
 114182083.803 8  88973093.15846  21728136.328                    21728142.289
     -2569.949       -2002.384          48.300          37.500
 18  2 21  8 20 30.0000000  0  8G05G07G02G09G23G30G16G06
 120360148.579 8  93787146.89545  22903782.289                    22903784.262
      3083.699        2403.043          48.000          30.400
 111174661.182 8  86629603.21746  21155827.781                    21155830.629
      1612.563        1256.819          53.300          41.300
 114545190.638 8  89256045.42046  21797236.414                    21797236.859
        84.379          66.084          49.500          37.500
 108061667.337 8  84203924.79747  20563450.375                    20563454.180
     -1548.547       -1206.427          53.900          43.700
 121981594.785 7  95050641.40744  23212333.148                    23212334.691
     -2758.105       -2149.076          46.700          29.700
 116596409.265 7  90854381.28045  22187555.398                    22187561.234
      3073.133        2394.819          45.500          32.100
 126717171.894 6  98740684.06943  24113484.992                    24113487.188
        13.625          10.887          41.800          19.900
 114259401.294 7  89033340.50046  21742849.445                    21742855.789
     -2584.500       -2013.592          46.200          37.800
 18  2 21  8 21  0.0000000  0  8G05G07G02G09G23G30G16G06
 120267724.583 7  93715128.20845  22886194.094                    22886196.543
      3077.867        2398.446          47.100          31.200
 111126528.008 8  86592096.86646  21146667.977                    21146671.379
      1596.309        1244.119          52.800          41.100
 114542936.966 8  89254289.29746  21796807.727                    21796808.430
        65.828          51.551          48.300          37.900
 108108288.636 8  84240253.07547  20572322.313                    20572326.219
     -1559.539       -1215.065          53.800          44.200
 122064406.398 7  95115169.91044  23228091.945                    23228093.836
     -2762.508       -2152.594          46.600          29.900
 116504378.214 7  90782668.80945  22170043.398                    22170048.980
      3062.402        2386.382          46.000          33.900
 126717073.712 7  98740607.52043  24113466.141                    24113467.922
        -7.023          -5.138          42.400          20.400
 114337149.818 7  89093923.70046  21757644.109                    21757650.316
     -2598.711       -2024.802          46.000          37.100
 18  2 21  8 21 30.0000000  0  8G05G07G02G09G23G30G16G06
 120175477.614 7  93643247.47245  22868639.930                    22868642.266
      3072.133        2393.852          47.400          30.200
 111078882.278 8  86554970.33946  21137601.422                    21137604.520
      1580.250        1231.487          53.200          41.300
 114541241.169 7  89252967.88646  21796484.930                    21796485.785
        47.406          37.106          47.600          37.100
 108155239.172 9  84276837.89847  20581256.844                    20581260.461
     -1570.348       -1223.563          54.100          44.300
 122147350.746 7  95179801.83945  23243875.211                    23243876.727
     -2766.812       -2155.990          46.700          30.100
 116412671.013 7  90711208.67945  22152591.164                    22152597.465
      3051.613        2377.981          46.800          33.500
 126717590.757 6  98741010.41543  24113563.734                    24113566.836
       -27.336         -21.103          41.300          21.500
 114415326.642 8  89154840.63546  21772520.992                    21772526.859
     -2612.824       -2035.864          48.100          37.500
 18  2 21  8 22  0.0000000  0  8G05G07G02G09G23G30G16G06
 120083410.648 7  93571506.99445  22851120.414                    22851122.023
      3065.848        2389.048          47.700          30.200
 111031725.344 8  86518224.68947  21128627.992                    21128631.117
      1563.711        1218.678          53.000          42.100
 114540104.030 7  89252081.79246  21796268.727                    21796269.090
        28.543          22.496          47.800          37.300
 108202518.058 9  84313678.58647  20590253.539                    20590257.273
     -1581.445       -1232.164          54.400          43.900
 122230426.858 7  95244536.44544  23259684.461                    23259686.145
     -2771.387       -2159.485          46.300          29.100
 116321290.189 7  90640002.85145  22135202.352                    22135208.078
      3040.473        2369.376          47.800          33.000
 126718723.732 6  98741893.24343  24113778.648                    24113782.805
       -48.082         -37.182          40.500          20.100
 114493929.526 7  89216089.58946  21787479.070                    21787484.582
     -2627.180       -2046.994          47.800          37.200
 18  2 21  8 22 30.0000000  0  8G05G07G02G09G23G30G16G06
 119991524.255 8  93499907.20745  22833635.211                    22833636.836
      3059.855        2384.422          48.400          30.500
 110985058.104 8  86481860.58847  21119747.680                    21119750.504
      1547.371        1206.008          52.800          42.300
 114539525.243 8  89251630.77446  21796158.500                    21796158.852
         9.980           8.051          48.800          36.700
 108250123.690 8  84350773.87847  20599313.070                    20599316.609
     -1592.242       -1240.578          53.300          43.900
 122313633.703 7  95309372.92744  23275518.109                    23275520.211
     -2775.809       -2162.826          46.100          29.500
 116230237.788 7  90569052.93945  22117875.672                    22117881.043
      3029.574        2360.885          47.000          32.800
 126720472.475 6  98743255.85043  24114111.969                    24114115.363
       -68.629         -53.130          40.500          19.900
 114572955.792 7  89277668.45446  21802516.813                    21802522.996
     -2641.238       -2057.889          47.600          36.600
 18  2 21  8 23  0.0000000  0  8G05G07G02G09G23G30G16G06
 119899820.922 7  93428450.08545  22816184.367                    22816185.738
      3053.559        2379.584          47.800          31.100
 110938881.918 8  86445879.16047  21110961.031                    21110963.023
      1530.824        1193.215          53.800          42.400
 114539505.370 7  89251615.28246  21796154.547                    21796154.969
        -8.855          -6.485          47.000          37.300
 108298055.420 8  84388123.27547  20608434.039                    20608437.609
     -1603.324       -1249.051          53.100          44.400
 122396970.356 7  95374310.55345  23291376.531                    23291378.621
     -2780.156       -2166.190          46.200          30.000
 116139516.627 7  90498361.14845  22100611.930                    22100617.246
      3018.355        2352.228          47.300          33.700
 126722837.803 6  98745098.95943  24114561.680                    24114565.004
       -89.316         -69.201          38.600          20.100
 114652403.359 7  89339575.60146  21817635.391                    21817641.148
     -2655.453       -2068.829          46.700          37.700
 18  2 21  8 23 30.0000000  0  8G05G07G02G09G23G30G16G06
 119808302.457 8  93357137.00945  22798769.531                    22798770.906
      3047.375        2374.759          48.100          31.100
 110893197.835 8  86410281.18447  21102267.500                    21102270.289
      1514.586        1180.427          51.700          42.100
 114540043.795 7  89252034.82846  21796256.992                    21796257.160
       -27.254         -20.978          47.600          36.800
 108346311.575 8  84425725.46947  20617616.758                    20617620.707
     -1613.969       -1257.456          53.000          44.200
 122480435.528 7  95439348.32244  23307260.273                    23307261.297
     -2784.344       -2169.519          46.800          29.500
 116049128.559 7  90427928.89345  22083411.273                    22083417.004
      3007.320        2343.551          46.600          32.600
 126725819.521 6  98747422.36643  24115128.914                    24115132.090
      -109.660         -85.195          41.100          19.900
 114732269.158 7  89401808.65346  21832833.219                    21832839.180
     -2669.133       -2079.636          47.500          37.300
 18  2 21  8 24  0.0000000  0  8G05G07G02G09G23G30G16G06
 119716970.804 8  93285969.49745  22781389.313                    22781390.754
      3041.125        2369.911          48.700          31.500
