     2.11           OBSERVATION DATA    G (GPS)             RINEX VERSION / TYPE
teqc  2016Nov7                          20180328 12:56:15UTCPGM / RUN BY / DATE
Linux 2.4.21-27.ELsmp|Opteron|gcc|Linux x86_64|=+           COMMENT
teqc  2016Nov7                          20180328 12:56:14UTCCOMMENT
     2.11           OBSERVATION DATA    M (MIXED)           COMMENT
teqc  2016Nov7                          20180328 12:56:12UTCCOMMENT
teqc  2016Nov7      IGN-RGP             20180221 09:16:09UTCCOMMENT
teqc  2015Jun23     IGN-RGP             20180221 09:08:01UTCCOMMENT
Linux2.4.20-8|i386|gcc|Win32-MinGW32|=                      COMMENT
   0.000      (antenna height)                              COMMENT
 +49.65372884 (latitude)                                    COMMENT
  +1.21568009 (longitude)                                   COMMENT
0219.400      (elevation)                                   COMMENT
BIT 2 OF LLI FLAGS DATA COLLECTED UNDER A/S CONDITION       COMMENT
19691M001 (COGO code)                                       COMMENT
SXJ6                                                        MARKER NAME
19691M001                                                   MARKER NUMBER
Automatic           GIE COOP&TECH                           OBSERVER / AGENCY
5133K77888          TRIMBLE NETR5       4.42                REC # / TYPE / VERS
1441127519          TRM57971.00     NONE                    ANT # / TYPE
  4136503.5040    87779.9330  4838110.7610                  APPROX POSITION XYZ
        0.5000        0.0000        0.0000                  ANTENNA: DELTA H/E/N
     1     1                                                WAVELENGTH FACT L1/2
     9    L1    L2    C1    S1    S2    P1    P2    D1    D2# / TYPES OF OBSERV
    30.0000                                                 INTERVAL
    18                                                      LEAP SECONDS
 SNR is mapped to RINEX snr flag value [0-9]                COMMENT
  L1 & L2: min(max(int(snr_dBHz/6), 0), 9)                  COMMENT
teqc_2016 edited: GLONASS # 25 - 30 excluded                COMMENT
Forced Modulo Decimation to 30 seconds                      COMMENT
teqc_2016 edited: all GLONASS satellites excluded           COMMENT
teqc_2016 edited: all SBAS satellites excluded              COMMENT
teqc_2016 edited: all Galileo satellites excluded           COMMENT
  2018     2    21     8     0    0.0000000     GPS         TIME OF FIRST OBS
                                                            END OF HEADER
 18  2 21  8  0  0.0000000  0  8G09G07G05G16G30G02G23G06
 106546089.524 8  83022945.43047  20275041.031          51.500          45.400
                  20275046.453       -1112.645
 113939705.048 8  88784237.72146  21682011.805          51.400          38.900
                  21682014.406        2271.680
 123619248.480 7  96326733.62344  23523970.383          46.000          29.900
                  23523973.293        3251.699
 127484586.329 6  99338696.67043  24259521.133          37.600          20.100
                  24259524.418         913.660
 120974795.884 7  94266156.08045  23020748.719          44.900          30.400
                  23020756.336        3461.859
 114656698.131 7  89342909.77246  21818452.633          46.700          38.300
                  21818453.512         788.438
 119031305.507 7  92751693.57845  22650908.367          47.200          33.100
                  22650909.504       -2592.820
 111443707.729 8  86839302.26947  21207042.398          50.100          42.500
                  21207048.938       -1988.758
 18  2 21  8  0 30.0000000  0  8G09G07G05G16G30G02G23G06
 106579666.093 8  83049108.98347  20281430.430          52.300          44.900
                  20281436.004       -1125.738        -877.023
 113871766.472 8  88731298.58146  21669083.695          51.400          38.900
                  21669087.141        2257.438        1759.299
 123521755.789 7  96250765.29344  23505417.641          46.500          28.900
                  23505421.242        3247.590        2530.715
 127457460.369 6  99317559.59643  24254359.570          39.300          20.400
                  24254362.133         894.664         697.338
 120871048.628 7  94185314.11645  23001006.664          45.800          30.200
                  23001012.910        3454.594        2691.971
 114633313.224 8  89324687.76346  21814002.438          48.000          38.200
                  21814003.027         770.504         600.617
 119109178.377 8  92812373.71345  22665727.320          48.200          34.200
                  22665728.492       -2598.812       -2024.975
 111503628.595 8  86885993.85246  21218444.883          49.100          41.900
                  21218451.352       -2005.965       -1562.899
 18  2 21  8  1  0.0000000  0  8G09G07G05G16G30G02G23G06
 106613628.477 8  83075573.18047  20287893.125          51.200          45.800
                  20287898.406       -1138.516        -887.002
 113804249.549 8  88678687.99746  21656235.500          52.100          39.700
                  21656239.320        2243.422        1748.351
 123424382.120 7  96174889.71244  23486888.492          45.500          29.900
                  23486891.941        3243.695        2527.635
 127430907.810 6  99296869.29643  24249307.281          39.500          19.600
                  24249309.867         875.293         682.394
 120767519.181 7  94104641.80545  22981305.508          45.300          31.400
                  22981312.625        3447.246        2686.284
 114610464.548 7  89306883.59846  21809654.453          47.700          37.900
                  21809655.203         752.543         586.703
 119187230.623 7  92873193.62245  22680580.469          47.600          34.000
                  22680581.750       -2604.820       -2029.604
 111564063.748 7  86933086.16346  21229945.594          47.800          41.700
                  21229952.016       -2023.102       -1576.207
 18  2 21  8  1 30.0000000  0  8G09G07G05G16G30G02G23G06
 106647975.472 8  83102337.07147  20294428.852          52.000          45.300
                  20294434.348       -1151.172        -896.925
 113737155.994 8  88626407.29446  21643468.148          52.100          39.900
                  21643471.332        2229.477        1737.363
 123327128.906 7  96099107.99244  23468381.617          46.500          28.900
                  23468384.840        3239.840        2524.527
 127404930.282 6  99276627.04443  24244364.234          38.300          19.600
                  24244366.656         856.230         667.532
 120664209.948 7  94024141.17745  22961646.781          45.500          31.700
                  22961653.953        3440.031        2680.573
 114588152.864 7  89289497.85946  21805409.063          47.200          38.400
                  21805409.484         734.844         572.787
 119265460.884 7  92934152.25745  22695467.078          47.400          33.700
                  22695468.566       -2610.582       -2034.171
 111625011.192 8  86980577.65646  21241543.422          48.800          41.700
                  21241549.691       -2039.965       -1589.454
 18  2 21  8  2  0.0000000  0  8G09G07G05G16G30G02G23G06
 106682705.686 8  83129399.56447  20301038.422          52.700          45.200
                  20301043.316       -1163.914        -906.851
 113670487.757 8  88574457.99546  21630781.781          52.300          39.800
                  21630785.285        2215.273        1726.325
 123229998.217 7  96023421.73544  23449898.305          46.000          28.600
                  23449901.371        3235.801        2521.373
 127379528.594 6  99256833.53243  24239530.148          39.200          20.100
                  24239532.672         837.316         652.567
 120561123.301 7  93943813.93045  22942029.938          44.900          31.500
                  22942036.078        3432.582        2674.795
 114566379.087 8  89272531.27346  21801265.180          48.000          37.900
                  21801265.633         717.012         558.831
 119343868.021 8  92995248.69245  22710387.539          48.000          32.800
                  22710389.094       -2616.340       -2038.727
 111686468.822 8  87028466.69646  21253238.297          49.200          41.700
                  21253244.426       -2056.973       -1602.653
 18  2 21  8  2 30.0000000  0  8G09G07G05G16G30G02G23G06
 106717818.347 8  83156760.06647  20307720.016          52.500          45.200
                  20307725.059       -1176.691        -916.798
 113604246.759 8  88522841.63146  21618175.992          52.100          40.400
                  21618180.266        2200.910        1715.165
 123132990.795 7  95947831.53144  23431438.281          44.700          29.200
                  23431441.719        3231.535        2518.100
 127354704.982 6  99237490.47543  24234806.258          39.200          20.100
                  24234808.629         817.730         637.517
 120458262.326 7  93863662.58845  22922455.938          44.600          32.300
                  22922463.641        3424.855        2668.844
 114545144.612 8  89255984.92446  21797224.820          48.200          38.100
                  21797225.430         698.902         544.776
 119422451.255 7  93056482.36645  22725341.594          47.600          33.400
                  22725342.379       -2622.316       -2043.325
 111748435.175 8  87076752.15746  21265030.063          48.200          41.000
                  21265036.398       -2074.082       -1615.891
 18  2 21  8  3  0.0000000  0  8G09G07G05G16G30G02G23G06
 106753311.833 8  83184417.32247  20314474.070          52.100          45.100
                  20314479.422       -1189.477        -926.637
 113538434.606 8  88471559.44846  21605652.719          51.000          39.200
                  21605655.375        2186.648        1704.049
 123036108.891 7  95872339.14844  23413002.164          44.900          28.600
                  23413005.734        3227.320        2514.866
 127330460.457 6  99218598.66743  24230192.555          39.900          20.600
                  24230195.578         798.645         622.437
 120355629.015 7  93783688.61245  22902925.867          45.500          31.900
                  22902931.125        3417.453        2662.970
 114524450.000 8  89239859.24646  21793286.727          48.000          37.600
                  21793287.027         680.855         530.793
 119501208.651 8  93117851.74645  22740328.609          48.000          33.800
                  22740329.660       -2628.156       -2047.805
 111810907.793 7  87125432.09546  21276918.398          46.300          40.900
                  21276924.805       -2090.848       -1628.958
 18  2 21  8  3 30.0000000  0  8G09G07G05G16G30G02G23G06
 106789185.125 8  83212370.53447  20321300.727          52.200          45.700
                  20321305.906       -1202.070        -936.541
 113473053.334 8  88420613.01346  21593210.734          51.300          39.400
                  21593214.344        2172.254        1692.778
 122939353.950 7  95796945.68744  23394590.602          44.900          29.400
                  23394593.219        3223.102        2511.509
 127306796.758 6  99200159.43243  24225689.086          39.000          20.900
                  24225692.602         779.063         607.340
 120253226.227 7  93703894.26745  22883438.961          45.600          33.500
                  22883446.543        3409.551        2656.866
 114504296.243 7  89224155.01346  21789451.164          46.900          37.600
                  21789451.941         662.813         516.676
 119580139.323 7  93179356.14645  22755348.570          47.900          33.400
                  22755349.656       -2633.781       -2052.302
 111873884.945 7  87174505.18846  21288902.188          46.200          40.300
                  21288908.984       -2107.484       -1642.086
 18  2 21  8  4  0.0000000  0  8G09G07G05G16G30G02G23G06
 106825437.086 8  83240618.80447  20328199.102          51.600          45.800
                  20328204.246       -1214.539        -946.306
 113408104.978 8  88370003.90546  21580851.609          51.400          40.200
                  21580856.000        2157.824        1681.560
 122842726.638 7  95721651.67344  23376202.875          44.900          29.100
                  23376205.754        3219.008        2508.222
 127283715.350 6  99182173.91043  24221297.813          39.700          20.600
                  24221300.199         759.754         592.231
 120151056.474 7  93624281.50245  22863996.875          46.400          32.400
                  22864002.363        3401.988        2650.866
 114484684.307 7  89208872.98646  21785719.305          47.500          37.800
                  21785720.195         644.871         502.647
 119659242.294 7  93240994.80645  22770401.086          47.400          33.100
                  22770402.449       -2639.461       -2056.727
 111937364.730 7  87223969.95046  21300982.164          46.600          40.200
                  21300988.215       -2124.230       -1655.078
 18  2 21  8  4 30.0000000  0  8G09G07G05G16G30G02G23G06
 106862066.794 8  83269161.42647  20335169.547          52.800          45.700
                  20335174.594       -1227.426        -956.182
 113343591.464 8  88319733.65846  21568575.188          50.500          39.200
                  21568578.648        2143.055        1670.176
 122746229.413 7  95646459.03945  23357839.750          43.600          30.500
                  23357843.402        3214.246        2504.737
 127261217.480 6  99164643.05143  24217016.023          37.600          18.600
                  24217019.082         740.156         577.039
 120049122.651 7  93544852.57145  22844599.750          46.400          34.200
                  22844606.148        3393.707        2644.618
 114465615.143 7  89194013.88946  21782090.547          47.500          37.700
                  21782091.242         626.492         488.451
 119738516.550 7  93302766.94245  22785486.492          47.500          32.600
                  22785488.113       -2645.414       -2061.235
 112001345.366 7  87273824.99146  21313157.242          47.900          40.100
                  21313163.781       -2141.121       -1668.143
 18  2 21  8  5  0.0000000  0  8G09G07G05G16G30G02G23G06
 106899072.438 8  83297996.99747  20342211.438          52.400          45.100
                  20342216.145       -1239.742        -965.891
 113279513.770 8  88269802.99546  21556381.227          51.500          38.400
                  21556384.285        2128.695        1658.880
 122649864.001 7  95571369.12545  23339502.625          45.800          30.800
                  23339505.875        3209.918        2501.324
 127239304.346 6  99147567.93943  24212845.430          38.200          19.900
                  24212848.797         720.551         561.829
 119947426.644 7  93465608.99345  22825247.781          46.200          33.600
                  22825253.832        3385.910        2638.448
 114447088.714 8  89179577.72146  21778564.867          48.200          37.800
                  21778565.766         608.609         474.387
 119817960.156 7  93364671.01945  22800604.492          47.700          32.800
                  22800605.492       -2650.902       -2065.574
 112065824.242 8  87324068.26646  21325427.133          48.700          39.900
                  21325433.980       -2157.523       -1681.003
 18  2 21  8  5 30.0000000  0  8G09G07G05G16G30G02G23G06
 106936452.973 8  83327124.66947  20349324.961          51.000          44.800
                  20349329.930       -1252.180        -975.590
 113215874.123 8  88220213.65246  21544271.391          50.700          38.700
                  21544274.578        2114.051        1647.483
 122553632.386 7  95496383.45745  23321190.422          45.900          30.600
                  23321193.414        3205.512        2497.851
 127217977.360 6  99130949.48743  24208787.211          37.500          19.300
                  24208790.496         701.289         546.592
 119845971.242 7  93386552.85645  22805941.219          47.200          34.700
                  22805947.527        3377.816        2632.169
 114429106.669 7  89165565.73546  21775143.219          47.200          37.600
                  21775143.816         590.340         460.235
 119897572.120 7  93426706.30745  22815753.828          47.200          31.900
                  22815754.906       -2656.434       -2069.928
 112130799.504 7  87374698.35446  21337791.469          47.500          40.300
                  21337797.961       -2174.059       -1693.870
 18  2 21  8  6  0.0000000  0  8G09G07G05G16G30G02G23G06
 106974207.313 8  83356543.63947  20356508.961          50.800          45.100
                  20356514.488       -1264.676        -985.331
 113152674.309 8  88170967.07646  21532244.969          50.900          39.000
                  21532248.422        2099.277        1635.998
 122457535.569 7  95421502.82945  23302903.477          45.800          31.600
                  23302906.848        3200.852        2494.285
 127197237.909 6  99114788.87443  24204841.438          38.300          20.600
                  24204844.219         681.465         531.318
 119744758.995 8  93307686.20545  22786681.172          48.100          34.800
                  22786688.070        3369.590        2625.799
 114411669.721 7  89151978.50346  21771825.227          47.800          37.700
                  21771825.598         572.148         446.052
 119977351.417 7  93488871.97145  22830935.344          46.900          32.000
                  22830937.156       -2662.078       -2074.301
 112196269.201 7  87425713.72146  21350249.875          46.600          40.200
                  21350256.676       -2190.488       -1706.709
 18  2 21  8  6 30.0000000  0  8G09G07G05G16G30G02G23G06
 107012334.267 8  83386252.94647  20363764.305          51.600          44.900
                  20363769.805       -1277.000        -994.998
 113089915.974 8  88122064.47246  21520302.266          52.100          39.200
                  21520305.398        2084.633        1624.499
 122361574.767 7  95346728.18645  23284642.797          45.000          31.800
                  23284646.586        3196.574        2490.770
 127177087.373 6  99099087.18343  24201006.211          36.600          19.300
                  24201009.375         662.016         515.954
 119643792.562 7  93229011.08745  22767468.063          47.200          34.700
                  22767474.492        3361.539        2619.374
 114394778.435 7  89138816.46646  21768610.773          46.800          38.000
                  21768611.813         553.977         431.849
 120057296.995 7  93551167.20145  22846148.367          47.200          32.500
                  22846149.785       -2667.465       -2078.602
 112262231.313 8  87477112.77246  21362802.156          48.400          40.600
                  21362808.895       -2206.801       -1719.483
 18  2 21  8  7  0.0000000  0  8G09G07G05G16G30G02G23G06
 107050832.677 8  83416251.69747  20371090.492          52.400          45.300
                  20371096.098       -1289.516       -1004.644
 113027601.036 8  88073507.38946  21508444.297          50.800          39.200
                  21508447.020        2069.652        1612.933
 122265752.040 7  95272061.11445  23266407.922          45.600          31.800
                  23266411.527        3191.664        2487.104
 127157526.884 6  99083845.21443  24197284.016          37.200          19.600
                  24197286.930         641.949         500.607
 119543074.485 7  93150529.50945  22748301.852          47.900          35.100
                  22748308.367        3352.941        2612.868
 114378434.088 8  89126080.61146  21765500.602          48.700          38.300
                  21765501.551         535.602         417.630
 120137407.579 7  93613591.00245  22861393.148          47.200          32.400
                  22861394.922       -2673.180       -2082.885
 112328683.754 8  87528893.88046  21375447.922          48.600          41.000
                  21375454.641       -2223.410       -1732.213
 18  2 21  8  7 30.0000000  0  8G09G07G05G16G30G02G23G06
 107089701.051 8  83446538.74047  20378486.766          52.000          45.600
                  20378492.398       -1301.801       -1014.167
 112965730.950 8  88025296.95246  21496671.188          51.700          39.200
                  21496673.695        2054.867        1601.463
 122170068.938 7  95197502.85845  23248200.031          44.700          31.500
                  23248203.836        3187.094        2483.545
 127138557.577 6  99069063.94243  24193674.242          36.900          20.100
                  24193677.277         622.395         485.321
 119442607.053 7  93072243.24545  22729183.125          47.200          35.200
                  22729189.969        3344.613        2606.415
 114362636.371 8  89113770.69846  21762494.422          48.400          37.700
                  21762495.621         517.469         403.494
 120217681.782 7  93676142.30745  22876669.094          47.500          32.400
                  22876670.316       -2678.566       -2087.048
 112395624.172 8  87581055.23446  21388186.164          49.200          41.600
                  21388192.746       -2239.508       -1744.792
 18  2 21  8  8  0.0000000  0  8G09G07G05G16G30G02G23G06
 107128938.235 8  83477113.15247  20385953.492          52.000          44.800
                  20385958.672       -1313.973       -1023.747
 112904307.591 8  87977434.61246  21484982.227          52.500          40.100
                  21484985.836        2039.996        1589.797
 122074527.417 7  95123054.92345  23230019.172          44.600          31.400
                  23230022.711        3182.398        2479.818
 127120180.878 6  99054744.47443  24190176.930          37.800          19.000
                  24190180.660         602.555         469.868
 119342392.852 7  92994154.27345  22710113.023          47.300          35.200
                  22710119.648        3336.203        2599.776
 114347386.945 8  89101888.02446  21759592.461          48.600          37.800
                  21759593.438         499.141         389.213
 120298118.402 7  93738820.16345  22891975.602          47.200          32.700
                  22891977.320       -2683.855       -2091.278
 112463050.505 8  87633595.21246  21401017.297          48.500          41.700
                  21401023.953       -2255.520       -1757.392
 18  2 21  8  8 30.0000000  0  8G09G07G05G16G30G02G23G06
 107168543.129 8  83507974.09247  20393490.023          52.400          44.900
                  20393495.109       -1326.219       -1033.326
 112843332.776 8  87929921.79646  21473379.320          53.000          40.200
                  21473382.340        2025.055        1578.102
 121979129.094 7  95048718.58745  23211865.273          44.600          32.100
                  23211869.113        3177.547        2476.042
 127102397.738 6  99040887.45243  24186794.250          37.200          19.300
                  24186796.723         582.793         454.407
 119242434.454 7  92916264.65745  22691091.656          47.400          35.100
                  22691098.645        3327.680        2593.077
 114332686.143 8  89090432.86046  21756795.305          49.000          38.400
                  21756795.715         480.945         374.925
 120378716.545 7  93801623.89745  22907312.727          47.000          31.300
                  22907314.492       -2689.230       -2095.511
 112530960.789 7  87686512.29346  21413940.141          47.800          41.500
                  21413946.934       -2271.641       -1769.986
 18  2 21  8  9  0.0000000  0  8G09G07G05G16G30G02G23G06
 107208514.435 8  83539120.56447  20401096.469          52.000          45.400
                  20401101.500       -1338.324       -1042.796
 112782807.957 8  87882759.62846  21461861.586          52.300          40.000
                  21461864.406        2010.055        1566.413
 121883875.667 7  94974495.16545  23193739.789          45.000          31.600
                  23193743.156        3172.785        2472.293
 127085209.502 6  99027494.03743  24183522.883          39.200          20.100
                  24183525.391         562.984         438.935
 119142734.403 7  92838576.31845  22672119.328          47.100          34.900
                  22672125.508        3319.094        2586.339
 114318534.725 8  89079405.78346  21754102.320          48.800          37.900
                  21754102.965         462.617         360.666
 120459474.996 7  93864552.53645  22922680.547          46.500          31.000
                  22922682.105       -2694.512       -2099.628
 112599352.828 8  87739804.78246  21426954.109          48.100          41.600
                  21426961.180       -2287.754       -1782.436
 18  2 21  8  9 30.0000000  0  8G09G07G05G16G30G02G23G06
 107248850.989 8  83570551.63447  20408772.305          52.800          44.900
                  20408777.824       -1350.664       -1052.306
 112722734.896 8  87835949.46046  21450430.273          52.300          40.300
                  21450433.277        1994.887        1554.624
 121788768.267 7  94900385.50045  23175641.094          45.500          31.900
                  23175644.566        3167.691        2468.428
 127068617.244 6  99014565.02943  24180365.703          38.100          19.000
                  24180367.977         543.160         423.457
 119043295.293 8  92761091.32045  22653196.438          48.500          35.000
                  22653203.441        3310.301        2579.526
 114304933.347 8  89068807.29346  21751513.773          48.500          37.700
                  21751514.434         444.219         346.349
 120540392.599 7  93927605.20445  22938079.031          46.700          31.900
                  22938080.469       -2699.910       -2103.770
 112668224.468 8  87793470.97946  21440060.508          49.000          41.400
                  21440066.922       -2303.711       -1794.903
 18  2 21  8 10  0.0000000  0  8G09G07G05G16G30G02G23G06
 107289551.496 8  83602266.30047  20416517.469          50.900          44.900
                  20416522.363       -1362.723       -1061.691
 112663115.292 8  87789492.64746  21439084.984          52.200          40.000
                  21439088.332        1979.754        1542.882
 121693808.772 7  94826391.09045  23157570.508          46.000          32.100
                  23157574.172        3162.805        2464.640
 127052622.279 6  99002101.41543  24177322.070          37.800          19.600
                  24177324.590         523.055         407.924
 118944119.525 7  92683811.52645  22634323.805          47.500          34.700
                  22634330.305        3301.375        2572.690
 114291882.571 8  89058637.85246  21749030.445          48.300          38.400
                  21749030.898         425.781         332.069
 120621467.927 7  93990780.76145  22953506.438          46.400          30.800
                  22953508.465       -2705.070       -2107.804
 112737573.488 8  87847509.15746  21453257.094          48.000          41.800
                  21453263.914       -2319.598       -1807.224
 18  2 21  8 10 30.0000000  0  8G09G07G05G16G30G02G23G06
 107330614.542 8  83634263.46447  20424331.500          52.200          45.000
                  20424336.750       -1374.723       -1071.109
 112603950.383 8  87743390.14846  21427825.836          51.200          40.700
                  21427829.270        1964.590        1531.043
 121598998.649 7  94752513.06845  23139528.836          46.300          32.300
                  23139532.559        3157.887        2460.718
 127037225.340 6  98990103.80743  24174391.086          37.600          18.600
                  24174394.035         503.270         392.417
 118845209.412 7  92606738.71745  22615501.516          47.000          33.900
                  22615508.313        3292.660        2565.766
 114279382.798 8  89048897.76246  21746651.508          48.300          38.700
                  21746652.441         407.461         317.754
 120702699.901 7  94054078.36845  22968965.125          45.800          30.600
                  22968966.516       -2710.270       -2111.851
 112807397.518 8  87901917.47546  21466544.242          49.500          40.900
                  21466550.898       -2335.328       -1819.535
 18  2 21  8 11  0.0000000  0  8G09G07G05G16G30G02G23G06
 107372039.021 8  83666542.26947  20432214.461          52.200          45.000
                  20432219.273       -1386.766       -1080.484
 112545242.075 8  87697643.41046  21416653.930          52.000          39.600
                  21416657.520        1949.309        1519.144
 121504340.176 7  94678753.22645  23121516.828          47.000          32.600
                  23121519.758        3152.777        2456.729
 127022427.337 6  98978572.85643  24171576.188          40.200          20.900
                  24171577.652         483.367         376.831
 118746567.660 7  92529875.03245  22596730.820          45.400          34.200
                  22596737.645        3283.551        2558.708
 114267434.923 8  89039587.72346  21744378.242          48.300          38.400
                  21744378.930         389.039         303.401
 120784087.593 7  94117497.34245  22984452.078          45.600          31.100
                  22984453.859       -2715.488       -2115.898
 112877694.502 8  87956694.32946  21479921.203          48.300          40.800
                  21479927.668       -2351.078       -1831.821
 18  2 21  8 11 30.0000000  0  8G09G07G05G16G30G02G23G06
 107413823.465 8  83699101.57247  20440165.781          52.300          44.400
                  20440170.922       -1398.848       -1089.808
 112486991.722 8  87652253.53946  21405569.547          50.800          40.200
                  21405572.773        1934.031        1507.248
 121409834.712 7  94605112.61045  23103532.531          46.700          33.100
                  23103535.684        3147.633        2452.764
 127008229.325 6  98967509.47243  24168874.570          41.300          21.100
                  24168876.773         463.320         361.254
 118648196.467 7  92453222.16645  22578011.281          46.000          33.400
                  22578018.176        3274.414        2551.683
 114256039.164 8  89030707.89846  21742209.664          48.600          38.200
                  21742210.527         370.637         289.066
 120865629.425 7  94181036.42245  22999969.125          45.200          30.700
                  22999971.332       -2720.617       -2119.886
 112948461.929 8  88011837.77246  21493388.055          48.600          41.000
                  21493394.180       -2366.687       -1843.998
 18  2 21  8 12  0.0000000  0  8G09G07G05G16G30G02G23G06
 107455966.787 8  83731940.52347  20448185.063          51.700          44.700
                  20448190.359       -1410.684       -1099.109
 112429201.114 8  87607221.90346  21394571.945          51.600          39.900
                  21394575.871        1918.711        1495.273
 121315483.627 7  94531592.28545  23085578.594          46.300          33.900
                  23085581.547        3142.508        2448.735
 126994632.475 6  98956914.52143  24166286.375          40.600          20.400
                  24166289.355         443.203         345.600
 118550098.512 7  92376782.23245  22559343.789          45.900          34.200
                  22559350.531        3265.379        2544.564
 114245196.058 7  89022258.71746  21740146.242          47.400          38.700
                  21740146.938         352.293         274.711
 120947324.763 7  94244695.10145  23015515.570          44.900          31.800
                  23015517.094       -2725.648       -2123.854
 113019697.778 8  88067346.21046  21506943.422          48.000          40.500
                  21506950.246       -2382.273       -1856.138
 18  2 21  8 12 30.0000000  0  8G09G07G05G16G30G02G23G06
 107498467.620 8  83765058.05047  20456272.695          52.000          44.600
                  20456277.887       -1422.699       -1108.408
 112371871.819 8  87562549.70646  21383662.680          50.500          39.700
                  21383666.266        1903.160        1483.269
 121221289.109 7  94458193.97345  23067653.555          45.400          34.900
                  23067656.836        3137.086        2444.624
 126981637.520 6  98946788.55543  24163814.031          40.200          21.100
                  24163816.027         423.105         329.946
 118452276.191 7  92300557.05945  22540729.445          44.200          33.600
                  22540735.594        3255.961        2537.338
 114234906.094 8  89014240.55546  21738188.500          49.300          38.300
                  21738189.008         333.668         260.305
 121029172.014 7  94308472.16145  23031090.297          46.300          30.400
                  23031091.746       -2730.746       -2127.798
 113091399.611 8  88123217.75746  21520587.992          48.700          39.700
                  21520594.449       -2397.910       -1868.239
 18  2 21  8 13  0.0000000  0  8G09G07G05G16G30G02G23G06
 107541325.071 8  83798453.46147  20464428.031          51.900          44.800
                  20464433.715       -1434.527       -1117.650
 112315005.181 8  87518238.06046  21372841.750          49.700          39.900
                  21372845.211        1887.793        1471.224
 121127252.841 7  94384918.97345  23049758.938          47.200          33.900
                  23049762.863        3131.918        2440.528
 126969245.812 6  98937132.70843  24161455.117          37.500          20.100
                  24161457.352         403.031         314.271
 118354732.282 7  92224548.84245  22522167.148          45.900          34.300
                  22522173.406        3246.781        2530.088
 114225170.340 8  89006654.24246  21736335.977          48.300          38.300
                  21736336.152         315.281         245.911
 121111170.420 7  94372367.00244  23046694.266          45.500          29.600
                  23046696.020       -2735.777       -2131.706
 113163565.583 8  88179450.97046  21534320.508          48.300          39.500
                  21534326.977       -2413.336       -1880.259
 18  2 21  8 13 30.0000000  0  8G09G07G05G16G30G02G23G06
 107584537.881 8  83832125.76447  20472651.602          52.800          44.500
                  20472656.602       -1446.359       -1126.874
 112258603.454 8  87474288.67946  21362108.711          51.400          39.800
                  21362112.477        1872.254        1459.114
 121033375.323 7  94311767.69045  23031894.930          46.600          34.700
                  23031898.234        3126.516        2436.332
 126957458.644 6  98927947.89843  24159212.969          40.900          19.000
                  24159215.047         382.785         298.558
 118257469.314 7  92148759.55545  22503658.828          44.900          33.600
                  22503664.801        3237.309        2522.760
 114215989.022 8  88999499.96146  21734588.484          49.000          38.100
                  21734588.871         296.746         231.495
 121193318.907 7  94436378.79944  23062326.609          45.700          29.700
                  23062327.906       -2740.785       -2135.607
 113236193.292 8  88236043.97746  21548141.070          48.700          39.700
                  21548148.156       -2428.586       -1892.238
 18  2 21  8 14  0.0000000  0  8G09G07G05G16G30G02G23G06
 107628104.273 8  83866073.61147  20480941.500          52.500          45.000
                  20480946.805       -1458.012       -1136.058
 112202667.350 8  87430702.10646  21351464.383          51.200          40.200
                  21351467.605        1856.828        1447.000
 120939659.571 7  94238742.43845  23014060.625          46.500          34.200
                  23014064.547        3121.180        2432.104
 126946275.945 6  98919234.07943  24157084.930          37.400          19.300
                  24157086.461         362.867         282.823
 118160489.226 7  92073190.67145  22485204.055          46.100          34.800
                  22485210.395        3227.867        2515.346
 114207362.190 8  88992777.73946  21732947.000          48.000          38.500
                  21732947.379         278.367         217.075
 121275615.868 7  94500506.27045  23077986.969          45.000          30.700
                  23077989.020       -2745.633       -2139.456
 113309279.994 7  88292994.62846  21562049.461          47.900          39.500
                  21562055.699       -2443.770       -1904.129
 18  2 21  8 14 30.0000000  0  8G09G07G05G16G30G02G23G06
 107672023.282 8  83900296.20847  20489299.391          51.700          45.100
                  20489304.613       -1469.812       -1145.178
 112147198.540 8  87387479.66246  21340909.258          51.300          39.800
                  21340912.199        1841.137        1434.853
 120846107.644 7  94165844.84745  22996258.609          46.800          34.700
                  22996262.195        3115.535        2427.835
 126935698.951 6  98910992.29143  24155071.617          41.300          20.400
                  24155073.996         342.449         267.088
 118063794.751 7  91997844.37945  22466803.586          46.500          35.100
                  22466810.035        3218.309        2507.919
 114199290.774 8  88986488.31646  21731411.102          48.200          38.000
                  21731411.684         259.723         202.648
 121358060.339 7  94564748.69444  23093675.461          44.900          29.400
                  23093677.488       -2750.621       -2143.276
 113382823.636 8  88350301.33646  21576043.938          48.000          39.500
                  21576050.590       -2459.059       -1915.962
 18  2 21  8 15  0.0000000  0  8G09G07G05G16G30G02G23G06
 107716293.560 8  83934792.51047  20497723.875          53.000          44.300
                  20497728.813       -1481.578       -1154.292
 112092198.388 8  87344622.42946  21330442.836          51.300          40.600
                  21330446.309        1825.426        1422.661
 120752720.731 7  94093075.82145  22978488.258          46.800          34.700
                  22978491.707        3110.078        2423.534
 126925728.587 6  98903223.16943  24153175.109          41.600          20.400
                  24153177.621         322.172         251.363
 117967388.196 7  91922722.41445  22448458.039          47.000          35.200
                  22448464.031        3208.707        2500.417
 114191774.812 8  88980631.71346  21729980.516          48.000          37.900
                  21729981.188         241.152         188.201
 121440651.066 7  94629105.07645  23109392.688          45.000          30.100
                  23109393.207       -2755.555       -2147.063
 113456821.720 8  88407962.11046  21590125.406          49.100          39.000
                  21590131.668       -2474.234       -1927.715
 18  2 21  8 15 30.0000000  0  8G09G07G05G16G30G02G23G06
 107760914.003 8  83969561.68047  20506214.602          52.700          44.800
                  20506219.977       -1493.082       -1163.346
 112037668.774 8  87302131.83846  21320066.117          51.500          39.900
                  21320069.801        1809.969        1410.427
 120659500.565 7  94020436.72445  22960748.852          47.300          35.100
                  22960752.551        3104.715        2419.210
 126916365.318 6  98895927.08243  24151393.469          41.100          21.300
                  24151395.883         302.063         235.566
 117871272.305 7  91847826.92745  22430167.578          46.500          34.900
                  22430174.086        3199.078        2492.847
 114184815.065 7  88975208.53146  21728656.070          47.300          37.700
                  21728656.984         222.797         173.783
 121523387.347 7  94693574.90644  23125136.359          44.900          29.600
                  23125138.281       -2760.187       -2150.804
 113531272.194 8  88465975.40646  21604293.203          48.400          39.500
                  21604299.348       -2489.125       -1939.447
 18  2 21  8 16  0.0000000  0  8G09G07G05G16G30G02G23G06
 107805883.590 8  84004602.91347  20514772.156          53.500          45.800
                  20514777.637       -1504.723       -1172.393
 111983611.494 8  87260009.30446  21309779.492          51.600          40.000
                  21309782.277        1794.098        1398.154
 120566448.212 8  93947928.41045  22943041.375          48.200          35.200
                  22943044.871        3098.973        2414.811
 126907610.469 6  98889105.16743  24149726.547          40.300          19.900
                  24149730.102         281.570         219.714
 117775449.683 7  91773159.95945  22411933.742          47.300          34.900
                  22411939.469        3189.164        2485.209
 114178412.137 7  88970219.22546  21727437.703          47.500          37.100
                  21727438.016         204.156         159.324
 121606268.343 7  94758157.46044  23140908.383          44.700          28.900
                  23140910.172       -2765.031       -2154.562
 113606172.937 8  88524339.57746  21618546.172          49.800          39.500
                  21618552.520       -2504.199       -1951.089
 18  2 21  8 16 30.0000000  0  8G09G07G05G16G30G02G23G06
 107851200.780 8  84039915.00147  20523395.906          52.900          44.400
                  20523401.344       -1516.297       -1181.407
 111930027.313 8  87218255.40946  21299582.594          52.600          39.600
                  21299585.664        1778.289        1385.840
 120473566.026 7  93875552.67245  22925366.852          47.100          34.700
                  22925369.742        3093.355        2410.408
 126899464.533 6  98882757.66343  24148176.547          39.900          20.600
                  24148179.254         261.500         203.956
 117679922.487 7  91698723.20445  22393755.086          47.800          35.300
                  22393760.996        3179.398        2477.512
 114172565.940 7  88965663.74046  21726324.945          47.000          37.400
                  21726326.133         185.637         144.850
 121689292.302 7  94822851.43045  23156707.328          44.500          30.300
                  23156708.652       -2769.625       -2158.207
 113681521.255 8  88583052.50846  21632884.672          50.300          39.500
                  21632890.164       -2518.984       -1962.688
 18  2 21  8 17  0.0000000  0  8G09G07G05G16G30G02G23G06
 107896864.346 8  84075496.99247  20532085.375          53.000          44.500
                  20532090.523       -1527.832       -1190.440
 111876917.935 8  87176871.49246  21289476.313          51.400          39.500
                  21289479.402        1762.434        1373.461
 120380855.947 7  93803311.05745  22907724.508          46.300          35.400
                  22907727.867        3087.508        2405.836
 126891928.216 6  98876885.21843  24146742.852          40.400          19.900
                  24146745.098         241.145         188.047
 117584693.293 7  91624518.66145  22375633.578          47.500          35.800
                  22375639.883        3169.316        2469.667
 114167277.006 7  88961542.48746  21725318.953          47.300          36.800
                  21725319.676         166.973         130.341
 121772458.370 7  94887656.13744  23172533.531          44.700          29.600
                  23172534.816       -2774.488       -2161.944
 113757314.847 8  88642112.41646  21647307.797          49.600          39.700
                  21647314.301       -2533.789       -1974.270
 18  2 21  8 17 30.0000000  0  8G09G07G05G16G30G02G23G06
 107942872.832 8  84111347.74647  20540840.430          52.500          45.000
                  20540845.387       -1539.430       -1199.309
 111824284.572 8  87135858.50846  21279460.570          51.400          39.600
                  21279463.555        1746.449        1361.128
 120288319.892 8  93731205.05645  22890115.305          48.000          35.200
                  22890119.043        3081.516        2401.361
 126885002.244 6  98871488.36943  24145424.531          39.600          21.700
                  24145427.227         220.598         172.235
 117489764.222 7  91550547.94846  22357569.445          47.900          36.200
                  22357574.816        3159.203        2461.922
 114162545.085 7  88957855.26846  21724417.984          47.400          37.500
                  21724419.191         148.430         115.950
 121855764.977 7  94952570.36044  23188385.914          44.500          29.100
                  23188387.313       -2779.234       -2165.539
 113833551.015 8  88701517.13546  21661815.234          48.500          40.200
                  21661821.387       -2548.602       -1985.678
 18  2 21  8 18  0.0000000  0  8G09G07G05G16G30G02G23G06
 107989225.151 8  84147466.43047  20549660.984          53.000          44.500
                  20549666.113       -1550.922       -1208.274
 111772128.763 8  87095217.62946  21269535.445          51.500          39.500
                  21269538.840        1730.469        1348.692
 120195958.778 7  93659235.36645  22872539.727          46.100          35.300
                  22872543.367        3075.699        2396.796
 126878687.277 6  98866567.60943  24144222.969          40.300          19.900
                  24144225.457         200.320         156.343
 117395137.950 7  91476813.23046  22339562.523          46.200          36.500
                  22339568.605        3149.027        2454.012
 114158370.914 7  88954602.66146  21723623.859          46.600          37.700
                  21723624.852         129.789         101.422
 121939211.579 7  95017593.65044  23204265.430          45.200          29.600
                  23204267.105       -2784.020       -2169.188
 113910227.560 8  88761265.03046  21676406.156          50.100          40.400
                  21676412.887       -2563.301       -1997.110
 18  2 21  8 18 30.0000000  0  8G09G07G05G16G30G02G23G06
 108035919.750 8  84183851.83747  20558546.742          52.500          45.100
                  20558552.148       -1562.328       -1217.161
 111720451.672 8  87054949.77946  21259701.570          51.000          40.000
                  21259704.723        1714.484        1336.220
 120103775.065 8  93587403.93145  22854997.313          48.800          35.400
                  22855000.871        3069.777        2392.129
 126872983.723 6  98862123.29043  24143137.977          40.700          21.300
                  24143139.844         179.859         140.433
 117300816.636 7  91403316.12946  22321613.836          47.200          36.500
                  22321620.059        3138.777        2446.021
 114154754.734 7  88951784.84246  21722935.484          46.200          36.900
                  21722936.754         111.160          86.910
 122022796.827 7  95082724.99244  23220171.211          45.500          28.800
                  23220171.953       -2788.527       -2172.785
 113987341.982 8  88821354.15846  21691080.633          48.900          39.600
                  21691086.953       -2577.875       -2008.457
 18  2 21  8 19  0.0000000  0  8G09G07G05G16G30G02G23G06
 108082955.733 8  84220503.23947  20567497.516          52.000          44.500
                  20567502.848       -1573.555       -1225.991
 111669255.017 8  87015056.28646  21249959.008          51.100          39.800
                  21249962.160        1698.555        1323.753
 120011770.209 8  93515711.85146  22837489.531          48.200          36.000
                  22837493.340        3063.906        2387.494
 126867892.493 6  98858156.08643  24142168.766          39.700          21.700
                  24142171.129         159.531         124.539
 117206803.013 7  91330058.78046  22303723.688          47.000          37.100
                  22303729.867        3128.672        2438.040
 114151696.864 7  88949402.08046  21722353.992          47.300          37.700
                  21722354.875          92.668          72.414
 122106519.831 7  95147963.68744  23236102.859          45.400          29.200
                  23236104.371       -2793.023       -2176.345
 114064891.943 8  88881782.65746  21705837.969          48.700          40.000
                  21705844.555       -2592.187       -2019.717
 18  2 21  8 19 30.0000000  0  8G09G07G05G16G30G02G23G06
 108130331.636 8  84257419.50847  20576512.695          52.100          44.200
                  20576517.680       -1584.863       -1234.754
 111618540.057 8  86975538.14446  21240308.469          51.600          40.500
                  21240312.434        1682.492        1311.265
 119919946.084 8  93444160.61046  22820016.063          48.500          36.100
                  22820019.734        3057.887        2382.807
 126863414.167 6  98854666.46043  24141316.922          40.000          20.600
                  24141319.668         139.105         108.677
 117113099.330 7  91257042.97246  22285891.953          45.900          36.700
                  22285898.664        3118.313        2429.999
 114149197.436 7  88947454.46646  21721878.211          47.200          37.900
                  21721878.949          73.984          57.947
 122190379.506 7  95213308.85344  23252061.336          45.700          29.500
                  23252062.773       -2797.676       -2179.842
 114142875.005 8  88942548.63946  21720677.570          48.100          39.500
                  21720684.145       -2606.621       -2030.906
 18  2 21  8 20  0.0000000  0  8G09G07G05G16G30G02G23G06
 108178046.097 8  84294599.60847  20585592.523          52.500          43.900
                  20585597.633       -1596.059       -1243.589
 111568307.990 8  86936396.29346  21230749.711          51.600          40.500
                  21230753.078        1666.301        1298.625
 119828304.351 8  93372751.47746  22802577.430          49.200          36.500
                  22802580.492        3051.746        2377.988
 126859549.175 6  98851654.78443  24140581.031          40.600          20.600
                  24140583.617         118.660          92.687
 117019707.987 7  91184270.49946  22268120.609          47.500          36.700
                  22268126.496        3107.844        2421.797
 114147256.540 7  88945942.07246  21721508.805          47.500          37.800
                  21721509.395          55.387          43.412
 122274374.731 7  95278759.64244  23268044.391          45.800          29.700
                  23268046.086       -2802.125       -2183.382
 114221288.562 8  89003650.08646  21735599.156          48.700          39.800
                  21735605.648       -2620.949       -2042.101
 18  2 21  8 20 30.0000000  0  8G09G07G05G16G30G02G23G06
 108226098.201 8  84332042.80747  20594736.359          52.400          44.100
                  20594741.125       -1607.328       -1252.337
 111518560.478 8  86897631.99146  21221282.875          51.700          40.500
                  21221286.023        1650.191        1286.060
 119736847.060 8  93301486.06745  22785173.281          48.600          35.500
                  22785176.754        3045.480        2373.197
 126856298.062 6  98849121.40543  24139962.516          39.500          20.900
                  24139965.016          98.086          76.758
 116926631.564 7  91111743.43946  22250408.328          47.100          36.600
                  22250414.793        3097.285        2413.612
 114145874.688 7  88944865.29346  21721246.203          46.700          38.100
                  21721246.781          36.660          28.881
 122358504.473 7  95344315.27144  23284054.102          45.400          29.700
                  23284055.602       -2806.590       -2186.851
 114300130.395 8  89065085.23446  21750602.313          48.100          39.500
                  21750609.090       -2635.258       -2053.185
 18  2 21  8 21  0.0000000  0  8G09G07G05G16G30G02G23G06
 108274486.537 8  84369748.00447  20603944.273          52.400          43.900
                  20603949.539       -1618.672       -1261.070
 111469298.484 8  86859246.02146  21211908.867          51.800          40.900
                  21211911.527        1633.832        1273.392
 119645575.775 8  93230365.60445  22767805.281          49.000          35.400
                  22767808.313        3039.172        2368.309
 126853661.634 6  98847067.06643  24139460.438          38.500          19.600
                  24139462.984          77.496          60.719
 116833872.430 7  91039463.62246  22232756.523          46.800          36.800
                  22232763.285        3086.535        2405.314
 114145051.819 7  88944224.09546  21721089.484          46.800          38.700
                  21721090.480          17.922          14.343
 122442767.502 7  95409974.72444  23300089.086          46.200          29.400
                  23300090.488       -2811.055       -2190.326
 114379397.951 7  89126852.12346  21765686.438          47.700          39.200
                  21765693.727       -2649.492       -2064.234
 18  2 21  8 21 30.0000000  0  8G09G07G05G16G30G02G23G06
 108323209.730 8  84407714.10547  20613216.219          52.100          44.100
                  20613221.508       -1629.617       -1269.723
 111420523.474 8  86821239.53646  21202627.164          52.300          40.900
                  21202630.828        1617.828        1260.754
 119554491.923 8  93159391.18545  22750472.492          48.800          34.700
                  22750475.641        3033.070        2363.446
 126851640.075 6  98845491.79543  24139076.008          40.100          21.300
                  24139078.734          57.281          44.811
 116741432.786 7  90967432.73646  22215166.273          46.500          36.500
                  22215172.457        3076.039        2396.996
 114144787.816 7  88944018.37146  21721039.156          47.300          37.900
                  21721039.777          -0.418          -0.153
 122527162.929 7  95475737.38045  23316149.023          45.900          30.100
                  23316150.148       -2815.320       -2193.741
 114459088.696 7  89188948.78146  21780851.047          46.300          38.800
                  21780858.043       -2663.266       -2075.176
 18  2 21  8 22  0.0000000  0  8G09G07G05G16G30G02G23G06
 108372266.557 8  84445940.19747  20622551.211          52.900          44.300
                  20622556.703       -1640.719       -1278.380
 111372236.677 8  86783613.47046  21193438.555          53.000          41.500
                  21193442.352        1601.414        1248.067
 119463598.333 8  93088565.00745  22733175.953          48.400          35.400
                  22733178.961        3026.652        2358.478
 126850234.031 6  98844396.19543  24138808.664          40.100          21.700
                  24138811.629          36.559          28.791
 116649315.122 7  90895652.73046  22197636.977          46.000          36.400
                  22197643.688        3065.148        2388.610
 114145083.229 7  88944248.55146  21721095.789          46.900          39.500
                  21721096.316         -19.172         -14.692
 122611689.529 7  95541602.21045  23332233.930          46.300          30.100
                  23332235.078       -2819.676       -2197.103
 114539199.950 7  89251373.09046  21796095.539          47.000          38.800
                  21796102.922       -2677.332       -2086.060
 18  2 21  8 22 30.0000000  0  8G09G07G05G16G30G02G23G06
 108421655.736 8  84484425.27347  20631949.406          52.200          43.900
                  20631955.008       -1651.879       -1286.991
 111324439.379 8  86746368.81446  21184343.250          52.600          41.300
                  21184346.410        1584.984        1235.344
 119372895.875 8  93017887.76545  22715915.781          49.100          33.600
                  22715919.020        3020.121        2353.521
 126849443.678 6  98843780.30143  24138657.836          40.800          20.100
                  24138661.070          16.090          12.807
 116557521.788 7  90824125.48246  22180168.836          46.400          36.400
                  22180175.184        3054.285        2380.146
 114145938.095 7  88944914.67546  21721258.438          47.200          38.900
                  21721259.039         -37.844         -29.199
 122696346.515 7  95607568.68544  23348343.789          45.100          29.300
                  23348344.668       -2824.195       -2200.499
 114619729.503 7  89314123.36146  21811419.820          46.500          38.500
                  21811426.758       -2691.414       -2096.913
 18  2 21  8 23  0.0000000  0  8G09G07G05G16G30G02G23G06
 108471376.144 8  84523168.44347  20641411.234          51.700          43.900
                  20641416.293       -1662.930       -1295.605
 111277132.636 8  86709506.44646  21175340.773          52.000          40.800
                  21175343.938        1568.582        1222.549
 119282386.647 7  92947361.09445  22698692.836          47.500          33.800
                  22698695.359        3013.656        2348.426
 126849269.654 6  98843644.70343  24138624.859          38.000          21.300
                  24138628.195          -4.512          -3.205
 116466055.340 7  90752852.92345  22162763.281          46.400          35.900
                  22162769.539        3043.352        2371.637
 114147352.573 8  88946016.85746  21721527.477          48.100          38.800
                  21721528.285         -56.578         -43.764
 122781132.618 7  95673635.75144  23364477.758          45.900          29.100
                  23364478.996       -2828.535       -2203.874
 114700674.839 7  89377197.60946  21826823.594          46.600          38.200
                  21826830.219       -2705.070       -2107.687
 18  2 21  8 23 30.0000000  0  8G09G07G05G16G30G02G23G06
 108521426.387 8  84562168.62047  20650935.375          52.400          44.400
                  20650940.703       -1673.949       -1304.157
 111230317.887 8  86673027.43446  21166432.336          52.700          40.500
                  21166434.898        1552.164        1209.759
 119192072.753 7  92876986.63945  22681506.219          47.600          34.100
                  22681509.703        3007.082        2343.311
 126849712.161 6  98843989.50743  24138709.172          39.100          20.100
                  24138712.340         -25.141         -19.274
 116374917.945 7  90681836.78146  22145420.500          47.000          36.500
                  22145427.297        3032.301        2363.027
 114149326.326 7  88947554.83946  21721903.008          47.500          39.100
                  21721903.828         -75.234         -58.314
 122866046.706 7  95739802.54644  23380636.289          44.000          29.700
                  23380637.934       -2832.723       -2207.190
 114782033.213 7  89440593.70146  21842305.602          46.700          38.600
                  21842311.957       -2718.855       -2118.390
 18  2 21  8 24  0.0000000  0  8G09G07G05G16G30G02G23G06
 108571805.057 8  84601424.71847  20660522.227          53.100          44.300
                  20660527.707       -1684.770       -1312.664
 111183996.413 8  86636932.77746  21157617.539          52.200          40.700
                  21157620.801        1535.918        1196.950
