     2.11           OBSERVATION DATA    G (GPS)             RINEX VERSION / TYPE
teqc  2016Nov7                          20180328 12:56:15UTCPGM / RUN BY / DATE
Linux 2.4.21-27.ELsmp|Opteron|gcc|Linux x86_64|=+           COMMENT
teqc  2016Nov7                          20180328 12:56:13UTCCOMMENT
     2.11           OBSERVATION DATA    M (MIXED)           COMMENT
teqc  2016Nov7                          20180328 12:56:11UTCCOMMENT
teqc  2016Nov7      IGN-RGP             20180221 09:14:05UTCCOMMENT
teqc  2015Jun23     IGN-RGP             20180221 09:05:00UTCCOMMENT
Linux2.4.20-8|i386|gcc|Win32-MinGW32|=                      COMMENT
   0.000      (antenna height)                              COMMENT
 +48.80370904 (latitude)                                    COMMENT
  +1.81422468 (longitude)                                   COMMENT
0156.331      (elevation)                                   COMMENT
BIT 2 OF LLI FLAGS DATA COLLECTED UNDER A/S CONDITION       COMMENT
19776M001 (COGO code)                                       COMMENT
SXJ7                                                        MARKER NAME
19776M001                                                   MARKER NUMBER
Automatic           GIE COOP&TECH                           OBSERVER / AGENCY
4951K64796          TRIMBLE NETR5       4.41                REC # / TYPE / VERS
1440936203          TRM55971.00     NONE                    ANT # / TYPE
  4206878.1320   133251.9370  4776327.0180                  APPROX POSITION XYZ
        0.4600        0.0000        0.0000                  ANTENNA: DELTA H/E/N
     1     1                                                WAVELENGTH FACT L1/2
     9    L1    L2    C1    P1    P2    D1    D2    S1    S2# / TYPES OF OBSERV
    30.0000                                                 INTERVAL
    18                                                      LEAP SECONDS
 SNR is mapped to RINEX snr flag value [0-9]                COMMENT
  L1 & L2: min(max(int(snr_dBHz/6), 0), 9)                  COMMENT
teqc_2016 edited: GLONASS # 25 - 30 excluded                COMMENT
Forced Modulo Decimation to 30 seconds                      COMMENT
teqc_2016 edited: all GLONASS satellites excluded           COMMENT
teqc_2016 edited: all SBAS satellites excluded              COMMENT
teqc_2016 edited: all Galileo satellites excluded           COMMENT
  2018     2    21     8     0    0.0000000     GPS         TIME OF FIRST OBS
                                                            END OF HEADER
 18  2 21  8  0  0.0000000  0  8G07G05G09G02G30G23G16G06
 113580384.673 8  88504182.88746  21613627.680                    21613633.551
      2219.930                          50.000          37.500
 124020178.546 7  96639164.10744  23600267.516                    23600272.668
      3255.066                          44.300          29.300
 106561960.650 8  83035359.10047  20278071.164                    20278076.879
     -1110.664                          51.700          43.200
 114884747.965 8  89520615.47646  21861848.789                    21861850.633
       849.531                          48.200          38.500
 120534211.204 7  93922817.73844  22936899.297                    22936906.250
      3433.723                          47.800          29.500
 119019628.244 7  92742601.60245  22648686.898                    22648689.070
     -2571.727                          47.800          30.600
 127585254.741 5                  24278673.000
       850.363                          35.200
 111281202.939 8  86712679.15446  21176117.633                    21176125.516
     -1923.566                          50.100          41.400
 18  2 21  8  0 30.0000000  0  8G07G05G09G02G30G23G16G06
 113514000.736 8  88452455.16846  21600996.156                    21601000.637
      2205.695        1718.893          49.500          38.000
 123922579.476 7  96563112.92144  23581695.133                    23581699.719
      3251.418        2533.661          45.000          27.900
 106595471.082 8  83061471.11747  20284447.672                    20284453.750
     -1123.234        -875.138          52.700          43.800
 114859530.404 8  89500965.44346  21857050.180                    21857051.777
       831.684         648.299          48.000          38.300
 120431313.929 7  93842638.03245  22917319.672                    22917329.117
      3426.211        2669.830          43.900          31.900
 119096867.726 7  92802788.21945  22663385.305                    22663386.711
     -2577.570       -2008.401          47.400          30.700
 127560037.648 5                  24273873.898
       831.133                          35.800
 111339173.392 8  86757850.94046  21187148.367                    21187156.813
     -1940.906       -1512.266          50.300          41.800
 18  2 21  8  1  0.0000000  0  8G07G05G09G02G30G23G16G06
 113448044.004 8  88401060.30946  21588444.711                    21588449.578
      2191.344        1707.764          50.600          38.000
 123825090.071 7  96487147.15445  23563143.813                    23563148.672
      3247.727        2530.802          47.500          30.700
 106629357.839 8  83087876.36747  20290895.984                    20290902.043
     -1135.809        -884.899          53.400          44.100
 114834846.216 7  89481731.00446  21852352.813                    21852354.305
       813.902         634.433          47.500          37.700
 120328642.357 7  93762634.16044  22897780.414                    22897785.996
      3418.582        2663.938          46.800          29.700
 119174280.293 8  92863109.66245  22678116.375                    22678119.051
     -2583.355       -2012.892          48.600          31.100
 127535394.134 6                  24269185.531
       811.852                          36.600
 111397664.133 8  86803428.13446  21198279.008                    21198287.094
     -1958.414       -1525.767          49.300          41.600
 18  2 21  8  1 30.0000000  0  8G07G05G09G02G30G23G16G06
 113382516.127 8  88349999.64246  21575975.125                    21575979.590
      2176.996        1696.601          49.900          37.700
 123727711.713 7  96411267.91044  23544613.492                    23544618.188
      3244.109        2527.877          47.500          29.800
 106663619.635 8  83114573.86247  20297415.906                    20297422.195
     -1148.293        -894.624          52.500          44.300
 114810696.188 7  89462912.79646  21847757.070                    21847759.016
       796.129         620.549          45.500          37.900
 120226198.838 8  93682808.19045  22878286.750                    22878295.340
      3410.965        2657.982          48.900          32.600
 119251864.602 7  92923564.94345  22692880.063                    22692882.273
     -2588.969       -2017.342          46.900          30.700
 127511325.849 6                  24264605.602
       792.707                          36.600
 111456673.171 8  86849409.20546  21209508.148                    21209515.641
     -1975.594       -1539.202          50.000          41.600
 18  2 21  8  2  0.0000000  0  8G07G05G09G02G30G23G16G06
 113317418.908 8  88299274.54246  21563587.141                    21563591.148
      2162.676        1685.420          50.000          38.300
 123630446.333 7  96335476.72144  23526104.305                    23526108.949
      3240.273        2524.923          45.500          28.700
 106698255.017 8  83141562.46547  20304007.078                    20304013.094
     -1160.730        -904.310          52.700          44.800
 114787081.243 7  89444511.51146  21843263.203                    21843264.672
       778.152         606.657          46.900          37.600
 120123985.785 8  93603161.63245  22858837.164                    22858846.145
      3403.160        2651.962          49.100          35.100
 119329619.450 8  92984153.11245  22707676.555                    22707678.359
     -2594.621       -2021.737          48.500          31.400
 127487833.552 6                  24260135.125
       773.430                          38.900
 111516198.383 8  86895792.50147  21220835.500                    21220843.168
     -1992.758       -1552.574          50.700          42.300
 18  2 21  8  2 30.0000000  0  8G07G05G09G02G30G23G16G06
 113252754.035 8  88248886.30946  21551282.469                    21551286.453
      2148.410        1674.207          50.300          37.600
 123533294.497 7  96259773.96745  23507616.766                    23507621.625
      3236.527        2522.028          47.000          30.200
 106733263.054 8  83168841.44947  20310668.383                    20310674.336
     -1173.090        -913.948          53.900          44.500
 114764002.550 8  89426528.12746  21838871.805                    21838873.441
       760.344         592.735          48.300          38.000
 120022005.948 8  93523696.89945  22839430.039                    22839436.195
      3395.367        2645.917          49.300          33.400
 119407543.930 7  93044873.48045  22722504.828                    22722507.781
     -2600.355       -2026.112          46.900          30.200
 127464919.061 6                  24255774.836
       754.207                          37.700
 111576238.157 8  86942576.72547  21232260.852                    21232268.996
     -2009.898       -1565.894          51.000          43.000
 18  2 21  8  3  0.0000000  0  8G07G05G09G02G30G23G16G06
 113188523.203 8  88198836.32046  21539059.508                    21539063.883
      2133.695        1662.872          51.300          38.400
 123436258.677 7  96184161.62445  23489151.273                    23489157.047
      3232.582        2518.964          47.000          31.500
 106768642.364 8  83196409.75647  20317400.789                    20317407.426
     -1185.520        -923.570          51.700          44.100
 114741461.024 7  89408963.28946  21834582.133                    21834583.941
       742.414         578.760          46.700          38.000
 119920261.677 8  93444415.71245  22820068.992                    22820075.566
      3387.488        2639.727          48.600          34.000
 119485636.440 8  93105724.74345  22737365.148                    22737368.426
     -2606.004       -2030.457          48.100          33.100
 127442583.818 6                  24251525.117
       734.844                          38.800
 111636790.249 8  86989760.17447  21243783.000                    21243790.836
     -2026.953       -1579.183          51.000          42.300
 18  2 21  8  3 30.0000000  0  8G07G05G09G02G30G23G16G06
 113124728.519 8  88149126.16545  21526919.906                    21526924.230
      2119.211        1651.513          49.200          34.600
 123339340.186 7  96108640.74344  23470708.820                    23470713.871
      3228.605        2515.857          47.500          29.800
 106804392.022 8  83224266.58246  20324203.938                    20324209.992
     -1197.812        -933.214          51.400          41.900
 114719457.560 8  89391817.71645  21830395.492                    21830396.785
       724.516         564.750          48.100          35.100
 119818755.561 7  93365320.13145  22800752.539                    22800761.637
      3379.523        2633.452          46.700          31.500
 119563896.031 8  93166706.18745  22752258.023                    22752261.035
     -2611.383       -2034.802          48.000          31.400
 127420829.233 6                  24247385.156
       715.414                          38.700
 111697852.931 8  87037341.51045  21255403.563                    21255411.098
     -2044.008       -1592.463          49.000          35.800
 18  2 21  8  4  0.0000000  0  8G07G05G09G02G30G23G16G06
 113061371.651 8  88099757.19946  21514863.398                    21514867.762
      2104.570        1640.111          48.800          37.900
 123242539.699 7  96033211.83445  23452288.266                    23452292.621
      3224.715        2512.782          46.500          30.400
 106840510.520 8  83252410.88947  20331077.234                    20331083.660
     -1210.105        -942.783          52.800          44.200
 114697993.358 7  89375092.36646  21826310.609                    21826312.344
       706.484         550.727          47.800          38.000
 119717490.300 7  93286412.04245  22781482.352                    22781486.867
      3371.457        2627.218          47.600          31.100
 119642321.587 7  93227817.05345  22767181.258                    22767183.977
     -2616.945       -2039.122          47.500          31.400
 127399656.442 6                  24243355.031
       695.996                          36.000
 111759424.345 8  87085319.20147  21267119.891                    21267127.836
     -2060.937       -1605.633          49.900          42.000
 18  2 21  8  4 30.0000000  0  8G07G05G09G02G30G23G16G06
 112998454.686 8  88050730.99546  21502890.672                    21502895.418
      2089.906        1628.675          50.600          38.600
 123145859.591 7  95957876.68945  23433890.922                    23433895.281
      3220.578        2509.632          46.700          30.800
 106876997.200 8  83280842.05447  20338020.336                    20338026.301
     -1222.293        -952.296          52.900          44.300
 114677069.085 8  89358787.73546  21822328.609                    21822330.477
       688.512         536.719          48.000          38.300
 119616468.529 7  93207693.90845  22762258.781                    22762268.344
      3363.277        2620.875          46.700          32.500
 119720912.275 7  93289056.52545  22782136.336                    22782139.586
     -2622.320       -2043.362          46.900          30.200
 127379067.060 5                  24239437.375
       676.379                          33.200
 111821502.626 8  87133691.87346  21278932.781                    21278940.566
     -2077.691       -1618.758          50.300          41.600
 18  2 21  8  5  0.0000000  0  8G07G05G09G02G30G23G16G06
 112935978.694 8  88002048.41846  21491001.852                    21491005.723
      2075.219        1617.216          50.000          39.000
 123049301.816 7  95882636.82045  23415516.961                    23415520.406
      3216.574        2506.464          46.200          30.200
 106913850.451 8  83309558.86647  20345033.008                    20345039.348
     -1234.527        -961.798          51.700          44.300
 114656685.167 7  89342904.15746  21818449.594                    21818451.777
       670.500         522.674          46.700          38.200
 119515692.489 7  93129167.06445  22743081.461                    22743091.414
      3355.102        2614.460          46.500          34.000
 119799666.432 7  93350423.38744  22797123.555                    22797125.898
     -2627.859       -2047.582          46.600          29.500
 127359062.181 5                  24235629.438
       657.078                          34.600
 111884085.513 8  87182457.75346  21290842.305                    21290849.555
     -2094.484       -1631.834          51.300          41.700
 18  2 21  8  5 30.0000000  0  8G07G05G09G02G30G23G16G06
 112873945.791 8  87953711.09346  21479197.281                    21479201.730
      2060.328        1605.653          51.700          38.600
 122952868.303 8  95807493.83045  23397165.695                    23397170.168
      3212.293        2503.186          48.000          31.400
 106951069.230 8  83338560.51147  20352115.531                    20352122.051
     -1246.672        -971.311          51.100          43.800
 114636843.275 7  89327442.94546  21814674.000                    21814675.883
       652.313         508.534          46.600          37.800
 119415164.870 8  93050833.87546  22723952.180                    22723959.836
      3346.652        2607.939          49.100          36.000
 119878583.113 7  93411916.86745  22812140.742                    22812143.672
     -2633.227       -2051.827          47.100          31.800
 127339643.298 5                  24231933.133
       637.145                          32.000
 111947171.162 8  87231615.38547  21302846.734                    21302854.398
     -2111.340       -1644.909          49.900          42.500
 18  2 21  8  6  0.0000000  0  8G07G05G09G02G30G23G16G06
 112812357.817 8  87905720.44046  21467477.602                    21467481.723
      2045.613        1594.106          51.200          40.500
 122856560.005 7  95732448.42845  23378838.727                    23378843.512
      3208.254        2499.947          46.800          30.900
 106988652.382 8  83367846.05747  20359267.570                    20359273.910
     -1258.715        -980.735          52.300          45.300
 114617544.115 7  89312404.62346  21811001.930                    21811003.535
       634.293         494.489          46.500          37.400
 119314888.170 7  92972696.27345  22704869.789                    22704876.645
      3338.402        2601.439          47.600          34.700
 119957661.112 8  93473536.05545  22827188.516                    22827191.164
     -2638.512       -2055.984          48.500          33.100
 127320811.470 6                  24228351.141
       618.133                          37.900
 112010757.565 8  87281163.22346  21314947.203                    21314954.816
     -2127.777       -1657.857          49.900          41.300
 18  2 21  8  6 30.0000000  0  8G07G05G09G02G30G23G16G06
 112751216.221 7  87858077.62945  21455842.922                    21455846.777
      2030.727        1582.514          47.000          30.200
 122760377.938 7  95657501.46043  23360537.047                    23360540.703
      3204.000        2496.712          42.700          19.000
 107026598.865 8  83397414.73046  20366488.141                    20366494.680
     -1270.922        -990.159          49.700          38.400
 114598788.352 7  89297789.73744  21807431.766                    21807434.395
       616.090         480.365          43.800          28.100
 119214865.065 7  92894756.21344  22685835.875                    22685845.582
      3329.934        2594.842          45.300          28.900
 120036899.666 7  93535280.44843  22842267.984                    22842269.613
     -2643.973       -2060.156          42.700          19.000
 127302568.111 5                  24224880.633
       598.590                          34.000
 112074842.790 8  87331099.73145  21327141.969                    21327149.914
     -2144.520       -1670.769          48.400          34.400
 18  2 21  8  7  0.0000000  0  8G07G05G09G02G30G23G16G06
 112690522.555 8  87810783.90545  21444293.281                    21444297.301
      2015.500        1570.792          48.800          32.300
 122664324.165 7  95582654.40043  23342257.766                    23342262.512
      3199.559        2493.244          43.200          18.600
 107064906.907 7  83427265.15046  20373777.828                    20373784.375
     -1282.930        -999.564          47.500          38.600
 114580576.813 7  89283598.92744  21803966.695                    21803969.375
       597.949         466.163          42.100          28.000
 119115097.645 7  92817015.36544  22666850.695                    22666856.895
      3321.246        2588.110          46.800          28.300
 120116296.941 6  93597148.39642  22857376.156                    22857379.008
     -2649.316       -2064.250          39.400          16.300
 127284914.163 6                  24221522.547
       578.551                          36.300
 112139424.361 7  87381423.05645  21339431.516                    21339439.602
     -2161.062       -1683.660          47.500          34.200
 18  2 21  8  7 30.0000000  0  8G07G05G09G02G30G23G16G06
 112630278.370 8  87763840.31945  21432828.859                    21432833.176
      2000.715        1559.154          50.700          35.800
 122568400.122 7  95507908.25643  23324003.883                    23324008.508
      3195.574        2489.963          44.300          20.600
 107103575.353 8  83457396.40146  20381136.273                    20381142.871
     -1294.809       -1008.861          50.900          41.600
 114562909.391 7  89269832.11344  21800604.938                    21800607.469
       580.125         452.090          44.000          28.700
 119015588.416 8  92739475.75245  22647915.141                    22647921.770
      3312.711        2581.423          48.200          32.700
 120195852.091 7  93659139.41144  22872515.039                    22872517.887
     -2654.324       -2068.316          43.500          26.700
 127267850.906 5                  24218272.891
       558.891                          34.400
 112204500.260 8  87432131.48146  21351815.289                    21351823.066
     -2177.352       -1696.452          48.100          37.200
 18  2 21  8  8  0.0000000  0  8G07G05G09G02G30G23G16G06
 112570485.631 8  87717248.60845  21421451.180                    21421455.410
      1985.555        1547.337          51.900          35.400
 122472608.018 7  95433265.07344  23305775.000                    23305779.813
      3191.027        2486.430          45.000          24.100
 107142603.291 8  83487807.77247  20388563.320                    20388569.488
     -1306.750       -1018.234          51.200          42.700
 114545788.223 7  89256490.92845  21797346.516                    21797348.980
       561.664         437.842          45.100          30.400
 118916340.121 8  92662139.42545  22629028.625                    22629035.918
      3303.953        2574.566          48.500          33.600
 120275563.776 7  93721252.33245  22887683.375                    22887686.707
     -2659.523       -2072.392          46.800          31.000
 127251379.416 6                  24215139.656
       539.207                          41.300
 112270068.585 8  87483223.66446  21364292.844                    21364300.703
     -2193.730       -1709.252          50.400          37.600
 18  2 21  8  8 30.0000000  0  8G07G05G09G02G30G23G16G06
 112511145.901 8  87671009.86246  21410158.680                    21410163.367
      1970.500        1535.601          51.900          40.400
 122376949.110 8  95358725.72545  23287571.766                    23287576.402
      3186.508        2482.980          48.200          32.300
 107181989.249 8  83518498.10747  20396058.391                    20396064.984
     -1318.695       -1027.497          52.700          45.700
 114529213.337 8  89243575.41646  21794192.648                    21794194.789
       543.477         423.671          49.000          38.300
 118817355.111 8  92585008.30445  22610192.008                    22610200.246
      3295.133        2567.720          48.200          35.000
 120355431.029 7  93783486.50845  22902882.133                    22902885.488
     -2664.789       -2076.421          47.200          33.100
 127235500.574 7  99144589.80644  24212119.008                    24212122.129
       519.504         404.997          44.700          24.100
 112336127.095 8  87534697.85246  21376863.172                    21376870.637
     -2210.000       -1721.926          50.200          41.100
 18  2 21  8  9  0.0000000  0  8G07G05G09G02G30G23G16G06
 112452260.383 8  87625125.05446  21398953.398                    21398957.961
      1955.273        1523.799          52.400          40.600
 122281424.915 7  95284291.30845  23269394.203                    23269398.867
      3181.926        2479.485          44.800          31.800
 107221731.928 8  83549466.42047  20403621.227                    20403627.750
     -1330.664       -1036.729          52.800          45.300
 114513185.288 8  89231086.01546  21791142.727                    21791145.031
       525.133         409.454          48.700          37.500
 118718635.609 7  92508084.03545  22591406.445                    22591414.422
      3286.273        2560.810          45.200          35.700
 120435452.510 7  93845840.88845  22918109.922                    22918111.918
     -2669.832       -2080.394          47.300          32.300
 127220215.602 7  99132679.42443  24209209.570                    24209213.297
       499.582         389.571          44.200          21.700
 112402673.404 8  87586552.10747  21389526.539                    21389534.047
     -2226.270       -1734.557          51.000          42.000
 18  2 21  8  9 30.0000000  0  8G07G05G09G02G30G23G16G06
 112393831.245 8  87579595.85746  21387834.773                    21387838.875
      1940.086        1511.872          51.900          40.900
 122186037.083 7  95209963.12645  23251242.297                    23251247.230
      3177.301        2475.842          46.300          31.500
 107261830.597 8  83580712.12947  20411251.242                    20411258.059
     -1342.500       -1046.018          53.200          45.500
 114497705.308 7  89219023.68646  21788196.742                    21788199.242
       506.867         395.172          47.500          37.800
 118620184.736 7  92431369.12145  22572672.016                    22572678.875
      3277.305        2553.749          46.000          35.000
 120515627.681 7  93908315.04945  22933366.375                    22933369.121
     -2674.953       -2084.411          47.900          32.900
 127205525.890 7  99121232.86243  24206414.727                    24206416.840
       479.836         374.053          42.900          21.700
 112469705.983 8  87638785.25546  21402282.609                    21402290.594
     -2242.547       -1747.244          50.300          41.800
 18  2 21  8 10  0.0000000  0  8G07G05G09G02G30G23G16G06
 112335859.941 8  87534423.40846  21376802.969                    21376807.660
      1924.633        1500.004          52.100          41.300
 122090787.278 8  95135742.50245  23233116.695                    23233121.813
      3172.602        2472.289          48.000          31.000
 107302283.796 8  83612234.08047  20418949.742                    20418955.742
     -1354.477       -1055.151          50.900          45.400
 114482773.817 7  89207388.76646  21785355.641                    21785358.008
       488.480         380.950          47.600          37.800
 118522004.701 7  92354865.20146  22553988.922                    22553996.750
      3268.113        2546.735          47.200          36.000
 120595954.877 7  93970907.62445  22948652.289                    22948655.094
     -2680.203       -2088.323          47.200          32.500
 127191432.515 7  99110251.02743  24203732.984                    24203735.965
       459.641         358.542          43.600          22.300
 112537222.316 8  87691395.34346  21415130.086                    21415137.887
     -2258.742       -1759.723          48.300          41.500
 18  2 21  8 10 30.0000000  0  8G07G05G09G02G30G23G16G06
 112278347.643 8  87489608.63046  21365858.383                    21365863.258
      1909.344        1488.039          52.700          40.600
 121995676.914 7  95061630.53445  23215018.023                    23215022.566
      3168.004        2468.620          47.400          31.200
 107343090.091 8  83644031.19347  20426714.703                    20426721.551
     -1366.098       -1064.337          53.400          45.900
 114468391.292 8  89196181.60046  21782618.867                    21782620.777
       470.188         366.647          48.600          37.700
 118424097.754 8  92278574.09445  22535357.758                    22535364.492
      3259.031        2539.571          48.400          35.000
 120676433.032 7  94033617.87345  22963966.414                    22963968.945
     -2685.164       -2092.232          47.300          33.100
 127177936.180 7  99099734.37643  24201165.164                    24201167.258
       439.969         343.052          43.900          22.000
 112605220.148 8  87744380.63646  21428069.883                    21428077.746
     -2274.555       -1772.208          48.800          41.500
 18  2 21  8 11  0.0000000  0  8G07G05G09G02G30G23G16G06
 112221296.284 8  87445153.02346  21355002.109                    21355006.430
      1893.941        1476.041          51.400          40.900
 121900708.375 7  94987629.09845  23196946.305                    23196950.770
      3163.230        2464.903          47.000          32.400
 107384248.582 8  83676102.73647  20434547.016                    20434553.363
     -1377.832       -1073.475          53.200          45.400
 114454558.777 8  89185403.01246  21779986.367                    21779988.504
       451.852         352.359          48.500          38.000
 118326466.708 7  92202498.00645  22516779.344                    22516786.988
      3249.699        2532.369          47.800          35.500
 120757061.459 7  94096445.18245  22979309.656                    22979313.281
     -2690.191       -2096.124          47.000          33.200
 127165037.774 7  99089683.67143  24198709.805                    24198712.094
       419.973         327.484          42.300          22.200
 112673697.574 8  87797739.61046  21441100.578                    21441108.867
     -2290.555       -1784.648          50.900          41.100
 18  2 21  8 11 30.0000000  0  8G07G05G09G02G30G23G16G06
 112164707.507 8  87401057.86146  21344233.586                    21344237.859
      1878.523        1464.018          53.100          41.400
 121805883.282 8  94913739.44445  23178901.391                    23178905.938
      3158.410        2461.176          48.600          32.400
 107425758.054 8  83708447.76747  20442445.859                    20442452.734
     -1389.492       -1082.556          52.700          45.900
 114441276.829 7  89175053.42846  21777459.117                    21777460.711
       433.500         338.071          47.900          38.100
 118229114.075 8  92126638.84245  22498253.164                    22498260.234
      3240.352        2525.118          48.300          35.900
 120837838.830 7  94159388.57445  22994681.313                    22994683.172
     -2694.953       -2099.969          46.100          32.400
 127152738.629 6  99080099.90343  24196369.039                    24196371.137
       399.895         311.926          40.000          19.900
 112742652.362 7  87851470.55946  21454222.227                    21454229.633
     -2306.359       -1797.006          47.800          41.000
 18  2 21  8 12  0.0000000  0  8G07G05G09G02G30G23G16G06
 112108582.653 8  87357324.21546  21333553.477                    21333558.145
      1863.176        1451.942          52.700          41.100
 121711202.658 7  94839962.34245  23160884.398                    23160888.754
      3153.676        2457.386          47.400          31.700
 107467617.117 8  83741065.21947  20450411.336                    20450418.035
     -1401.129       -1091.629          52.000          45.300
 114428545.669 8  89165133.04046  21775035.867                    21775038.180
       415.336         323.774          48.800          37.600
 118132042.080 8  92050998.34245  22479781.391                    22479789.086
      3231.086        2517.805          49.200          35.700
 120918764.298 7  94222447.34645  23010080.797                    23010084.293
     -2699.910       -2103.814          46.100          33.400
 127141039.504 6  99070983.70443  24194143.102                    24194146.086
       379.992         296.326          38.700          20.600
 112812082.227 8  87905571.69846  21467434.445                    21467442.785
     -2322.148       -1809.307          49.800          41.500
 18  2 21  8 12 30.0000000  0  8G07G05G09G02G30G23G16G06
 112052923.195 8  87313953.21446  21322962.063                    21322966.789
      1847.512        1439.839          52.600          41.300
 121616668.583 8  94766299.45945  23142895.070                    23142899.379
      3148.660        2453.571          48.300          32.700
 107509824.333 8  83773953.94747  20458443.422                    20458450.125
     -1412.727       -1100.662          53.000          45.500
 114416365.815 8  89155642.23846  21772718.766                    21772720.965
       396.777         309.430          48.200          38.200
 118035253.045 8  91975578.33046  22461362.633                    22461370.504
      3221.543        2510.422          48.800          36.100
 120999836.162 7  94285620.21845  23025508.406                    23025510.816
     -2704.797       -2107.589          46.300          32.700
 127129940.935 6  99062335.46343  24192029.617                    24192034.449
       359.867         280.720          39.800          19.900
 112881984.691 8  87960041.10346  21480736.570                    21480744.449
     -2337.961       -1821.563          48.500          41.600
 18  2 21  8 13  0.0000000  0  8G07G05G09G02G30G23G16G06
 111997730.547 8  87270945.94946  21312458.977                    21312463.543
      1832.074        1427.723          52.600          41.100
 121522282.859 8  94692752.12345  23124934.234                    23124938.754
      3143.785        2449.759          48.100          32.900
 107552378.971 9  83807113.39947  20466541.102                    20466547.871
     -1424.156       -1109.635          54.000          45.400
 114404738.448 7  89146581.94846  21770506.188                    21770508.043
       378.512         295.108          47.300          38.100
 117938749.886 7  91900381.12046  22442999.156                    22443006.684
      3212.141        2503.000          47.800          36.800
 121081053.879 7  94348906.73945  23040964.211                    23040966.656
     -2709.609       -2111.347          44.900          31.800
 127119444.442 6  99054156.39643  24190032.203                    24190036.773
       339.941         265.071          37.800          19.300
 112952358.017 8  88014877.42046  21494128.555                    21494135.734
     -2353.516       -1833.732          49.500          40.600
 18  2 21  8 13 30.0000000  0  8G07G05G09G02G30G23G16G06
 111943006.790 8  87228304.06446  21302045.523                    21302049.855
      1816.281        1415.476          51.500          41.300
 121428045.923 7  94619320.76845  23107001.281                    23107005.848
      3138.652        2445.772          45.600          33.200
 107595279.714 9  83840542.53647  20474705.141                    20474711.430
     -1435.762       -1118.646          54.800          45.100
 114393663.848 7  89137952.38346  21768398.375                    21768400.590
       359.914         280.688          47.900          38.700
 117842535.016 7  91825408.52346  22424689.703                    22424697.934
      3202.277        2495.425          46.500          36.400
 121162416.310 7  94412306.00045  23056446.477                    23056449.473
     -2714.527       -2115.128          45.200          32.100
 127109551.061 6  99046447.28443  24188149.656                    24188154.891
       319.590         249.378          38.100          21.100
 113023199.817 8  88070078.80246  21507608.688                    21507616.906
     -2369.199       -1845.927          49.800          40.900
 18  2 21  8 14  0.0000000  0  8G07G05G09G02G30G23G16G06
 111888752.615 8  87186028.07646  21291721.656                    21291726.148
      1800.566        1403.310          52.100          40.900
 121333960.770 7  94546007.67545  23089097.766                    23089102.559
      3133.539        2441.861          47.500          32.600
 107638524.873 8  83874240.06947  20482934.500                    20482940.840
     -1447.242       -1127.549          53.900          45.000
 114383142.105 7  89129753.60946  21766396.859                    21766398.281
       341.492         266.353          47.600          37.900
 117746610.367 8  91750662.05845  22406435.648                    22406443.141
      3192.563        2487.908          48.000          35.800
 121243922.019 7  94475816.93945  23071956.258                    23071958.699
     -2719.242       -2118.812          45.800          33.600
 127100260.846 6  99039208.16743  24186381.055                    24186387.301
       299.566         233.722          38.800          22.000
 113094507.412 8  88125643.15346  21521177.828                    21521185.758
     -2384.695       -1857.960          49.500          40.400
 18  2 21  8 14 30.0000000  0  8G07G05G09G02G30G23G16G06
 111834969.812 8  87144119.40646  21281486.578                    21281491.051
      1784.805        1391.017          51.500          40.900
 121240029.618 7  94472814.59845  23071222.680                    23071227.723
      3128.379        2437.807          47.800          32.600
 107682113.651 9  83908205.33747  20491228.992                    20491235.063
     -1458.746       -1136.475          54.500          45.300
 114373174.393 8  89121986.55346  21764499.586                    21764501.680
       322.941         251.934          48.100          38.400
 117650978.871 8  91676144.03046  22388237.828                    22388244.500
      3182.715        2480.217          48.400          36.100
 121325570.161 7  94539438.82445  23087493.367                    23087496.902
     -2724.098       -2122.529          46.000          32.400
 127091574.963 6  99032439.99043  24184728.789                    24184734.914
       279.363         217.987          37.000          21.800
 113166278.921 8  88181568.97446  21534836.039                    21534843.688
     -2400.137       -1870.014          50.400          40.800
 18  2 21  8 15  0.0000000  0  8G07G05G09G02G30G23G16G06
 111781659.448 8  87102578.88046  21271341.727                    21271346.898
      1769.055        1378.739          52.800          41.300
 121146253.441 8  94399742.24945  23053378.586                    23053382.934
      3123.250        2433.805          48.900          31.900
 107726044.475 8  83942437.15147  20499588.805                    20499595.242
     -1470.098       -1145.343          52.300          45.700
 114363760.547 8  89114651.08746  21762708.125                    21762710.230
       304.527         237.561          48.300          38.400
 117555642.560 8  91601856.01646  22370095.617                    22370103.203
      3172.926        2472.541          48.800          36.900
 121407359.323 7  94603170.64345  23103057.227                    23103059.273
     -2728.695       -2126.163          45.800          30.800
 127083494.208 6  99026143.31344  24183190.250                    24183197.488
       259.238         202.289          39.900          24.500
 113238511.684 7  88237854.24846  21548581.367                    21548589.059
     -2415.453       -1881.936          47.600          40.900
 18  2 21  8 15 30.0000000  0  8G07G05G09G02G30G23G16G06
 111728823.462 8  87061407.98946  21261287.516                    21261292.441
      1753.281        1366.392          53.300          41.000
 121052634.044 8  94326792.05545  23035562.867                    23035566.984
      3118.051        2429.705          48.600          32.400
 107770316.419 9  83976934.76047  20508013.555                    20508019.723
     -1481.324       -1154.193          54.500          45.300
 114354901.576 7  89107747.98746  21761022.227                    21761024.344
       286.035         223.131          47.500          38.200
 117460604.257 8  91527800.19346  22352010.430                    22352017.754
      3163.016        2464.771          48.800          36.900
 121489289.032 7  94667011.94445  23118648.609                    23118651.633
     -2733.297       -2129.795          47.000          33.200
 127076019.008 6  99020318.47644  24181768.797                    24181774.414
       239.004         186.525          38.100          24.200
 113311203.696 8  88294497.33946  21562414.594                    21562422.051
     -2430.738       -1893.855          48.700          40.900
 18  2 21  8 16  0.0000000  0  8G07G05G09G02G30G23G16G06
 111676463.463 8  87020608.00246  21251323.875                    21251328.656
      1737.332        1354.021          52.400          41.400
 120959172.369 7  94253964.78245  23017778.039                    23017782.281
      3112.758        2425.582          47.800          32.700
 107814928.366 8  84011697.31247  20516502.945                    20516509.164
     -1492.734       -1163.017          53.800          45.100
 114346597.897 8  89101277.58946  21759442.523                    21759444.688
       267.586         208.706          48.100          38.600
 117365866.415 8  91453978.52546  22333982.531                    22333990.566
      3152.859        2456.921          48.100          36.400
 121571358.247 7  94730961.95645  23134265.398                    23134267.711
     -2737.961       -2133.403          45.600          31.500
 127069150.549 6  99014966.44344  24180461.391                    24180467.910
       218.777         170.774          38.800          24.800
 113384352.635 7  88351496.46546  21576333.984                    21576341.664
     -2445.855       -1905.681          47.100          40.400
 18  2 21  8 16 30.0000000  0  8G07G05G09G02G30G23G16G06
 111624580.146 8  86980179.43246  21241450.805                    21241455.102
      1721.523        1341.650          52.400          40.600
 120865870.777 8  94181262.25745  23000023.266                    23000027.359
      3107.363        2421.434          48.000          32.700
 107859878.768 8  84046723.58847  20525056.906                    20525062.980
     -1504.035       -1171.744          53.000          45.100
 114338849.548 7  89095239.90146  21757967.906                    21757970.273
       249.027         194.307          46.700          38.600
 117271431.233 7  91380392.69246  22316012.070                    22316018.945
      3142.813        2449.058          47.400          37.100
 121653565.429 7  94795019.48345  23149908.867                    23149913.027
     -2742.543       -2136.952          46.700          32.300
 127062889.251 6  99010087.51444  24179270.242                    24179276.391
       198.633         155.041          38.800          26.200
 113457956.026 8  88408849.72846  21590340.352                    21590347.953
     -2460.992       -1917.441          48.300          40.100
 18  2 21  8 17  0.0000000  0  8G07G05G09G02G30G23G16G06
 111573175.131 8  86940123.59446  21231668.813                    21231673.691
      1705.672        1329.184          53.000          40.500
 120772731.124 7  94108685.92045  22982298.883                    22982304.094
      3102.000        2417.141          45.500          32.800
 107905166.424 9  84082012.67147  20533674.852                    20533680.758
     -1515.129       -1180.546          54.000          45.700
 114331657.117 8  89089635.40346  21756599.195                    21756601.039
       230.469         179.813          48.000          38.500
 117177301.148 7  91307044.61046  22298099.852                    22298108.164
      3132.617        2441.062          47.800          37.300
 121735909.554 7  94859183.69145  23165578.047                    23165581.590
     -2747.035       -2140.534          46.300          30.400
 127057235.736 6  99005682.16344  24178194.688                    24178200.793
       178.473         139.180          39.600          25.300
 113532011.440 8  88466555.19846  21604432.352                    21604440.328
     -2475.969       -1929.187          48.300          40.500
 18  2 21  8 17 30.0000000  0  8G07G05G09G02G30G23G16G06
 111522249.739 8  86900441.48446  21221978.164                    21221982.301
      1689.598        1316.744          52.300          41.100
 120679755.468 7  94036237.38345  22964606.023                    22964610.625
      3096.527        2412.934          46.300          32.600
 107950790.034 9  84117563.52947  20542356.586                    20542362.656
     -1526.254       -1189.186          54.600          45.700
 114325020.483 7  89084463.99646  21755336.273                    21755338.754
       212.027         165.449          47.100          39.000
 117083478.487 7  91233936.06646  22280245.914                    22280253.707
      3122.305        2433.097          47.100          37.200
 121818389.378 7  94923453.70245  23181274.156                    23181276.809
     -2751.562       -2143.986          46.700          31.800
 127052190.792 7  99001751.02144  24177234.977                    24177240.695
       157.961         123.420          42.100          26.000
 113606516.443 8  88524610.95346  21618610.594                    21618618.375
     -2490.910       -1940.771          50.300          40.300
 18  2 21  8 18  0.0000000  0  8G07G05G09G02G30G23G16G06
 111471805.253 8  86861134.10746  21212378.344                    21212382.828
      1673.426        1304.206          52.800          41.200
 120586944.585 8  93963917.23145  22946944.930                    22946949.824
      3090.938        2408.602          48.300          33.300
 107996748.398 9  84153375.23647  20551102.250                    20551108.398
     -1537.473       -1197.901          54.400          45.600
 114318940.311 7  89079726.19746  21754179.094                    21754181.535
       193.301         150.940          47.300          39.100
 116989965.627 8  91161068.93846  22262450.703                    22262457.641
      3111.898        2425.010          48.200          36.700
 121901004.235 7  94987828.84845  23196995.453                    23196998.398
     -2756.109       -2147.521          43.700          32.400
 127047754.891 6  98998294.49144  24176390.602                    24176395.785
       137.523         107.564          41.700          26.000
 113681468.705 8  88583015.25346  21632873.484                    21632881.578
     -2505.887       -1952.399          49.400          40.400
 18  2 21  8 18 30.0000000  0  8G07G05G09G02G30G23G16G06
 111421842.900 8  86822202.40746  21202871.125                    21202875.680
      1657.375        1291.667          52.900          41.300
 120494301.035 7  93891727.47245  22929315.469                    22929319.949
      3085.336        2404.242          47.200          32.600
 108043040.151 8  84189446.72647  20559910.914                    20559917.086
     -1548.648       -1206.551          53.800          45.500
 114313416.992 7  89075422.31546  21753128.055                    21753130.352
       174.781         136.471          46.300          39.000
 116896764.953 7  91088445.05546  22244715.664                    22244722.332
      3101.383        2416.865          47.800          37.300
 121983752.877 7  95052308.32145  23212741.703                    23212744.035
     -2760.555       -2150.987          47.000          30.900
 127043928.483 7  98995312.83644  24175663.391                    24175667.750
       117.348          91.750          43.400          26.500
 113756865.764 8  88641766.17046  21647221.008                    21647228.801
     -2520.613       -1963.911          48.800          40.000
 18  2 21  8 19  0.0000000  0  8G07G05G09G02G30G23G16G06
 111372364.212 8  86783647.59946  21193455.648                    21193460.305
      1641.105        1279.094          52.800          40.900
 120401826.162 7  93819669.14545  22911718.063                    22911722.543
      3079.605        2399.821          46.800          33.200
 108089664.247 8  84225777.18047  20568783.484                    20568789.863
     -1559.750       -1215.175          53.400          45.200
 114308450.846 7  89071552.57646  21752182.703                    21752185.219
       156.215         122.004          46.100          38.700
 116803878.939 8  91016066.34346  22227040.180                    22227047.430
      3090.828        2408.662          48.800          37.400
 122066634.437 7  95116891.26945  23228513.969                    23228517.707
     -2764.969       -2154.421          46.500          32.100
 127040712.303 7  98992806.73544  24175051.141                    24175055.918
        97.035          75.848          42.700          26.400
 113832705.305 8  88700861.87546  21661652.875                    21661661.008
     -2535.410       -1975.394          49.900          40.000
 18  2 21  8 19 30.0000000  0  8G07G05G09G02G30G23G16G06
 111323370.405 8  86745470.62246  21184132.102                    21184137.262
      1625.000        1266.475          53.000          41.200
 120309521.810 7  93747743.68045  22894152.805                    22894157.414
      3073.906        2395.369          47.300          32.700
 108136619.256 8  84262365.50247  20577718.492                    20577724.766
     -1570.637       -1223.736          53.900          45.100
 114304042.008 7  89068117.11346  21751344.047                    21751345.980
       137.691         107.542          47.200          38.500
 116711309.888 7  90943934.64046  22209424.125                    22209432.637
      3080.320        2400.412          47.700          37.900
 122149647.824 7  95181577.05144  23244310.320                    23244311.625
     -2769.363       -2157.834          45.100          29.400
 127038106.932 7  98990776.54444  24174555.109                    24174560.234
        76.602          60.023          43.700          26.900
 113908984.774 8  88760300.34946  21676168.500                    21676176.336
     -2550.008       -1986.771          50.400          39.800
 18  2 21  8 20  0.0000000  0  8G07G05G09G02G30G23G16G06
 111274862.776 8  86707672.46546  21174901.852                    21174905.742
      1608.820        1253.832          52.600          39.400
 120217389.692 7  93675952.42945  22876621.133                    22876625.766
      3068.195        2390.874          47.500          32.600
 108183903.989 8  84299210.76646  20586716.477                    20586722.754
     -1581.574       -1232.300          51.300          38.900
 114300190.799 7  89065116.14645  21750611.453                    21750613.754
       119.055          93.027          46.700          35.200
 116619060.385 8  90872051.92045  22191870.227                    22191878.090
      3069.617        2392.064          48.200          35.300
 122232792.027 7  95246364.73143  23260132.039                    23260135.523
     -2773.539       -2161.215          42.800          22.600
 127036112.690 6  98989222.54743  24174175.875                    24174180.859
        56.242          44.150          41.500          22.300
 113985701.869 7  88820079.85745  21690767.523                    21690774.789
     -2564.484       -1998.128          47.200          34.900
 18  2 21  8 20 30.0000000  0  8G07G05G09G02G30G23G16G06
 111226842.717 8  86670254.25346  21165763.703                    21165768.000
      1592.445        1241.128          52.300          39.800
 120125431.875 7  93604296.97745  22859122.102                    22859126.348
      3062.359        2386.325          47.700          32.800
 108231517.526 8  84336312.20846  20595777.172                    20595783.480
     -1592.699       -1240.826          51.200          40.400
 114296897.590 7  89062550.00145  21749984.625                    21749986.418
       100.383          78.531          46.600          35.800
 116527132.559 7  90800419.91445  22174377.695                    22174384.820
      3058.773        2383.668          45.900          33.900
 122316066.268 6  95311253.68443  23275980.266                    23275980.957
     -2778.070       -2164.561          38.800          19.900
 127034730.163 6  98988145.31543  24173912.906                    24173917.121
        35.801          28.208          40.900          20.400
 114062854.247 7  88880198.53845  21705449.195                    21705457.355
     -2578.988       -2009.406          47.900          35.400
 18  2 21  8 21  0.0000000  0  8G07G05G09G02G30G23G16G06
 111179311.105 8  86633216.65146  21156718.969                    21156723.023
      1576.297        1228.434          51.000          37.900
 120033649.807 8  93532778.49245  22841656.492                    22841661.324
      3056.559        2381.732          48.200          33.100
 108279458.367 8  84373668.70047  20604899.984                    20604906.027
     -1603.395       -1249.317          51.800          42.600
 114294162.451 8  89060418.70446  21749464.188                    21749465.883
        81.914          64.042          48.000          37.800
 116435528.899 7  90729040.44145  22156944.859                    22156952.395
      3048.164        2375.247          47.300          34.000
 122399468.996 7  95376242.81644  23291849.836                    23291852.789
     -2782.086       -2167.918          44.600          27.400
 127033960.092 5  98987545.15842  24173766.914                    24173770.988
        15.473          12.339          33.200          14.800
 114140439.323 8  88940654.40246  21720212.828                    21720221.371
     -2593.387       -2020.623          49.200          38.300
 18  2 21  8 21 30.0000000  0  8G07G05G09G02G30G23G16G06
 111132269.595 8  86596560.97046  21147767.164                    21147771.656
      1559.887        1215.660          51.100          37.500
 119942045.170 7  93461398.27945  22824224.586                    22824229.492
      3050.441        2377.071          47.800          33.900
 108327725.339 8  84411279.33546  20614085.047                    20614091.250
     -1614.391       -1257.801          50.600          41.800
 114291985.498 7  89058722.37446  21749050.266                    21749051.953
        63.102          49.503          47.000          38.600
 116344251.965 8  90657915.56545  22139575.664                    22139583.418
      3037.098        2366.684          48.300          35.000
 122482999.614 7  95441331.55544  23307744.734                    23307748.070
     -2786.520       -2171.250          42.600          26.000
 127033802.610 5  98987422.45642  24173736.453                    24173740.320
        -4.750          -3.613          35.400          17.400
 114218454.763 8  89001445.60546  21735058.664                    21735067.480
     -2607.602       -2031.772          49.200          39.200
 18  2 21  8 22  0.0000000  0  8G07G05G09G02G30G23G16G06
 111085719.190 8  86560287.93846  21138909.023                    21138913.293
      1543.246        1202.901          51.300          38.600
 119850620.538 8  93390158.33045  22806827.086                    22806831.824
      3044.438        2372.368          48.400          34.300
 108376317.175 8  84449143.09147  20623331.438                    20623338.277
     -1625.266       -1266.209          52.100          42.400
 114290367.124 8  89057461.30446  21748741.523                    21748744.695
        44.480          34.985          48.000          39.600
 116253303.862 8  90587046.96846  22122268.688                    22122276.535
      3026.027        2358.121          48.800          36.500
 122566656.889 7  95506519.08244  23323664.516                    23323667.070
     -2790.766       -2174.517          44.300          29.700
 127034258.254 6  98987777.51943  24173823.234                    24173827.051
       -25.492         -19.520          36.400          19.000
 114296897.793 8  89062569.98046  21749985.875                    21749993.996
     -2621.965       -2042.842          49.200          39.100
 18  2 21  8 22 30.0000000  0  8G07G05G09G02G30G23G16G06
 111039660.944 8  86524398.37246  21130144.023                    21130148.527
      1526.992        1190.147          51.700          38.100
 119759376.630 8  93319059.19345  22789463.867                    22789468.504
      3038.371        2367.712          48.200          32.800
 108425232.497 8  84487258.89847  20632640.133                    20632646.367
     -1635.961       -1274.551          52.100          43.300
 114289307.247 8  89056635.41346  21748540.242                    21748542.102
        25.930          20.532          48.900          38.100
 116162686.821 8  90516436.28946  22105024.781                    22105032.355
      3014.953        2349.545          49.100          37.400
 122650439.933 7  95571804.43644  23339608.859                    23339611.266
     -2794.918       -2177.719          46.400          28.500
 127035326.985 6  98988610.28043  24174026.227                    24174030.797
       -45.809         -35.422          40.400          21.500
 114375765.984 8  89124025.63646  21764994.188                    21765002.035
     -2635.918       -2053.808          49.900          38.900
 18  2 21  8 23  0.0000000  0  8G07G05G09G02G30G23G16G06
 110994096.025 8  86488893.25646  21121473.563                    21121477.820
      1510.672        1177.307          52.100          38.700
 119668315.722 8  93248102.64345  22772135.617                    22772140.254
      3032.293        2362.906          48.200          34.400
 108474470.252 8  84525625.96947  20642009.563                    20642015.988
     -1646.551       -1282.937          52.800          44.100
 114288806.277 8  89056245.04446  21748444.875                    21748446.938
         7.441           6.002          48.200          38.400
 116072403.466 7  90446085.64246  22087844.328                    22087850.969
      3003.867        2340.814          47.600          37.000
 122734347.505 7  95637187.01145  23355574.117                    23355578.402
     -2798.941       -2180.957          43.500          30.200
 127037009.426 6  98989921.24143  24174346.320                    24174350.723
       -66.328         -51.385          40.700          23.400
 114455057.093 8  89185810.87346  21780083.070                    21780091.234
     -2649.996       -2064.786          49.000          38.800
 18  2 21  8 23 30.0000000  0  8G07G05G09G02G30G23G16G06
 110949025.584 8  86453773.43646  21112896.859                    21112901.586
      1494.055        1164.423          52.900          40.500
 119577439.772 7  93177290.19745  22754842.375                    22754847.242
      3026.133        2358.066          47.500          34.300
 108524028.907 8  84564243.10547  20651440.016                    20651447.059
     -1657.273       -1291.274          52.000          43.800
 114288863.816 8  89056289.85546  21748456.031                    21748458.145
       -11.242          -8.528          49.300          39.600
 115982455.784 8  90375996.55846  22070728.320                    22070735.336
      2992.711        2332.067          49.300          38.500
 122818378.527 7  95702665.65245  23371565.453                    23371569.359
     -2803.039       -2184.178          46.400          30.800
 127039305.568 6  98991710.44643  24174784.055                    24174788.109
       -86.715         -67.348          40.200          22.500
 114534768.230 8  89247923.45546  21795251.141                    21795259.734
     -2664.082       -2075.694          49.600          39.500
 18  2 21  8 24  0.0000000  0  8G07G05G09G02G30G23G16G06
 110904451.092 8  86419040.07346  21104414.930                    21104419.273
      1477.512        1151.529          52.300          41.100
 119486750.770 8  93106623.46845  22737584.813                    22737589.586
      3019.887        2353.217          48.100          34.600
 108573907.462 8  84603109.50647  20660931.953                    20660938.605
     -1668.059       -1299.580          52.200          43.300
 114289480.258 8  89056770.21246  21748573.125                    21748575.523
       -29.902         -23.046          48.800          39.200
 115892846.308 8  90306171.03646  22053676.031                    22053683.586
      2981.328        2323.244          50.700          39.100
 122902532.290 7  95768240.02344  23387579.742                    23387581.613
     -2807.180       -2187.357          46.100          29.600
 127042216.168 6  98993978.43443  24175337.242                    24175341.668
