     2.11           OBSERVATION DATA    G (GPS)             RINEX VERSION / TYPE
teqc  2016Nov7                          20180328 12:56:15UTCPGM / RUN BY / DATE
Linux 2.4.21-27.ELsmp|Opteron|gcc|Linux x86_64|=+           COMMENT
teqc  2016Nov7                          20180328 12:56:14UTCCOMMENT
     2.11           OBSERVATION DATA    M (MIXED)           COMMENT
teqc  2016Nov7                          20180328 12:56:13UTCCOMMENT
teqc  2016Nov7      IGN-RGP             20180221 09:16:18UTCCOMMENT
teqc  2015Jun23     IGN-RGP             20180221 09:08:07UTCCOMMENT
Linux2.4.20-8|i386|gcc|Win32-MinGW32|=                      COMMENT
   0.000      (antenna height)                              COMMENT
 +48.65482660 (latitude)                                    COMMENT
  +1.98280364 (longitude)                                   COMMENT
0230.781      (elevation)                                   COMMENT
BIT 2 OF LLI FLAGS DATA COLLECTED UNDER A/S CONDITION       COMMENT
CTX5 (COGO code)                                            COMMENT
SXJ8                                                        MARKER NAME
18698M001                                                   MARKER NUMBER
Automatic           GIE COOP&TECH                           OBSERVER / AGENCY
5105K73505          TRIMBLE NETR5       4.70                REC # / TYPE / VERS
31187723            TRM57971.00     NONE                    ANT # / TYPE
  4218953.6690   146061.3310  4765461.7440                  APPROX POSITION XYZ
        1.2600        0.0000        0.0000                  ANTENNA: DELTA H/E/N
     1     1                                                WAVELENGTH FACT L1/2
     7    L1    L2    C1    P1    P2    S1    S2            # / TYPES OF OBSERV
    30.0000                                                 INTERVAL
    18                                                      LEAP SECONDS
 SNR is mapped to RINEX snr flag value [0-9]                COMMENT
  L1 & L2: min(max(int(snr_dBHz/6), 0), 9)                  COMMENT
teqc_2016 edited: GLONASS # 25 - 30 excluded                COMMENT
Forced Modulo Decimation to 30 seconds                      COMMENT
teqc_2016 edited: all GLONASS satellites excluded           COMMENT
teqc_2016 edited: all SBAS satellites excluded              COMMENT
teqc_2016 edited: all Galileo satellites excluded           COMMENT
  2018     2    21     8     0    0.0000000     GPS         TIME OF FIRST OBS
                                                            END OF HEADER
 18  2 21  8  0  0.0000000  0  8G07G02G09G30G06G05G23G16
 113511700.984 8  88450682.91446  21600554.953                    21600558.098
        52.100          40.200
 114942472.944 7  89565565.14846  21872828.063                    21872828.910
        46.500          37.100
 106558500.197 8  83032632.20147  20277405.078                    20277410.352
        53.200          46.000
 120457340.692 8  93862905.21745  22922270.867                    22922277.961
        48.000          34.700
 111263310.546 8  86698716.05946  21172707.586                    21172714.176
        50.300          41.700
 124112033.198 7  96710686.85744  23617735.438                    23617739.734
        42.600          27.800
 118998628.181 8  92726222.51745  22644686.672                    22644687.949
        49.300          34.100
 127582847.793 6  99415215.05843  24278206.133                    24278210.332
        36.900          21.300
 18  2 21  8  0 30.0000000  0  8G07G02G09G30G06G05G23G16
 113445578.589 8  88399158.96646  21587972.188                    21587975.582
        52.100          40.700
 114916942.529 7  89545671.31146  21867970.391                    21867970.391
        46.900          37.200
 106591908.156 8  83058664.36147  20283762.445                    20283767.785
        53.200          46.300
 120354583.592 8  93782834.79345  22902717.453                    22902723.723
        49.300          34.900
 111320927.821 8  86743612.63847  21183671.820                    21183678.441
        49.800          42.600
 124014377.186 7  96634591.24944  23599151.523                    23599154.000
        44.100          26.800
 119075698.381 8  92786277.20345  22659352.500                    22659354.449
        49.400          35.000
 127558022.079 6  99395870.34043  24273481.789                    24273486.664
        37.300          21.300
 18  2 21  8  1  0.0000000  0  8G07G02G09G30G06G05G23G16
 113379884.141 8  88347968.49946  21575470.758                    21575474.410
        51.900          40.300
 114891944.877 7  89526192.62046  21863213.047                    21863213.637
        46.900          37.600
 106625690.561 8  83084988.30947  20290190.922                    20290196.785
        53.400          46.100
 120252053.442 8  93702941.18545  22883205.945                    22883212.543
        48.100          34.700
 111379066.261 8  86788915.30647  21194735.570                    21194741.863
        50.500          42.900
 123916828.898 7  96558579.56044  23580589.578                    23580593.457
        44.600          29.100
 119152940.556 8  92846465.88445  22674051.016                    22674052.957
        48.100          34.800
 127533770.157 6  99376972.75543  24268867.289                    24268870.813
        38.400          22.000
 18  2 21  8  1 30.0000000  0  8G07G02G09G30G06G05G23G16
 113314619.501 8  88297112.93546  21563051.508                    21563055.008
        52.400          40.600
 114867480.964 7  89507129.83246  21858557.563                    21858558.109
        46.300          37.100
 106659846.383 8  83111603.22947  20296690.742                    20296696.117
        52.800          46.000
 120149752.828 8  93623226.44545  22863739.109                    22863745.887
        48.200          35.800
 111437724.164 8  86834622.76047  21205897.297                    21205904.074
        50.800          42.000
 123819389.826 7  96482653.08444  23562047.086                    23562052.348
        44.100          28.900
 119230353.645 8  92906787.75945  22688782.609                    22688783.727
        49.100          34.000
 127510093.785 6  99358523.65043  24264361.461                    24264365.391
        38.500          22.500
 18  2 21  8  2  0.0000000  0  8G07G02G09G30G06G05G23G16
 113249786.393 8  88246593.63946  21550714.406                    21550717.188
        51.500          40.300
 114843551.653 7  89488483.61746  21854004.039                    21854004.473
        45.900          36.700
 106694374.106 8  83138507.93547  20303261.211                    20303266.809
        52.300          46.700
 120047684.006 8  93543692.32945  22844315.867                    22844322.871
        48.900          35.600
 111496899.275 8  86880733.23446  21217157.875                    21217164.504
        48.800          41.800
 123722061.933 7  96406813.16044  23543526.938                    23543529.059
        45.400          28.100
 119307936.377 8  92967241.82845  22703546.289                    22703547.977
        48.900          34.000
 127486993.594 6  99340523.51543  24259965.734                    24259970.625
        38.900          22.500
 18  2 21  8  2 30.0000000  0  8G07G02G09G30G06G05G23G16
 113185386.511 8  88196411.91046  21538459.328                    21538462.648
        51.300          40.000
 114820158.199 7  89470254.95446  21849552.117                    21849553.270
        46.000          37.100
 106729272.913 8  83165701.79947  20309902.352                    20309907.504
        52.200          46.200
 119945849.839 8  93464341.08146  22824937.344                    22824944.453
        48.800          36.200
 111556590.064 8  86927245.53346  21228516.922                    21228523.391
        49.900          41.800
 123624845.812 7  96331060.27744  23525027.125                    23525029.648
        44.300          29.600
 119385687.905 8  93027827.40645  22718341.742                    22718343.754
        49.600          34.800
 127464471.592 6  99322973.90043  24255680.766                    24255683.859
        38.800          23.000
 18  2 21  8  3  0.0000000  0  8G07G02G09G30G06G05G23G16
 113121421.473 8  88146569.02546  21526287.313                    21526290.293
        52.200          39.900
 114797301.404 7  89452444.46646  21845202.820                    21845203.715
        47.900          37.600
 106764541.236 8  83193183.60547  20316613.438                    20316619.145
        53.500          46.500
 119844252.502 8  93385174.35646  22805604.211                    22805611.152
        48.600          36.300
 111616794.248 8  86974157.86746  21239973.547                    21239980.082
        50.300          41.800
 123527743.776 7  96255396.38344  23506548.609                    23506553.582
        44.700          29.900
 119463606.483 8  93088543.16545  22733169.148                    22733170.840
        48.800          34.600
 127442528.792 6  99305875.63843  24251504.883                    24251508.699
        40.000          22.600
 18  2 21  8  3 30.0000000  0  8G07G02G09G30G06G05G23G16
 113057893.342 8  88097066.58446  21514198.141                    21514201.273
        51.500          39.900
 114774982.279 7  89435052.93546  21840955.359                    21840956.500
        45.500          37.400
 106800178.085 8  83220952.58147  20323395.078                    20323400.191
        52.300          45.900
 119742894.716 7  93306194.30446  22786316.367                    22786323.453
        47.300          36.600
 111677510.113 8  87021468.91647  21251527.406                    21251534.043
        50.100          42.400
 123430757.280 7  96179822.50245  23488093.406                    23488097.016
        45.500          31.000
 119541691.277 8  93149388.45045  22748027.898                    22748029.699
        49.300          34.000
 127421166.984 6  99289230.06843  24247440.172                    24247443.758
        39.400          22.200
 18  2 21  8  4  0.0000000  0  8G07G02G09G30G06G05G23G16
 112994804.052 8  88047906.08846  21502192.555                    21502195.871
        51.000          39.900
 114753201.921 7  89418081.22846  21836810.750                    21836811.855
        47.000          37.700
 106836182.421 8  83249007.89947  20330246.406                    20330251.820
        53.200          46.100
 119641779.160 8  93227402.99946  22767074.984                    22767081.676
        48.400          36.800
 111738735.807 8  87069177.25247  21263177.992                    21263184.703
        49.800          42.200
 123333887.035 7  96104339.19845  23469659.305                    23469662.750
        46.200          30.000
 119619941.387 7  93210362.52345  22762918.711                    22762920.547
        47.500          33.900
 127400387.421 6  99273038.22043  24243485.461                    24243489.121
        40.400          22.600
 18  2 21  8  4 30.0000000  0  8G07G02G09G30G06G05G23G16
 112932155.313 8  87999088.89646  21490271.094                    21490274.352
        51.200          40.000
 114731961.065 7  89401529.90946  21832768.984                    21832769.766
        46.200          37.400
 106872553.084 8  83277348.66847  20337167.438                    20337172.559
        53.800          45.800
 119540908.368 8  93148802.42045  22747879.594                    22747886.605
        48.900          35.800
 111800469.420 8  87117281.35246  21274925.633                    21274932.371
        51.200          41.700
 123237135.170 7  96028948.14245  23451248.266                    23451251.887
        46.900          30.900
 119698355.628 7  93271464.51345  22777840.227                    22777842.242
        47.500          33.400
 127380191.307 6  99257300.96843  24239642.891                    24239645.613
        38.100          20.100
 18  2 21  8  5  0.0000000  0  8G07G02G09G30G06G05G23G16
 112869948.331 8  87950615.92846  21478433.180                    21478436.754
        50.700          39.500
 114711260.082 7  89385399.26446  21828829.445                    21828830.535
        46.600          37.400
 106909288.576 8  83305973.71847  20344158.195                    20344163.281
        53.400          45.900
 119440284.574 8  93070394.31146  22728731.094                    22728738.422
        49.200          36.700
 111862708.663 8  87165779.44346  21286769.453                    21286775.871
        50.200          41.800
 123140503.736 7  95953650.91944  23432859.281                    23432862.758
        45.600          28.900
 119776932.401 7  93332693.14945  22792792.969                    22792794.457
        47.200          33.900
 127360579.723 6  99242019.20443  24235910.164                    24235914.215
        37.500          20.600
 18  2 21  8  5 30.0000000  0  8G07G02G09G30G06G05G23G16
 112808185.031 8  87902488.67846  21466679.836                    21466683.469
        51.100          40.300
 114691100.488 7  89369690.48146  21824993.563                    21824994.453
        46.200          37.800
 106946387.773 8  83334882.17647  20351218.070                    20351223.191
        52.600          46.000
 119339910.363 7  92992180.66846  22709630.656                    22709637.355
        47.900          36.200
 111925451.592 8  87214670.02746  21298708.977                    21298715.695
        50.700          41.800
 123043994.546 8  95878448.95945  23414494.813                    23414498.414
        48.000          32.400
 119855670.655 7  93394047.61445  22807776.102                    22807778.172
        47.200          34.200
 127341554.091 6  99227194.07043  24232289.539                    24232292.801
        37.600          19.000
 18  2 21  8  6  0.0000000  0  8G07G02G09G30G06G05G23G16
 112746867.297 8  87854708.62646  21455011.344                    21455014.992
        50.800          39.500
 114671483.125 7  89354404.22346  21821260.453                    21821261.230
        45.800          36.600
 106983849.613 8  83364073.20647  20358346.547                    20358351.555
        52.900          45.700
 119239788.360 8  92914163.56946  22690578.211                    22690584.805
        48.400          36.000
 111988696.303 8  87263951.60446  21310744.734                    21310750.512
        50.000          41.700
 122947608.631 7  95803343.06845  23396152.961                    23396157.133
        45.600          31.600
 119934569.408 7  93455527.13445  22822790.492                    22822792.402
        47.500          33.800
 127323115.745 6  99212826.52243  24228781.281                    24228783.387
        39.500          20.400
 18  2 21  8  6 30.0000000  0  8G07G02G09G30G06G05G23G16
 112685996.636 8  87807276.94546  21443428.188                    21443431.805
        51.600          39.900
 114652408.593 7  89339540.94446  21817630.445                    21817631.480
        46.300          37.700
 107021672.908 8  83393545.89447  20365544.125                    20365548.992
        53.400          46.000
 119139921.111 7  92836344.96045  22671574.297                    22671580.523
        47.500          35.500
 112052440.819 8  87313622.64046  21322874.297                    21322880.602
        50.600          41.800
 122851347.097 7  95728334.09444  23377834.445                    23377838.703
        44.100          29.800
 120013627.679 8  93517130.97745  22837834.820                    22837836.605
        48.000          32.700
 127305265.905 6  99198917.51543  24225384.586                    24225387.598
        40.900          20.900
 18  2 21  8  7  0.0000000  0  8G07G02G09G30G06G05G23G16
 112625574.808 8  87760195.00546  21431930.445                    21431933.914
        50.900          39.800
 114633878.146 7  89325101.62446  21814104.172                    21814105.254
        47.400          37.100
 107059856.426 8  83423299.27847  20372810.109                    20372815.258
        53.400          45.600
 119040311.090 8  92758726.80045  22652618.719                    22652625.348
        48.200          35.800
 112116683.029 8  87363681.49747  21335099.219                    21335105.652
        49.900          42.100
 122755211.994 8  95653423.61445  23359541.102                    23359545.066
        48.300          32.100
 120092844.182 7  93578858.11545  22852908.875                    22852911.418
        47.000          33.400
 127288005.661 6  99185467.94443  24222100.633                    24222103.328
        39.700          21.500
 18  2 21  8  7 30.0000000  0  8G07G02G09G30G06G05G23G16
 112565603.453 8  87713464.07946  21420518.016                    21420521.617
        50.800          39.400
 114615891.795 7  89311086.28646  21810681.891                    21810682.637
        46.700          38.000
 107098398.948 8  83453332.41247  20380144.602                    20380149.820
        52.700          45.900
 118940960.736 8  92681310.96746  22633713.438                    22633719.754
        48.500          36.400
 112181420.878 8  87414126.57146  21347418.320                    21347424.723
        49.500          41.300
 122659205.021 7  95578613.01545  23341271.102                    23341275.570
        46.700          31.600
 120172217.783 7  93640707.64545  22868013.156                    22868015.688
        46.900          33.500
 127271336.189 6  99172478.74643  24218928.359                    24218930.984
        40.600          21.800
 18  2 21  8  8  0.0000000  0  8G07G02G09G30G06G05G23G16
 112506084.149 8  87667085.40046  21409192.367                    21409195.867
        51.000          40.300
 114598451.014 7  89297496.05646  21807362.766                    21807363.832
        46.200          37.600
 107137299.180 8  83483644.27747  20387546.930                    20387552.180
        53.500          46.100
 118841872.537 7  92604099.40245  22614857.508                    22614863.246
        46.600          35.900
 112246652.134 8  87464956.09346  21359831.555                    21359838.145
        49.300          41.300
 122563327.935 7  95503903.60445  23323026.875                    23323030.230
        45.800          31.800
 120251747.161 7  93702678.57445  22883147.055                    22883149.453
        46.300          33.300
 127255258.751 6  99159950.89543  24215868.422                    24215871.977
        41.000          22.300
 18  2 21  8  8 30.0000000  0  8G07G02G09G30G06G05G23G16
 112447018.568 8  87621060.28646  21397952.078                    21397956.273
        51.000          40.000
 114581556.136 7  89284331.20746  21804147.383                    21804148.926
        47.200          37.300
 107176555.902 8  83514233.92447  20395017.461                    20395022.105
        53.200          45.900
 118743048.860 7  92527093.95946  22596052.125                    22596058.047
        47.400          36.400
 112312374.684 8  87516168.45046  21372337.992                    21372344.152
        49.700          41.500
 122467582.185 7  95429296.54445  23304806.773                    23304810.902
        45.300          31.000
 120331431.321 7  93764770.10045  22898310.703                    22898313.414
        46.000          33.500
 127239773.980 6  99147884.81443  24212922.117                    24212926.023
        41.100          21.800
 18  2 21  8  9  0.0000000  0  8G07G02G09G30G06G05G23G16
 112388408.007 8  87575389.73046  21386798.875                    21386803.016
        51.500          40.400
 114565207.849 8  89271592.27546  21801036.313                    21801038.098
        48.900          37.300
 107216167.770 8  83545100.30147  20402555.227                    20402560.199
        53.600          45.500
 118644492.095 8  92450296.50146  22577297.539                    22577303.512
        48.500          36.300
 112378586.281 8  87567761.86146  21384937.750                    21384944.012
        49.800          41.300
 122371969.448 7  95354793.10445  23286612.336                    23286615.996
        47.600          30.900
 120411269.018 7  93826981.27345  22913503.172                    22913505.414
        46.700          32.800
 127224883.227 6  99136281.63243  24210088.344                    24210091.746
        40.400          21.300
 18  2 21  8  9 30.0000000  0  8G07G02G09G30G06G05G23G16
 112330254.515 8  87530075.33046  21375732.648                    21375736.660
        51.600          40.400
 114549407.303 7  89259280.15446  21798030.367                    21798031.285
        47.500          37.700
 107256133.984 8  83576242.80047  20410160.570                    20410165.320
        53.700          45.600
 118546205.262 8  92373709.38646  22558593.633                    22558600.453
        48.000          36.800
 112445285.240 8  87619735.03046  21397630.320                    21397636.586
        51.000          41.600
 122276491.166 7  95280394.46545  23268443.648                    23268447.375
        46.600          32.200
 120491259.630 7  93889311.59645  22928724.961                    22928727.176
        46.300          33.200
 127210587.798 6  99125142.36243  24207368.000                    24207371.711
        38.900          21.500
 18  2 21  8 10  0.0000000  0  8G07G02G09G30G06G05G23G16
 112272559.544 8  87485118.20946  21364753.680                    21364757.648
        52.300          40.900
 114534154.884 7  89247395.14646  21795127.414                    21795128.719
        47.100          37.300
 107296453.136 8  83607660.32047  20417832.859                    20417837.902
        53.700          45.600
 118448190.529 8  92297334.30746  22539942.227                    22539948.828
        48.100          37.100
 112512469.192 8  87672086.12246  21410414.969                    21410421.184
        49.100          40.600
 122181148.980 7  95206101.89045  23250300.031                    23250304.230
        46.900          32.000
 120571401.477 7  93951759.77445  22943975.383                    22943977.977
        45.700          32.700
 127196888.644 6  99114467.73843  24204760.773                    24204764.563
        39.700          21.500
 18  2 21  8 10 30.0000000  0  8G07G02G09G30G06G05G23G16
 112215324.403 8  87440519.40346  21353862.328                    21353866.430
        51.900          40.800
 114519451.220 7  89235937.74446  21792329.742                    21792330.953
        47.600          37.400
 107337123.942 8  83639351.85547  20425572.609                    20425577.910
        53.500          45.800
 118350450.333 8  92221173.14446  22521342.695                    22521349.930
        48.100          37.600
 112580135.889 8  87724813.36946  21423291.766                    21423297.723
        49.700          40.500
 122085944.561 7  95131916.63845  23232183.625                    23232187.922
        47.400          31.900
 120651693.733 7  94014325.13645  22959255.008                    22959256.777
        47.000          31.600
 127183786.782 6  99104258.52543  24202267.422                    24202271.609
        39.000          21.300
 18  2 21  8 11  0.0000000  0  8G07G02G09G30G06G05G23G16
 112158550.898 8  87396280.31846  21343058.813                    21343062.410
        52.000          41.500
 114505297.262 7  89224908.67446  21789636.008                    21789637.512
        47.300          37.300
 107378145.342 8  83671316.57747  20433378.570                    20433383.793
        53.500          46.000
 118252987.330 7  92145227.99046  22502795.898                    22502802.840
        46.300          37.500
 112648283.378 8  87777915.26146  21436259.508                    21436265.523
        49.200          40.900
 121990880.101 7  95057840.44945  23214093.570                    23214097.164
        45.800          31.100
 120732135.484 7  94077007.00745  22974562.023                    22974564.484
        45.800          32.400
 127171282.867 6  99094515.22543  24199887.992                    24199892.316
        39.200          21.300
 18  2 21  8 11 30.0000000  0  8G07G02G09G30G06G05G23G16
 112102240.356 8  87352401.98546  21332343.266                    21332347.379
        52.300          41.300
 114491693.226 8  89214308.11946  21787047.352                    21787048.848
        48.900          37.900
 107419515.871 8  83703553.34547  20441251.070                    20441256.371
        53.800          45.900
 118155803.656 7  92069500.48246  22484302.203                    22484309.551
        47.600          37.300
 112716909.111 8  87831389.80946  21449318.648                    21449324.844
        49.300          40.700
 121895956.887 7  94983874.33145  23196029.852                    23196034.199
        47.100          32.700
 120812725.211 7  94139804.17145  22989898.031                    22989900.406
        46.100          32.800
 127159377.933 6  99085238.64543  24197622.938                    24197627.035
        41.100          21.700
 18  2 21  8 12  0.0000000  0  8G07G02G09G30G06G05G23G16
 112046394.311 8  87308885.59147  21321716.484                    21321719.930
        52.800          42.000
 114478639.646 8  89204136.49046  21784563.023                    21784564.871
        48.300          37.400
 107461234.365 9  83736061.26047  20449189.844                    20449194.934
        54.300          45.700
 118058901.882 7  91993992.64146  22465862.328                    22465869.656
        47.600          36.400
 112786011.005 8  87885235.40346  21462468.391                    21462474.777
        49.200          40.700
 121801176.203 8  94910019.27645  23177993.945                    23177998.113
        48.000          33.200
 120893462.211 7  94202716.08945  23005261.977                    23005263.707
        45.800          32.400
 127148072.949 6  99076429.57443  24195471.953                    24195475.215
        41.200          21.800
 18  2 21  8 12 30.0000000  0  8G07G02G09G30G06G05G23G16
 111991014.267 8  87265732.32647  21311177.852                    21311181.273
        53.500          42.300
 114466137.021 7  89194394.17746  21782184.383                    21782185.609
        47.500          37.000
 107503299.446 8  83768839.24147  20457194.500                    20457199.988
        51.500          45.900
 117962284.358 7  91918706.28446  22447476.656                    22447483.551
        47.900          36.800
 112855586.688 7  87939450.18246  21475708.180                    21475714.555
        47.500          40.900
 121706540.223 7  94836276.94745  23159985.445                    23159989.250
        47.400          33.000
 120974344.967 7  94265741.60045  23020652.930                    23020655.020
        44.800          32.200
 127137368.554 7  99068088.50843  24193435.203                    24193437.539
        42.500          20.900
 18  2 21  8 13  0.0000000  0  8G07G02G09G30G06G05G23G16
 111936101.617 8  87222943.26047  21300728.203                    21300731.992
        53.400          42.200
 114454186.622 7  89185082.15946  21779910.094                    21779911.570
        47.800          37.400
 107545710.365 9  83801886.71147  20465265.234                    20465270.000
        54.500          45.800
 117865953.917 7  91843643.63346  22429145.641                    22429152.566
        47.700          36.900
 112925634.440 8  87994032.84346  21489037.641                    21489044.688
        50.000          40.600
 121612050.642 7  94762648.72145  23142004.336                    23142008.594
        46.000          32.500
 121055372.837 7  94328880.16545  23036072.453                    23036074.219
        45.100          32.600
 127127266.123 6  99060216.45143  24191512.813                    24191515.227
        41.400          22.200
 18  2 21  8 13 30.0000000  0  8G07G02G09G30G06G05G23G16
 111881658.264 8  87180519.87547  21290367.961                    21290371.492
        53.600          42.100
 114442788.435 8  89176200.44546  21777741.625                    21777742.316
        48.000          37.600
 107588465.633 8  83835202.49847  20473401.188                    20473406.461
        53.700          45.800
 117769912.801 7  91768806.43246  22410870.008                    22410876.805
        47.300          37.100
 112996151.587 8  88048981.24346  21502456.930                    21502463.676
        48.000          40.500
 121517707.763 7  94689134.79745  23124051.688                    23124055.988
        47.000          33.300
 121136544.535 7  94392130.83345  23051518.672                    23051520.832
        45.400          31.900
 127117766.607 7  99052814.24343  24189705.445                    24189707.059
        42.500          22.000
 18  2 21  8 14  0.0000000  0  8G07G02G09G30G06G05G23G16
 111827685.186 8  87138462.93847  21280097.102                    21280100.332
        53.300          42.500
 114431942.919 7  89167749.39446  21775677.148                    21775678.648
        47.000          37.900
 107631563.860 8  83868785.52747  20481602.234                    20481607.566
        53.700          46.000
 117674163.268 8  91694196.42146  22392649.094                    22392655.871
        49.500          36.800
 113067135.777 8  88104293.59046  21515964.539                    21515971.160
        48.600          39.900
 121423514.901 8  94615737.77945  23106127.953                    23106131.176
        48.400          32.600
 121217858.920 7  94455492.67245  23066992.609                    23066994.332
        45.400          31.900
 127108870.241 6  99045882.00143  24188013.414                    24188012.820
        41.200          20.900
 18  2 21  8 14 30.0000000  0  8G07G02G09G30G06G05G23G16
 111774183.927 9  87096773.64947  21269916.234                    21269919.492
        54.100          42.600
 114421651.048 8  89159729.74146  21773718.898                    21773720.539
        48.400          37.800
 107675004.034 8  83902635.00047  20489868.906                    20489874.133
        53.800          46.100
 117578707.975 8  91619815.69146  22374484.672                    22374491.250
        48.400          37.400
 113138584.917 8  88159968.23346  21529560.969                    21529567.668
        49.200          39.800
 121329474.043 7  94542459.19345  23088232.094                    23088236.004
        47.000          32.100
 121299314.932 7  94518964.85945  23082493.039                    23082495.602
        44.300          32.100
 127100578.075 7  99039420.54643  24186434.453                    24186435.445
        42.100          22.500
 18  2 21  8 15  0.0000000  0  8G07G02G09G30G06G05G23G16
 111721155.639 8  87055452.91547  21259825.383                    21259828.797
        53.700          43.000
 114411912.745 7  89152141.44446  21771865.758                    21771866.496
        47.200          38.100
 107718784.693 9  83936749.79647  20498200.258                    20498205.215
        54.300          46.000
 117483549.072 8  91545665.91946  22356376.961                    22356383.203
        48.200          37.100
 113210496.396 8  88216003.11546  21543245.367                    21543251.887
        50.000          40.200
 121235586.196 7  94469299.83945  23070365.695                    23070369.320
        46.600          33.100
 121380911.291 7  94582546.42045  23098020.508                    23098022.430
        45.900          31.800
 127092890.830 6  99033430.44543  24184972.273                    24184973.500
        41.100          21.800
 18  2 21  8 15 30.0000000  0  8G07G02G09G30G06G05G23G16
 111668602.204 9  87014502.19647  21249824.578                    21249828.324
        54.000          42.300
 114402728.955 7  89144985.22946  21770118.477                    21770119.195
        47.200          37.300
 107762904.887 8  83971129.16447  20506595.867                    20506601.203
        53.000          46.000
 117388689.316 8  91471749.22846  22338325.547                    22338332.066
        48.600          36.900
 113282868.226 7  88272396.70146  21557017.305                    21557023.633
        47.700          40.200
 121141853.201 8  94396261.15845  23052528.953                    23052532.703
        48.300          33.000
 121462647.451 7  94646236.90745  23113574.594                    23113576.379
        45.500          31.700
 127085809.062 6  99027912.15643  24183624.063                    24183624.969
        39.500          20.400
 18  2 21  8 16  0.0000000  0  8G07G02G09G30G06G05G23G16
 111616525.260 8  86973922.76247  21239914.891                    21239918.145
        53.500          42.900
 114394100.204 8  89138261.52646  21768476.477                    21768476.922
        48.100          37.700
 107807363.495 9  84005772.23847  20515056.086                    20515061.098
        54.100          45.800
 117294131.244 8  91398067.62446  22320332.070                    22320337.910
        49.100          38.100
 113355698.222 8  88329147.30346  21570876.250                    21570882.762
        49.100          40.300
 121048275.980 7  94323343.86045  23034721.836                    23034725.250
        47.900          32.900
 121544522.479 7  94710035.60945  23129154.523                    23129156.281
        46.600          31.600
 127079333.783 6  99022866.45943  24182392.148                    24182393.246
        39.500          21.500
 18  2 21  8 16 30.0000000  0  8G07G02G09G30G06G05G23G16
 111564925.535 9  86933715.17547  21230095.938                    21230099.359
        54.300          42.900
 114386026.524 7  89131970.34146  21766939.891                    21766941.090
        47.900          38.100
 107852159.071 8  84040677.87147  20523580.391                    20523585.609
        52.200          45.400
 117199877.054 8  91324622.81946  22302395.945                    22302402.207
        49.000          37.700
 113428983.808 7  88386252.89846  21584822.156                    21584828.953
        47.200          40.500
 120954856.932 7  94250549.82145  23016944.531                    23016947.625
        47.400          32.500
 121626534.845 7  94773941.32245  23144761.438                    23144762.996
        45.700          30.900
 127073465.558 6  99018293.81043  24181274.898                    24181278.008
        37.900          21.100
 18  2 21  8 17  0.0000000  0  8G07G02G09G30G06G05G23G16
 111513804.599 9  86893880.68146  21220367.734                    21220370.852
        54.100          41.900
 114378508.471 7  89126112.11446  21765509.547                    21765510.340
        47.800          38.800
 107897290.385 8  84075845.12347  20532168.391                    20532173.477
        53.100          45.900
 117105929.120 8  91251416.66046  22284517.961                    22284524.488
        48.800          37.900
 113502722.601 8  88443711.61646  21598854.313                    21598860.676
        48.600          40.600
 120861597.922 7  94177880.47345  22999197.773                    22999201.320
        46.400          33.500
 121708683.473 7  94837953.20845  23160393.555                    23160395.750
        46.000          31.600
 127068204.940 6  99014194.64143  24180272.914                    24180276.203
        36.900          18.600
 18  2 21  8 17 30.0000000  0  8G07G02G09G30G06G05G23G16
 111463163.854 8  86854420.36646  21210731.258                    21210734.703
        53.400          41.800
 114371546.078 7  89120686.85946  21764184.820                    21764185.660
        47.900          38.700
 107942756.224 8  84111273.04347  20540820.398                    20540825.738
        53.300          45.300
 117012289.855 8  91178451.02446  22266698.992                    22266705.297
        48.300          38.200
 113576912.373 7  88501521.79746  21612972.281                    21612978.883
        47.200          40.600
 120768501.131 7  94105337.50845  22981482.359                    22981485.520
        46.000          32.600
 121790967.305 7  94902070.45445  23176051.703                    23176053.535
        46.500          31.200
 127063552.791 6  99010569.61643  24179388.086                    24179390.785
        39.400          19.600
 18  2 21  8 18  0.0000000  0  8G07G02G09G30G06G05G23G16
 111413004.574 8  86815335.22346  21201186.086                    21201189.324
        53.100          41.400
 114365140.011 7  89115695.11346  21762965.758                    21762966.445
        47.200          39.200
 107988555.395 8  84146960.70947  20549535.617                    20549540.926
        53.800          45.300
 116918961.756 8  91105727.86846  22248939.234                    22248945.266
        48.500          37.900
 113651550.573 8  88559681.38346  21627175.539                    21627181.973
        48.600          40.200
 120675567.209 7  94032921.48445  22963797.445                    22963801.711
        46.300          32.700
 121873385.557 7  94966292.46145  23191735.258                    23191736.652
        46.400          31.000
 127059509.605 6  99007419.08343  24178618.180                    24178622.535
        39.100          21.500
 18  2 21  8 18 30.0000000  0  8G07G02G09G30G06G05G23G16
 111363327.812 8  86776626.06346  21191732.922                    21191736.449
        53.400          41.400
 114359290.505 7  89111137.04746  21761852.320                    21761853.461
        47.200          38.500
 108034686.380 8  84182906.92447  20558314.203                    20558319.289
        53.700          45.100
 116825946.853 8  91033248.74346  22231239.086                    22231245.875
        49.100          38.700
 113726634.670 8  88618188.38246  21641463.305                    21641470.434
        49.500          40.500
 120582798.688 7  93960634.35345  22946144.109                    22946147.672
        47.000          33.700
 121955937.038 7  95030618.26545  23207444.242                    23207446.039
        46.500          31.000
 127056075.638 6  99004743.25043  24177964.914                    24177969.238
        37.900          19.600
 18  2 21  8 19  0.0000000  0  8G07G02G09G30G06G05G23G16
 111314135.370 8  86738294.29846  21182371.758                    21182375.113
        52.100          41.000
 114353998.103 7  89107013.10546  21760845.273                    21760846.203
        47.200          39.000
 108081148.394 8  84219111.08347  20567155.633                    20567160.652
        53.700          45.500
 116733247.979 8  90961015.88846  22213598.852                    22213605.723
        48.800          38.900
 113802162.644 8  88677041.28746  21655836.055                    21655842.789
        49.300          39.900
 120490197.054 7  93888477.22745  22928522.430                    22928525.875
        46.300          32.700
 122038620.951 7  95095047.26445  23223178.398                    23223180.008
        45.700          30.000
 127053251.891 6  99002542.95243  24177427.492                    24177431.602
        36.000          19.900
 18  2 21  8 19 30.0000000  0  8G07G02G09G30G06G05G23G16
 111265428.237 8  86700340.69046  21173103.250                    21173106.484
        52.800          41.100
 114349262.825 7  89103323.26746  21759944.438                    21759945.141
        47.600          38.100
 108127939.858 8  84255571.95647  20576059.688                    20576065.148
        53.700          45.300
 116640867.244 8  90889030.93446  22196019.414                    22196026.270
        49.500          38.700
 113878131.783 8  88736237.97246  21670292.563                    21670299.238
        49.100          40.800
 120397764.065 7  93816451.54245  22910933.242                    22910937.008
        45.400          34.000
 122121436.131 7  95159578.55445  23238938.156                    23238939.586
        46.300          30.500
 127051038.647 6  99000818.33343  24177006.141                    24177010.289
        38.600          20.400
 18  2 21  8 20  0.0000000  0  8G07G02G09G30G06G05G23G16
 111217207.707 8  86662766.25946  21163927.078                    21163930.770
        52.100          40.300
 114345084.999 7  89100067.81746  21759149.266                    21759150.074
        47.000          38.900
 108175059.660 9  84292288.67547  20585026.273                    20585031.613
        54.100          45.900
 116548807.141 8  90817295.81246  22178500.727                    22178507.203
        48.800          39.300
 113954539.787 8  88795776.61746  21684832.836                    21684839.871
        50.200          40.600
 120305501.505 7  93744558.66045  22893376.266                    22893380.543
        45.800          32.800
 122204381.684 7  95224211.42745  23254721.797                    23254723.262
        46.900          30.200
 127049436.494 6  98999569.84843  24176701.219                    24176706.332
        40.600          22.000
 18  2 21  8 20 30.0000000  0  8G07G02G09G30G06G05G23G16
 111169475.099 8  86625572.02446  21154844.180                    21154847.434
        51.800          40.900
 114341464.878 8  89097246.93546  21758460.547                    21758460.988
        48.500          38.700
 108222506.577 9  84329260.29247  20594055.313                    20594060.246
        54.100          45.600
 116457069.936 8  90745812.30446  22161043.906                    22161050.727
        48.400          39.400
 114031384.116 8  88855655.26046  21699455.820                    21699462.223
        49.600          40.200
 120213411.149 7  93672799.95145  22875851.867                    22875856.027
        47.000          34.300
 122287456.341 7  95288944.88845  23270530.633                    23270532.512
        45.900          30.600
 127048445.569 6  98998797.72443  24176513.461                    24176516.855
        39.200          20.400
 18  2 21  8 21  0.0000000  0  8G07G02G09G30G06G05G23G16
 111122231.497 8  86588758.83946  21145853.633                    21145857.398
        51.400          40.400
 114338402.716 7  89094860.83446  21757877.992                    21757878.363
        47.800          38.800
 108270279.510 8  84366485.94947  20603145.914                    20603151.723
        53.400          45.600
 116365658.170 8  90674582.38146  22143649.180                    22143655.367
        48.300          38.500
 114108662.489 8  88915872.13646  21714161.133                    21714167.977
        49.300          40.300
 120121494.784 7  93601176.79845  22858361.484                    22858365.082
        45.700          33.100
 122370659.159 7  95353778.22945  23286362.969                    23286365.328
        46.700          31.100
 127048066.832 6  98998502.62443  24176441.133                    24176444.730
        38.000          20.400
 18  2 21  8 21 30.0000000  0  8G07G02G09G30G06G05G23G16
 111075478.229 8  86552327.72546  21136956.594                    21136960.320
        51.300          40.000
 114335898.416 8  89092909.42346  21757401.250                    21757401.969
        48.600          38.800
 108318377.009 9  84403964.50447  20612298.883                    20612304.508
        54.300          45.700
 116274573.987 8  90603607.71146  22126316.094                    22126322.703
        49.100          39.300
 114186372.225 8  88976425.12046  21728949.078                    21728955.719
        49.200          40.700
 120029753.699 7  93529690.27345  22840903.070                    22840906.953
        47.300          33.800
 122453989.234 7  95418710.74145  23302220.563                    23302222.195
        46.200          30.200
 127048300.404 6  98998684.55343  24176485.359                    24176490.254
        38.000          21.700
 18  2 21  8 22  0.0000000  0  8G07G02G09G30G06G05G23G16
 111029216.501 8  86516279.64146  21128152.977                    21128156.813
        52.300          41.200
 114333952.600 8  89091393.19846  21757030.758                    21757031.652
        48.800          38.700
 108366798.013 8  84441695.14747  20621512.727                    20621518.559
        53.800          46.100
 116183819.910 8  90532890.27746  22109046.406                    22109053.078
        49.500          38.800
 114264510.868 8  89037312.33246  21743818.258                    21743825.098
        48.600          40.100
 119938190.863 7  93458342.60945  22823479.469                    22823483.051
        47.500          34.300
 122537445.480 7  95483741.55845  23318102.531                    23318104.215
        47.500          31.900
 127049146.826 6  98999344.10143  24176646.313                    24176650.520
        38.900          21.500
 18  2 21  8 22 30.0000000  0  8G07G02G09G30G06G05G23G16
 110983448.128 8  86480615.95046  21119443.648                    21119447.633
        50.600          40.800
 114332565.991 8  89090312.71846  21756767.203                    21756768.137
        49.000          39.400
 108415541.814 8  84479677.32947  20630788.469                    20630794.438
        53.400          45.900
 116093398.819 8  90462432.32546  22091839.641                    22091846.227
        50.100          39.400
 114343076.778 8  89098532.51046  21758768.695                    21758775.332
        50.200          39.500
 119846807.676 7  93387134.94245  22806089.586                    22806093.223
        47.300          34.000
 122621027.761 7  95548870.56245  23334006.883                    23334009.086
        46.800          30.700
 127050606.891 6  99000481.80143  24176924.461                    24176927.637
        39.100          22.200
 18  2 21  8 23  0.0000000  0  8G07G02G09G30G06G05G23G16
 110938173.308 8  86445336.88346  21110828.148                    21110831.953
        51.800          40.200
 114331738.029 8  89089667.54146  21756609.641                    21756610.254
        49.000          39.200
 108464606.626 8  84517909.63847  20640125.008                    20640130.746
        53.200          45.600
 116003312.426 8  90392235.15046  22074696.750                    22074703.188
        49.600          40.200
 114422066.706 8  89160083.08846  21773800.438                    21773806.633
        48.300          38.800
 119755605.446 7  93316068.27945  22788734.641                    22788738.316
        47.600          34.200
 122704734.075 7  95614096.25144  23349935.664                    23349937.289
        46.200          29.900
 127052680.261 6  99002097.41443  24177318.133                    24177323.215
        38.600          22.600
 18  2 21  8 23 30.0000000  0  8G07G02G09G30G06G05G23G16
 110893393.283 8  86410443.36446  21102307.000                    21102310.629
        51.000          40.000
 114331468.332 7  89089457.38246  21756558.125                    21756559.078
        47.900          38.900
 108513990.882 8  84556390.86647  20649522.750                    20649528.902
        53.500          45.700
 115913562.810 8  90322300.41446  22057618.047                    22057624.629
        48.800          40.200
 114501477.814 8  89221961.86646  21788911.445                    21788917.844
        48.400          39.600
 119664586.139 7  93245144.15545  22771414.156                    22771417.383
        45.400          33.600
 122788563.218 7  95679417.63145  23365888.219                    23365890.574
        46.800          31.500
 127055367.027 6  99004190.98843  24177830.188                    24177834.871
        37.300          21.800
 18  2 21  8 24  0.0000000  0  8G07G02G09G30G06G05G23G16
 110849109.415 8  86375936.46446  21093880.320                    21093883.914
        51.100          40.400
 114331757.310 8  89089682.55446  21756613.156                    21756614.586
        49.200          38.400
 108563693.492 8  84595120.16047  20658980.750                    20658986.262
        52.800          45.700
 115824152.309 8  90252629.91546  22040604.328                    22040609.578
        50.800          39.600
 114581307.675 8  89284166.96446  21804103.102                    21804109.363
        48.300          39.000
 119573751.837 8  93174364.17645  22754128.961                    22754132.637
        48.100          34.300
 122872514.444 7  95744834.12144  23381862.867                    23381865.043
        43.800          29.100
 127058667.724 6  99006762.94843  24178458.094                    24178461.793
        39.200          21.500
 18  2 21  8 24 30.0000000  0  8G07G02G09G30G06G05G23G16
 110805322.412 8  86341816.72846  21085547.797                    21085551.559
        50.400          41.200
 114332605.284 7  89090343.30346  21756774.063                    21756775.590
        47.600          38.700
 108613713.352 8  84634096.67447  20668498.977                    20668504.641
        53.000          45.200
 115735083.489 8  90183225.66546  22023654.750                    22023660.375
        50.700          39.400
 114661553.921 8  89346696.50046  21819373.055                    21819379.465
        48.500          39.400
 119483103.762 7  93103729.31845  22736879.180                    22736882.590
        46.700          34.200
 122956587.169 7  95810345.33445  23397862.305                    23397862.871
        45.100          30.600
 127062582.970 6  99009813.77043  24179203.313                    24179207.789
        39.200          22.200
 18  2 21  8 25  0.0000000  0  8G07G02G09G30G06G05G23G16
 110762033.377 8  86308085.05146  21077310.055                    21077313.840
        51.000          40.500
 114334011.620 8  89091439.14846  21757041.992                    21757042.852
        49.300          38.300
 108664048.860 8  84673319.14147  20678077.359                    20678082.934
        53.200          45.300
 115646358.208 8  90114089.09846  22006770.617                    22006776.531
        48.200          39.700
 114742213.568 8  89409548.16446  21834721.969                    21834728.504
        49.700          38.900
 119392644.104 7  93033241.30345  22719665.156                    22719669.375
        45.900          35.000
 123040779.578 7  95875949.79244  23413882.898                    23413885.816
        43.900          29.500
 127067111.706 6  99013342.64144  24180065.313                    24180070.055
        40.500          24.300
 18  2 21  8 25 30.0000000  0  8G07G02G09G30G06G05G23G16
 110719244.070 8  86274742.73146  21069167.602                    21069171.277
        50.000          41.200
 114335976.849 7  89092970.48246  21757415.789                    21757417.023
        47.800          38.500
 108714699.374 8  84712787.06347  20687716.156                    20687721.453
        51.900          45.100
 115557979.372 8  90045222.49546  21989952.641                    21989958.633
        50.000          39.200
 114823284.652 8  89472720.40546  21850149.320                    21850156.004
        48.100          39.300
 119302374.623 7  92962901.44945  22702487.609                    22702491.168
        47.800          34.800
 123125091.669 7  95941647.45045  23429927.375                    23429929.648
        45.200          30.500
 127072255.492 6  99017350.76443  24181043.945                    24181048.781
        40.600          22.500
 18  2 21  8 26  0.0000000  0  8G07G02G09G30G06G05G23G16
 110676954.691 8  86241789.97346  21061120.258                    21061123.574
        50.500          41.100
 114338500.641 7  89094937.05946  21757896.281                    21757897.004
        46.500          38.400
 108765663.155 8  84752499.09847  20697414.133                    20697419.844
        51.200          44.800
 115469948.733 8  89976627.20746  21973200.633                    21973207.223
        49.500          39.500
 114904764.083 7  89536210.85246  21865654.438                    21865661.289
        47.500          39.400
 119212296.617 8  92892710.80645  22685346.422                    22685350.406
        48.600          35.000
 123209521.754 7  96007437.14444  23445994.000                    23445994.727
        45.100          29.700
 127078013.887 6  99021837.82643  24182139.875                    24182144.109
        39.200          22.800
 18  2 21  8 26 30.0000000  0  8G07G02G09G30G06G05G23G16
 110635166.492 8  86209227.75646  21053168.047                    21053171.844
        51.100          41.700
 114341583.205 7  89097339.05146  21758482.719                    21758484.246
        47.600          38.300
 108816939.020 8  84792454.30747  20707171.508                    20707177.414
        52.200          45.000
 115382268.604 8  89908305.04246  21956515.984                    21956522.344
        50.000          39.400
 114986649.411 8  89600017.56546  21881236.375                    21881243.172
        48.100          38.900
 119122413.121 7  92822671.72445  22668242.063                    22668245.566
        47.200          35.000
 123294068.997 7  96073318.06945  23462082.977                    23462085.418
        43.200          30.200
 127084386.602 6  99026803.55843  24183352.156                    24183357.133
        39.400          22.500
 18  2 21  8 27  0.0000000  0  8G07G02G09G30G06G05G23G16
 110593881.064 8  86177057.28946  21045311.945                    21045315.398
        50.900          41.600
 114345224.783 7  89100176.63046  21759175.477                    21759176.957
        46.900          37.900
 108868526.190 8  84832652.08347  20716988.656                    20716994.484
        50.200          44.700
 115294941.791 8  89840258.18546  21939897.734                    21939904.488
        48.600          39.500
 115068938.428 7  89664138.85746  21896895.711                    21896902.680
        46.600          38.500
 119032725.402 7  92752785.19245  22651175.141                    22651178.410
        47.600          34.900
 123378732.870 7  96139289.85644  23478194.063                    23478195.895
        46.900          29.700
 127091374.466 6  99032248.61543  24184682.125                    24184686.391
        39.500          21.700
 18  2 21  8 27 30.0000000  0  8G07G02G09G30G06G05G23G16
 110553098.869 8  86145278.94346  21037551.078                    21037554.789
        50.200          41.800
 114349424.976 7  89103449.49346  21759975.063                    21759976.098
        46.400          37.500
 108920423.019 8  84873091.15747  20726864.164                    20726870.242
        50.500          45.100
 115207970.011 8  89772487.97946  21923347.789                    21923354.570
        49.500          40.200
 115151628.066 7  89728572.32046  21912630.805                    21912637.828
        46.800          38.900
 118943234.963 8  92683052.39545  22634145.609                    22634149.902
        49.600          35.700
 123463511.810 7  96205351.40044  23494326.336                    23494327.469
        42.500          27.900
 127098977.063 6  99038172.73643  24186129.289                    24186132.918
        41.100          22.200
 18  2 21  8 28  0.0000000  0  8G07G02G09G30G06G05G23G16
 110512820.988 8  86113893.59747  21029886.430                    21029889.867
        50.100          42.100
 114354183.596 7  89107157.50046  21760880.297                    21760881.563
        46.500          37.600
 108972628.375 8  84913770.64947  20736798.289                    20736804.387
        49.900          45.700
 115121355.746 8  89704996.35446  21906865.633                    21906872.336
        48.600          39.400
 115234715.906 7  89793316.05346  21928442.133                    21928449.027
        46.500          38.700
 118853943.614 8  92613474.74045  22617153.898                    22617157.258
        49.300          34.600
 123548405.063 7  96271501.92945  23510481.570                    23510484.023
        45.500          31.100
 127107194.806 6  99044576.16243  24187693.555                    24187697.066
        41.400          22.300
 18  2 21  8 28 30.0000000  0  8G07G02G09G30G06G05G23G16
 110473048.482 8  86082902.03846  21022318.211                    21022321.297
        50.300          41.800
 114359500.651 7  89111300.64946  21761892.094                    21761893.223
        47.600          37.500
 109025141.097 8  84954689.64247  20746790.984                    20746796.590
        49.700          45.000
 115035101.239 8  89637785.07546  21890451.742                    21890458.520
        50.600          39.800
 115318199.277 7  89858368.02346  21944328.781                    21944335.277
        46.800          38.400
 118764853.733 8  92544054.03745  22600200.672                    22600203.887
        48.500          35.200
 123633412.013 7  96337741.06344  23526657.289                    23526660.055
        42.900          28.300
 127116027.576 6  99051458.80343  24189374.016                    24189377.988
        41.900          23.000
 18  2 21  8 29  0.0000000  0  8G07G02G09G30G06G05G23G16
 110433782.465 8  86052305.14247  21014846.125                    21014849.641
        50.800          42.800
 114365376.122 7  89115878.93046  21763010.133                    21763011.715
        46.700          37.400
 109077959.933 8  84995847.16247  20756842.391                    20756848.227
        49.200          45.000
 114949208.734 8  89570855.87146  21874107.102                    21874113.352
        49.500          39.700
 115402075.590 7  89923726.15446  21960289.711                    21960296.910
        47.200          38.200
 118675967.393 8  92474791.98345  22583286.109                    22583290.523
        49.800          35.400
 123718531.621 7  96404068.01244  23542855.570                    23542856.660
        42.900          28.500
 127125475.429 6  99058820.73043  24191172.734                    24191175.773
        39.400          21.300
 18  2 21  8 29 30.0000000  0  8G07G02G09G30G06G05G23G16
 110395023.401 8  86022103.28647  21007470.672                    21007474.063
        51.200          43.000
 114371809.750 7  89120892.13446  21764234.070                    21764235.895
        47.100          37.500
 109131083.452 8  85037242.09847  20766951.289                    20766957.695
        49.700          44.500
 114863680.267 7  89504210.34546  21857831.703                    21857838.168
        47.600          39.600
 115486342.038 7  89989388.28146  21976324.938                    21976331.297
        46.800          38.600
 118587285.843 7  92405689.48145  22566410.914                    22566413.602
        46.700          35.300
 123803762.604 7  96470481.72745  23559074.133                    23559077.117
        43.500          31.200
 127135538.356 6  99066662.00143  24193086.688                    24193090.191
        41.200          20.900
 18  2 21  8 30  0.0000000  0  8G07G02G09G30G06G05G23G16
 110356772.488 8  85992297.38547  21000191.461                    21000194.828
        51.000          43.600
 114378801.262 7  89126340.05046  21765565.188                    21765566.309
        45.800          37.100
 109184510.714 8  85078873.72447  20777118.258                    20777124.137
        51.200          44.900
 114778518.289 7  89437850.38546  21841625.578                    21841632.160
        47.700          40.400
 115570996.151 7  90055352.49046  21992434.109                    21992441.070
        46.800          38.800
 118498811.572 7  92336748.48645  22549574.305                    22549578.262
        46.200          34.800
 123889104.219 7  96536981.60744  23575314.055                    23575316.672
        42.200          28.200
 127146216.452 6  99074982.57443  24195118.625                    24195121.891
        39.300          20.600
 18  2 21  8 30 30.0000000  0  8G07G02G09G30G06G05G23G16
 110319030.508 8  85962888.06647  20993009.445                    20993013.246
        51.500          43.200
 114386350.576 7  89132222.62146  21767001.703                    21767002.980
        46.300          37.300
