     2.11           OBSERVATION DATA    G (GPS)             RINEX VERSION / TYPE
teqc  2016Nov7                          20180328 12:56:15UTCPGM / RUN BY / DATE
Linux 2.4.21-27.ELsmp|Opteron|gcc|Linux x86_64|=+           COMMENT
teqc  2016Nov7                          20180328 12:56:14UTCCOMMENT
     2.11           OBSERVATION DATA    M (MIXED)           COMMENT
teqc  2016Nov7                          20180328 12:56:13UTCCOMMENT
teqc  2016Nov7      IGN-RGP             20180221 09:20:12UTCCOMMENT
teqc  2015Jun23     IGN-RGP             20180221 09:08:12UTCCOMMENT
Linux2.4.20-8|i386|gcc|Win32-MinGW32|=                      COMMENT
   0.000      (antenna height)                              COMMENT
 +48.65337222 (latitude)                                    COMMENT
  +2.23874669 (longitude)                                   COMMENT
0208.465      (elevation)                                   COMMENT
BIT 2 OF LLI FLAGS DATA COLLECTED UNDER A/S CONDITION       COMMENT
18695M001 (COGO code)                                       COMMENT
SXJ9                                                        MARKER NAME
18695M001                                                   MARKER NUMBER
Automatic           GIE COOP&TECH                           OBSERVER / AGENCY
4951K64806          TRIMBLE NETR5       4.70                REC # / TYPE / VERS
99999               TRM57971.00     NONE                    ANT # / TYPE
  4218365.7150   164910.2500  4765338.1510                  APPROX POSITION XYZ
        1.0800        0.0000        0.0000                  ANTENNA: DELTA H/E/N
     1     1                                                WAVELENGTH FACT L1/2
     7    L1    L2    C1    P1    P2    S1    S2            # / TYPES OF OBSERV
    30.0000                                                 INTERVAL
    18                                                      LEAP SECONDS
 SNR is mapped to RINEX snr flag value [0-9]                COMMENT
  L1 & L2: min(max(int(snr_dBHz/6), 0), 9)                  COMMENT
teqc_2016 edited: GLONASS # 25 - 30 excluded                COMMENT
Forced Modulo Decimation to 30 seconds                      COMMENT
teqc_2016 edited: all GLONASS satellites excluded           COMMENT
teqc_2016 edited: all SBAS satellites excluded              COMMENT
teqc_2016 edited: all Galileo satellites excluded           COMMENT
  2018     2    21     8     0    0.0000000     GPS         TIME OF FIRST OBS
                                                            END OF HEADER
 18  2 21  8  0  0.0000000  0  8G16G05G23G06G30G09G02G07
 126773780.045 6  98784778.19043  24124248.016                    24124250.148
        38.000          18.600
 123464956.580 7  96206459.35044  23494600.133                    23494602.805
        46.000          27.800
 118192904.866 8  92098389.99345  22491363.555                    22491363.270
        49.300          33.500
 110570955.741 8  86159204.05447  21040956.070                    21040961.102
        50.900          42.200
 119725746.263 7  93292813.39045  22783048.734                    22783054.676
        47.700          33.600
 105801215.105 8  82442531.63847  20133298.641                    20133302.363
        52.300          46.300
 114279227.445 7  89048742.52446  21746615.805                    21746615.410
        47.000          37.600
 112756213.540 8  87862003.76846  21456791.406                    21456793.879
        50.800          38.100
 18  2 21  8  0 30.0000000  0  8G16G05G23G06G30G09G02G07
 126764770.483 6  98777757.69243  24122534.094                    24122534.613
        39.000          19.300
 123382737.469 7  96142392.52844  23478954.531                    23478956.180
        44.700          27.500
 118285342.970 8  92170419.66945  22508954.109                    22508954.250
        48.000          34.200
 110644119.266 8  86216214.58446  21054878.547                    21054883.324
        49.900          41.400
 119638540.620 7  93224860.96445  22766454.156                    22766459.410
        47.800          33.900
 105849864.154 8  82480439.97847  20142556.297                    20142560.121
        53.400          46.300
 114269309.898 7  89041014.56246  21744728.211                    21744728.398
        46.600          37.700
 112705636.256 8  87822592.91646  21447166.797                    21447169.324
        50.700          38.700
 18  2 21  8  1  0.0000000  0  8G16G05G23G06G30G09G02G07
 126756340.565 6  98771188.94043  24120930.336                    24120931.352
        39.400          21.100
 123300630.190 7  96078412.81944  23463329.906                    23463331.949
        44.100          27.000
 118377958.729 8  92242587.76645  22526578.086                    22526577.875
        48.500          33.400
 110717809.038 8  86273635.17846  21068901.266                    21068906.203
        49.600          41.100
 119551566.741 7  93157089.13545  22749903.281                    22749908.699
        47.400          33.900
 105898892.490 8  82518643.86847  20151886.070                    20151889.816
        52.500          45.800
 114259930.147 7  89033705.66446  21742943.633                    21742942.957
        46.300          37.700
 112655491.567 8  87783519.13846  21437624.578                    21437626.672
        50.400          38.600
 18  2 21  8  1 30.0000000  0  8G16G05G23G06G30G09G02G07
 126748489.922 6  98765071.57443  24119436.375                    24119437.598
        39.500          20.900
 123218634.128 7  96014519.77844  23447726.109                    23447728.102
        44.300          27.700
 118470748.886 8  92314891.76445  22544235.344                    22544235.336
        48.000          33.300
 110792021.051 8  86331462.70846  21083023.063                    21083027.516
        50.200          41.500
 119464825.112 7  93089498.28445  22733397.414                    22733402.688
        47.700          34.100
 105948296.865 8  82557140.78347  20161287.547                    20161290.707
        52.700          46.000
 114251086.982 7  89026814.88546  21741260.859                    21741260.004
        46.500          37.900
 112605779.134 8  87744782.18646  21428164.773                    21428167.121
        50.300          38.300
 18  2 21  8  2  0.0000000  0  8G16G05G23G06G30G09G02G07
 126741220.503 6  98759407.11443  24118052.234                    24118054.422
        40.100          19.600
 123136752.669 7  95950716.04944  23432145.602                    23432147.414
        45.700          28.100
 118563713.608 8  92387331.78445  22561925.656                    22561926.059
        48.000          32.900
 110866754.589 8  86389696.63747  21097244.859                    21097249.238
        50.100          42.000
 119378319.431 8  93022091.29845  22716935.156                    22716940.500
        48.200          33.300
 105998077.290 8  82595930.72147  20170760.484                    20170763.441
        52.500          45.800
 114242782.732 7  89020344.03746  21739680.211                    21739679.953
        46.800          37.700
 112556502.170 8  87706384.53946  21418787.938                    21418790.047
        51.600          39.200
 18  2 21  8  2 30.0000000  0  8G16G05G23G06G30G09G02G07
 126734536.105 6  98754198.52143  24116780.148                    24116782.281
        38.800          19.900
 123054988.159 7  95887003.45144  23416585.813                    23416587.684
        45.700          27.800
 118656853.883 8  92459908.61345  22579650.203                    22579649.770
        48.800          32.400
 110942009.831 8  86448337.09046  21111565.289                    21111569.910
        50.900          41.700
 119292054.231 8  92954871.71345  22700520.234                    22700525.297
        49.100          33.400
 106048234.642 8  82635014.36647  20180304.938                    20180308.277
        53.000          46.200
 114235020.443 7  89014295.49446  21738203.375                    21738202.746
        46.500          37.900
 112507664.091 8  87668328.90646  21409494.219                    21409496.344
        50.900          39.000
 18  2 21  8  3  0.0000000  0  8G16G05G23G06G30G09G02G07
 126728436.989 6  98749445.94543  24115619.758                    24115621.355
        40.700          20.400
 122973342.092 7  95823383.13244  23401049.094                    23401051.207
        46.700          29.000
 118750167.004 8  92532620.14545  22597407.141                    22597407.414
        48.800          33.600
 111017783.632 8  86507381.60346  21125984.703                    21125989.070
        49.900          41.200
 119206030.885 8  92887840.56945  22684150.258                    22684155.148
        48.500          33.600
 106098766.554 8  82674389.87447  20189921.031                    20189924.625
        51.900          46.000
 114227799.946 7  89008669.13946  21736829.000                    21736828.578
        46.300          36.600
 112459265.642 8  87630615.83446  21400283.938                    21400286.547
        50.300          38.700
 18  2 21  8  3 30.0000000  0  8G16G05G23G06G30G09G02G07
 126722922.502 6  98745148.98043  24114571.258                    24114572.379
        41.400          21.100
 122891813.605 7  95759854.46044  23385534.719                    23385536.977
        44.900          27.600
 118843649.938 7  92605463.95145  22615196.172                    22615197.242
        47.700          32.500
 111094072.021 8  86566827.09147  21140501.594                    21140506.211
        50.200          42.100
 119120249.793 8  92820998.20545  22667826.336                    22667831.227
        48.100          33.300
 106149669.767 8  82714054.70947  20199607.172                    20199611.250
        52.400          46.100
 114221120.056 7  89003464.02346  21735558.531                    21735557.621
        46.600          37.800
 112411306.621 8  87593245.17146  21391157.914                    21391160.410
        50.700          38.800
 18  2 21  8  4  0.0000000  0  8G16G05G23G06G30G09G02G07
 126717993.396 6  98741308.11643  24113631.961                    24113634.172
        39.800          22.600
 122810402.794 7  95696417.45544  23370042.602                    23370044.363
        45.800          27.900
 118937301.200 7  92678438.91745  22633017.117                    22633018.215
        47.900          32.600
 111170872.497 8  86626671.60946  21155116.500                    21155121.379
        49.800          41.700
 119034713.018 8  92754346.22345  22651549.898                    22651554.480
        48.100          33.800
 106200942.617 8  82754007.56947  20209364.148                    20209368.344
        53.000          46.000
 114214981.220 8  88998680.50946  21734389.961                    21734389.719
        48.900          37.500
 112363788.331 8  87556217.93446  21382115.352                    21382117.648
        50.800          39.400
 18  2 21  8  4 30.0000000  0  8G16G05G23G06G30G09G02G07
 126713651.304 6  98737924.69843  24112807.195                    24112808.176
        39.600          22.500
 122729112.362 7  95633074.26244  23354573.500                    23354575.512
        45.800          28.700
 119031120.050 7  92751544.49945  22650870.227                    22650870.602
        47.800          32.100
 111248183.679 8  86686914.08446  21169828.359                    21169833.039
        50.300          41.300
 118949423.628 7  92687887.02545  22635319.914                    22635324.738
        47.600          34.000
 106252584.501 8  82794247.99147  20219191.117                    20219195.453
        52.200          46.300
 114209384.673 7  88994319.55346  21733325.266                    21733324.336
        47.500          37.700
 112316713.009 8  87519535.86846  21373157.328                    21373159.289
        51.300          39.000
 18  2 21  8  5  0.0000000  0  8G16G05G23G06G30G09G02G07
 126709898.423 6  98735000.35343  24112091.563                    24112093.832
        39.400          21.800
 122647945.349 7  95569827.24444  23339127.609                    23339130.043
        46.200          28.300
 119125105.959 8  92824780.25945  22668756.188                    22668755.645
        49.300          33.300
 111326004.308 8  86747553.52647  21184637.133                    21184641.469
        49.600          42.000
 118864384.856 8  92621623.07745  22619137.117                    22619141.520
        48.000          33.100
 106304594.966 8  82834775.61147  20229088.539                    20229093.008
        53.200          45.900
 114204331.834 8  88990382.26746  21732363.328                    21732362.723
        48.600          37.100
 112270082.845 8  87483200.67846  21364283.898                    21364284.934
        50.900          38.700
 18  2 21  8  5 30.0000000  0  8G16G05G23G06G30G09G02G07
 126706728.276 6  98732530.09543  24111488.414                    24111490.398
        39.300          22.200
 122566895.872 7  95506671.82044  23323704.336                    23323706.609
        47.200          28.500
 119219250.126 8  92898139.35645  22686671.008                    22686670.762
        49.100          32.400
 111404324.655 8  86808582.35047  21199540.805                    21199545.504
        49.900          42.100
 118779591.501 7  92555550.36745  22603001.320                    22603006.129
        46.900          33.400
 106356965.090 8  82875583.49047  20239054.406                    20239058.742
        53.300          46.000
 114199816.458 8  88986863.78646  21731504.438                    21731503.836
        48.200          37.500
 112223892.079 8  87447207.86746  21355493.875                    21355495.793
        50.900          39.800
 18  2 21  8  6  0.0000000  0  8G16G05G23G06G30G09G02G07
 126704131.365 6  98730506.51743  24110993.969                    24110997.133
        40.500          22.600
 122485953.956 7  95443600.20344  23308301.961                    23308304.219
        46.800          29.100
 119313540.696 7  92971612.51745  22704613.406                    22704613.871
        47.500          32.700
 111483131.936 8  86869990.59546  21214537.063                    21214542.285
        49.800          41.400
 118695035.356 7  92489662.48545  22586911.281                    22586915.922
        47.600          34.900
 106409682.948 8  82916662.33947  20249086.297                    20249090.324
        53.200          46.300
 114195828.479 7  88983756.26546  21730745.570                    21730745.109
        47.500          38.100
 112178131.622 8  87411550.37646  21346786.031                    21346788.445
        51.800          39.600
 18  2 21  8  6 30.0000000  0  8G16G05G23G06G30G09G02G07
 126702117.042 6  98728936.90043  24110611.352                    24110613.242
        40.500          22.200
 122405128.917 7  95380619.66444  23292921.180                    23292922.660
        47.600          28.000
 119407984.766 7  93045205.26645  22722585.641                    22722586.984
        46.900          32.900
 111562432.226 8  86931783.02146  21229627.867                    21229632.402
        50.300          41.100
 118610727.017 7  92423967.71445  22570867.477                    22570873.195
        47.400          34.500
 106462755.477 8  82958017.54547  20259185.461                    20259189.484
        53.200          45.600
 114192376.538 8  88981066.43146  21730088.570                    21730088.164
        48.300          37.600
 112132811.056 8  87376235.64346  21338162.016                    21338164.379
        51.700          39.900
 18  2 21  8  7  0.0000000  0  8G16G05G23G06G30G09G02G07
 126700688.018 6  98727823.36343  24110339.758                    24110341.551
        39.800          21.700
 122324424.557 7  95317733.14644  23277563.953                    23277565.395
        44.800          28.000
 119502582.850 7  93118918.01745  22740586.922                    22740587.840
        47.900          33.200
 111642225.275 8  86993959.41746  21244812.031                    21244816.320
        50.500          40.900
 118526670.691 7  92358469.31445  22554872.273                    22554877.629
        46.000          34.800
 106516183.254 8  82999649.56947  20269352.547                    20269356.723
        53.700          46.100
 114189463.773 8  88978796.73946  21729534.367                    21729533.434
        48.000          37.500
 112087933.985 8  87341266.50446  21329622.203                    21329624.363
        51.800          40.200
 18  2 21  8  7 30.0000000  0  8G16G05G23G06G30G09G02G07
 126699847.478 6  98727168.36243  24110179.836                    24110180.883
        40.600          21.100
 122243844.427 7  95254943.44644  23262230.195                    23262231.777
        46.900          29.400
 119597335.684 8  93192751.37945  22758618.148                    22758618.258
        48.700          31.900
 111722510.799 8  87056519.55746  21260089.945                    21260094.191
        50.200          40.800
 118442870.782 7  92293170.72345  22538925.578                    22538930.832
        47.900          34.800
 106569966.902 8  83041558.90447  20279587.391                    20279591.750
        53.500          46.200
 114187091.989 8  88976948.59046  21729082.852                    21729081.699
        49.100          37.600
 112043503.912 8  87306645.65746  21321167.344                    21321169.457
        51.800          39.600
 18  2 21  8  8  0.0000000  0  8G16G05G23G06G30G09G02G07
 126699600.219 6  98726975.72843  24110132.734                    24110134.273
        41.700          21.300
 122163393.975 7  95192254.78044  23246920.547                    23246922.586
        47.100          29.700
 119692245.539 7  93266707.11345  22776678.656                    22776678.152
        47.600          31.200
 111803290.229 8  87119464.54846  21275461.352                    21275466.230
        49.100          41.400
 118359333.276 8  92228076.59145  22523029.086                    22523034.441
        48.800          35.400
 106624108.735 8  83083747.33747  20289890.211                    20289894.430
        53.100          46.000
 114185266.241 8  88975525.92746  21728735.148                    21728734.371
        49.500          37.700
 111999525.962 8  87272377.13446  21312798.500                    21312801.453
        51.500          40.500
 18  2 21  8  8 30.0000000  0  8G16G05G23G06G30G09G02G07
 126699946.761 6  98727245.76343  24110198.664                    24110200.363
        41.600          21.700
 122083074.452 8  95129668.16244  23231636.477                    23231638.070
        48.300          28.900
 119787311.361 7  93340784.36245  22794769.125                    22794769.254
        47.300          31.100
 111884561.291 8  87182792.62446  21290926.852                    21290932.266
        50.300          41.000
 118276060.502 8  92163188.72145  22507182.789                    22507187.563
        48.500          35.400
 106678607.438 8  83126213.84947  20300261.234                    20300265.383
        53.800          45.700
 114183986.800 8  88974528.95246  21728492.305                    21728491.207
        49.700          37.900
 111956001.731 8  87238462.16446  21304516.172                    21304518.438
        52.100          40.300
 18  2 21  8  9  0.0000000  0  8G16G05G23G06G30G09G02G07
 126700887.739 6  98727979.00143  24110377.359                    24110379.418
        40.700          21.500
 122002886.839 8  95067184.33444  23216377.641                    23216379.066
        48.600          29.500
 119882531.184 7  93414981.61145  22812888.984                    22812889.211
        47.300          31.600
 111966321.075 8  87246501.50846  21306485.414                    21306490.078
        49.000          40.900
 118193054.154 8  92098508.48145  22491387.375                    22491392.641
        48.500          35.600
 106733461.023 8  83168956.89547  20310699.375                    20310702.969
        51.500          45.700
 114183253.663 8  88973957.66646  21728352.430                    21728351.727
        48.500          37.900
 111912931.808 8  87204901.19246  21296320.375                    21296322.160
        52.000          40.400
 18  2 21  8  9 30.0000000  0  8G16G05G23G06G30G09G02G07
 126702426.586 6  98729178.10543  24110669.992                    24110672.598
        40.300          21.100
 121922834.777 8  95004806.12045  23201143.969                    23201145.605
        48.400          30.200
 119977906.519 7  93489300.02845  22831037.883                    22831038.930
        47.000          32.100
 112048570.018 8  87310591.53946  21322136.781                    21322141.414
        49.000          40.900
 118110319.311 7  92034039.80045  22475642.734                    22475648.586
        47.300          35.800
 106788670.830 8  83211977.51347  20321205.414                    20321209.164
        53.100          45.800
 114183070.018 8  88973814.56046  21728317.375                    21728316.664
        49.400          37.700
 111870320.340 8  87171697.45546  21288211.547                    21288213.613
        52.100          39.900
 18  2 21  8 10  0.0000000  0  8G16G05G23G06G30G09G02G07
 126704561.068 6  98730841.31643  24111076.461                    24111078.379
        40.500          22.200
 121842916.731 7  94942532.32945  23185936.406                    23185937.457
        46.100          30.000
 120073432.489 7  93563735.80245  22849216.398                    22849217.117
        47.700          33.100
 112131302.487 8  87375058.37646  21337880.211                    21337884.688
        49.800          40.900
 118027854.946 7  91969781.87546  22459950.164                    22459956.055
        45.700          36.900
 106844232.191 9  83255272.07947  20331778.203                    20331782.477
        54.000          45.600
 114183433.108 8  88974097.48146  21728386.422                    21728386.176
        48.800          37.800
 111828165.570 8  87138849.57246  21280189.625                    21280192.031
        51.700          39.400
 18  2 21  8 10 30.0000000  0  8G16G05G23G06G30G09G02G07
 126707291.676 6  98732969.07643  24111596.344                    24111598.375
        41.100          22.300
 121763133.842 7  94880363.86345  23170753.742                    23170755.422
        45.400          30.900
 120169107.832 7  93638288.01045  22867422.930                    22867422.082
        46.000          31.800
 112214515.899 8  87439899.94746  21353715.156                    21353719.746
        50.600          40.300
 117945663.055 7  91905736.26546  22444309.477                    22444315.887
        46.400          36.300
 106900143.484 8  83298839.30947  20342418.125                    20342421.699
        53.800          45.600
 114184343.137 8  88974806.58546  21728559.563                    21728558.859
        49.800          37.600
 111786468.432 8  87106358.30546  21272255.219                    21272257.594
        51.800          40.100
 18  2 21  8 11  0.0000000  0  8G16G05G23G06G30G09G02G07
 126710621.188 7  98735563.49943  24112230.047                    24112232.133
        42.400          22.800
 121683490.379 7  94818304.05045  23155598.336                    23155599.906
        47.700          31.500
 120264933.755 7  93712957.53745  22885657.414                    22885657.762
        46.700          30.500
 112298210.215 8  87505116.23746  21369641.766                    21369646.875
        48.500          40.100
 117863748.339 8  91841906.64146  22428721.938                    22428728.566
        48.700          36.500
 106956405.661 8  83342679.96647  20353124.164                    20353128.012
        53.400          45.800
 114185803.044 8  88975944.16646  21728837.898                    21728837.133
        50.300          37.700
 111745232.700 8  87074226.57946  21264408.086                    21264410.938
        52.700          40.200
 18  2 21  8 11 30.0000000  0  8G16G05G23G06G30G09G02G07
 126714553.190 7  98738627.37143  24112977.820                    24112979.832
        42.100          22.300
 121603990.333 8  94756355.97445  23140470.227                    23140471.492
        48.000          30.700
 120360911.268 7  93787745.19145  22903921.703                    22903921.773
        46.600          31.500
 112382385.614 8  87570707.40846  21385659.906                    21385664.695
        49.500          40.900
 117782115.621 8  91778296.76146  22413187.703                    22413193.961
        48.300          36.100
 107013019.870 9  83386794.93147  20363897.789                    20363901.578
        54.200          45.500
 114187815.715 8  88977512.47746  21729220.531                    21729219.934
        49.100          38.000
 111704462.354 8  87042457.48946  21256649.961                    21256651.891
        52.300          40.100
 18  2 21  8 12  0.0000000  0  8G16G05G23G06G30G09G02G07
 126719086.033 6  98742159.45643  24113840.102                    24113842.141
        40.700          22.200
 121524632.306 7  94694518.56344  23125368.531                    23125370.594
        47.600          29.600
 120457037.115 7  93862648.43645  22922213.844                    22922214.121
        46.300          31.600
 112467037.314 8  87636669.71746  21401768.516                    21401773.414
        48.800          40.400
 117700764.729 8  91714906.49346  22397706.688                    22397712.430
        48.200          36.100
 107069982.363 8  83431181.28947  20374737.258                    20374741.238
        52.300          45.600
 114190378.994 8  88979509.83846  21729708.555                    21729708.102
        49.200          37.900
 111664156.284 8  87011050.17046  21248979.750                    21248982.047
        52.300          40.200
 18  2 21  8 12 30.0000000  0  8G16G05G23G06G30G09G02G07
 126724219.543 6  98746159.58843  24114816.656                    24114819.051
        40.600          21.800
 121445417.613 7  94632792.83045  23110294.656                    23110296.238
        47.400          30.500
 120553308.919 7  93937665.40845  22940533.289                    22940533.363
        45.700          31.000
 112552162.133 8  87703000.70946  21417967.484                    21417971.496
        49.600          40.600
 117619697.219 8  91651737.02546  22382280.930                    22382285.852
        48.900          37.200
 107127290.929 9  83475837.30747  20385642.688                    20385646.621
        54.100          45.800
 114193492.607 8  88981936.02646  21730300.938                    21730300.512
        49.400          37.800
 111624315.153 8  86980005.13546  21241398.289                    21241400.426
        52.600          40.800
 18  2 21  8 13  0.0000000  0  8G16G05G23G06G30G09G02G07
 126729955.391 6  98750629.12843  24115909.016                    24115909.992
        39.900          20.900
 121366348.425 7  94571180.47245  23095247.961                    23095249.961
        47.200          30.300
 120649726.406 7  94012795.89045  22958881.000                    22958881.789
        44.200          30.900
 112637758.690 8  87769699.33446  21434255.828                    21434260.559
        49.300          40.200
 117538916.336 8  91588790.90846  22366908.281                    22366914.016
        48.700          37.600
 107184945.192 8  83520762.70047  20396614.047                    20396618.504
        53.600          45.700
 114197158.123 8  88984792.26146  21730998.586                    21730997.730
        48.600          37.700
 111584940.749 8  86949323.80046  21233905.602                    21233907.367
        53.000          40.100
 18  2 21  8 13 30.0000000  0  8G16G05G23G06G30G09G02G07
 126736296.025 6  98755569.86543  24117115.211                    24117117.039
        40.200          20.600
 121287426.418 7  94509682.81345  23080229.344                    23080231.836
        47.200          30.400
 120746289.789 7  94088040.05745  22977256.648                    22977257.371
        45.100          31.200
 112723825.849 8  87836764.65346  21450634.117                    21450638.629
        48.400          40.300
 117458425.680 8  91526070.96146  22351591.938                    22351597.512
        48.900          37.500
 107242945.147 8  83565957.46147  20407650.906                    20407655.188
        52.700          45.300
 114201377.023 8  88988079.69846  21731801.586                    21731800.773
        49.700          37.700
 111546036.395 8  86919008.71446  21226502.625                    21226504.121
        52.300          40.500
 18  2 21  8 14  0.0000000  0  8G16G05G23G06G30G09G02G07
 126743242.527 6  98760982.74043  24118437.820                    24118439.023
        40.600          22.000
 121208655.827 7  94448303.12745  23065239.789                    23065241.996
        47.900          31.700
 120842998.744 7  94163397.66945  22995660.172                    22995660.355
        44.000          30.200
 112810362.000 8  87904195.39546  21467101.375                    21467106.301
        49.000          40.600
 117378228.464 8  91463579.65146  22336330.633                    22336335.563
        49.300          37.300
 107301290.281 8  83611421.19547  20418753.539                    20418758.031
        53.200          45.200
 114206150.634 8  88991799.39546  21732709.516                    21732709.480
        49.600          37.900
 111507603.946 8  86889061.35946  21219189.117                    21219191.098
        52.700          40.400
 18  2 21  8 14 30.0000000  0  8G16G05G23G06G30G09G02G07
 126750794.256 6  98766867.21643  24119873.719                    24119876.332
        40.100          21.500
 121130036.955 7  94387041.67945  23050278.773                    23050281.504
        46.800          31.500
 120939850.612 7  94238866.66544  23014090.078                    23014089.844
        44.900          28.900
 112897363.453 8  87971988.71846  21483657.008                    21483661.820
        49.300          40.000
 117298325.656 8  91401317.73846  22321125.688                    22321129.816
        49.800          36.900
 107359977.946 8  83657151.83847  20429921.211                    20429925.645
        52.900          45.400
 114211478.231 8  88995950.75546  21733723.648                    21733723.059
        49.500          38.100
 111469643.282 8  86859481.63046  21211965.188                    21211967.691
        52.300          40.400
 18  2 21  8 15  0.0000000  0  8G16G05G23G06G30G09G02G07
 126758951.396 6  98773223.43643  24121426.219                    24121428.141
        40.700          21.100
 121051570.241 7  94325898.79345  23035347.273                    23035349.953
        45.700          32.100
 121036843.528 7  94314445.53444  23032546.852                    23032547.383
        45.100          29.600
 112984827.012 8  88040142.09646  21500300.875                    21500305.785
        48.600          39.900
 117218718.754 7  91339286.40446  22305977.203                    22305981.789
        47.900          37.100
 107419006.066 8  83703147.76747  20441154.055                    20441158.262
        52.600          45.900
 114217359.155 8  89000533.29646  21734842.633                    21734842.078
        49.100          38.000
 111432154.927 8  86830269.93246  21204831.422                    21204833.629
        52.300          40.800
 18  2 21  8 15 30.0000000  0  8G16G05G23G06G30G09G02G07
 126767713.590 6  98780051.12543  24123093.320                    24123096.699
        38.800          21.100
 120973256.725 7  94264875.28745  23020445.133                    23020447.359
        47.200          31.400
 121133976.130 7  94390133.24445  23051031.063                    23051031.402
        44.900          30.600
 113072749.884 8  88108653.37146  21517032.117                    21517037.211
        49.700          41.300
 117139409.759 8  91277487.21946  22290884.852                    22290889.797
        48.800          37.500
 107478372.940 8  83749407.66147  20452451.344                    20452455.223
        53.500          45.400
 114223793.618 8  89005547.15046  21736067.367                    21736066.762
        49.100          37.700
 111395140.020 8  86801427.15746  21197787.844                    21197790.109
        53.500          41.300
 18  2 21  8 16  0.0000000  0  8G16G05G23G06G30G09G02G07
 126777080.471 6  98787349.97443  24124876.055                    24124878.641
        39.200          21.500
 120895095.823 7  94203970.70045  23005571.297                    23005573.707
        47.600          31.800
 121231245.974 7  94465927.90645  23069540.906                    23069541.297
        44.800          30.200
 113161128.329 8  88177519.65846  21533850.336                    21533854.629
        50.000          40.800
 117060399.634 8  91215920.91346  22275849.664                    22275854.738
        50.300          38.300
 107538075.910 8  83795929.44347  20463812.219                    20463816.160
        53.000          45.000
 114230780.484 8  89010991.45646  21737396.383                    21737396.484
        48.300          38.100
 111358598.671 8  86772953.38546  21190834.594                    21190836.680
        53.400          41.300
 18  2 21  8 16 30.0000000  0  8G16G05G23G06G30G09G02G07
 126787057.828 6  98795124.57543  24126774.820                    24126775.156
        40.500          20.400
 120817095.243 8  94143191.05245  22990728.383                    22990730.859
        48.200          31.900
 121328656.798 7  94541832.41045  23088077.914                    23088078.000
        45.700          30.400
 113249965.088 8  88246743.03446  21550754.961                    21550759.621
        49.800          39.900
 116981695.945 8  91154593.39346  22260873.039                    22260877.930
        49.800          37.500
 107598118.879 9  83842716.17547  20475237.992                    20475242.359
        54.300          44.800
 114238325.210 8  89016870.45846  21738832.148                    21738832.000
        48.200          38.100
 111322536.857 8  86744853.27746  21183972.273                    21183973.402
        52.800          40.900
 18  2 21  8 17  0.0000000  0  8G16G05G23G06G30G09G02G07
 126797644.841 6  98803374.22943  24128790.094                    24128790.461
        40.000          19.900
 120739255.556 8  94082536.76145  22975916.250                    22975918.152
        48.700          32.400
 121426206.333 7  94617845.04445  23106640.961                    23106640.250
        46.300          30.000
 113339256.437 8  88316320.64446  21567746.594                    21567751.625
        49.000          39.600
 116903299.738 8  91093505.45046  22245954.453                    22245958.605
        49.200          37.600
 107658499.262 8  83889765.81447  20486727.906                    20486731.766
        53.400          45.000
 114246426.986 8  89023183.51446  21740373.617                    21740374.172
        48.900          37.700
 111286954.890 8  86717127.06046  21177200.813                    21177202.543
        53.000          40.600
 18  2 21  8 17 30.0000000  0  8G16G05G23G06G30G09G02G07
 126808837.448 6  98812095.72743  24130920.156                    24130921.063
        40.400          22.300
 120661573.921 8  94022005.64245  22961133.938                    22961135.945
        48.200          33.200
 121523888.485 7  94693960.97244  23125228.961                    23125229.816
        45.900          29.600
 113428995.192 8  88386246.90846  21584823.492                    21584828.227
        49.100          40.100
 116825208.458 8  91032655.14046  22231094.266                    22231099.637
        48.400          37.500
 107719210.965 8  83937073.61747  20498281.250                    20498284.879
        53.200          45.200
 114255080.897 7  89029926.80746  21742020.547                    21742020.672
        47.800          38.700
 111251849.156 8  86689771.94946  21170520.609                    21170522.258
        53.100          40.900
 18  2 21  8 18  0.0000000  0  8G16G05G23G06G30G09G02G07
 126820641.843 6  98821293.92843  24133166.039                    24133168.531
        41.300          22.000
 120584056.819 8  93961602.72845  22946382.719                    22946384.648
        48.100          33.300
 121621708.242 7  94770184.12145  23143843.227                    23143844.844
        45.600          30.900
 113519184.528 8  88456524.24246  21601986.180                    21601991.262
        50.200          40.000
 116747430.211 8  90972048.76546  22216294.094                    22216299.348
        49.100          38.700
 107780258.449 8  83984643.06847  20509898.141                    20509902.293
        53.900          45.000
 114264293.227 8  89037105.24946  21743774.148                    21743773.770
        48.000          38.600
 111217226.669 8  86662793.39346  21163931.805                    21163933.801
        52.900          40.700
 18  2 21  8 18 30.0000000  0  8G16G05G23G06G30G09G02G07
 126833055.555 6  98830966.95543  24135528.078                    24135529.805
        40.200          22.200
 120506704.020 7  93901327.83845  22931663.063                    22931664.816
        47.300          32.000
 121719661.602 7  94846511.39645  23162483.500                    23162484.363
        44.200          30.800
 113609819.222 8  88527148.60446  21619233.500                    21619238.133
        48.600          39.600
 116669964.488 8  90911685.88646  22201552.016                    22201557.906
        48.900          38.700
 107841637.574 8  84032470.95847  20521578.164                    20521581.969
        52.500          45.300
 114274061.659 7  89044717.00646  21745632.750                    21745632.285
        47.000          38.000
 111183085.787 8  86636190.11446  21157435.102                    21157437.371
        52.700          40.900
 18  2 21  8 19  0.0000000  0  8G16G05G23G06G30G09G02G07
 126846080.225 6  98841116.01543  24138006.570                    24138008.484
        37.600          21.100
 120429517.690 7  93841182.65745  22916975.125                    22916977.156
        47.800          32.800
 121817748.530 7  94922942.74644  23181149.352                    23181149.789
        46.100          29.800
 113700897.924 8  88598118.98146  21636565.313                    21636570.016
        49.100          39.600
 116592814.663 8  90851569.17346  22186870.961                    22186875.961
        48.900          37.600
 107903348.204 8  84080557.15147  20533321.656                    20533325.793
        53.700          45.500
 114284387.284 7  89052762.94046  21747597.742                    21747597.871
        47.000          38.900
 111149428.939 8  86609964.02046  21151030.203                    21151032.941
        52.300          40.600
 18  2 21  8 19 30.0000000  0  8G16G05G23G06G30G09G02G07
 126859716.387 6  98851741.56943  24140601.063                    24140603.246
        37.600          19.300
 120352499.759 7  93781168.69945  22902319.008                    22902320.789
        47.200          33.000
 121915968.023 7  94999477.39545  23199839.781                    23199840.070
        47.600          31.200
 113792418.073 8  88669433.33346  21653980.734                    21653985.656
        50.500          39.500
 116515983.022 8  90791700.37446  22172250.820                    22172255.090
        48.400          37.200
 107965388.924 9  84128900.56147  20545127.484                    20545131.184
        54.800          45.200
 114295270.296 7  89061243.20246  21749668.961                    21749667.770
        47.300          38.400
 111116257.304 8  86584115.99146  21144718.023                    21144720.359
        53.200          41.100
 18  2 21  8 20  0.0000000  0  8G16G05G23G06G30G09G02G07
 126873964.981 5  98862844.39343  24143312.234                    24143314.344
        35.500          18.300
 120275652.518 7  93721287.75245  22887695.039                    22887697.512
        47.000          33.000
 122014319.706 7  95076115.04144  23218554.109                    23218554.980
        45.400          27.400
 113884377.753 8  88741090.14846  21671480.258                    21671484.996
        50.300          39.700
 116439472.598 8  90732081.88146  22157690.898                    22157696.039
        49.000          37.800
 108027759.131 8  84177500.71747  20556996.453                    20556999.926
        53.900          45.100
 114306711.558 8  89070158.45746  21751846.219                    21751845.367
        48.600          38.700
 111083572.639 8  86558647.42246  21138498.484                    21138500.715
        52.700          41.500
 18  2 21  8 20 30.0000000  0  8G16G05G23G06G30G09G02G07
 126888827.660 5  98874425.68843  24146140.742                    24146142.777
        35.700          19.000
 120198979.161 7  93661542.29145  22873105.250                    22873107.105
        47.500          32.600
 122112803.717 7  95152855.80444  23237295.555                    23237295.887
        45.000          28.800
 113976775.997 8  88813088.72946  21689063.109                    21689068.629
        50.400          40.000
 116363287.021 8  90672716.52346  22143193.266                    22143198.066
        49.300          38.100
 108090459.056 9  84226357.79147  20568927.766                    20568931.125
        54.400          45.400
 114318712.720 8  89079510.00846  21754129.984                    21754128.996
        48.400          37.400
 111051377.723 8  86533560.47946  21132372.023                    21132374.004
        52.600          41.200
 18  2 21  8 21  0.0000000  0  8G16G05G23G06G30G09G02G07
 126904301.707 6  98886483.31643  24149085.438                    24149087.922
        36.900          19.900
 120122477.818 7  93601930.87345  22858547.391                    22858549.395
        46.800          33.300
 122211415.471 7  95229696.09444  23256061.344                    23256061.988
        46.600          29.100
 114069606.837 8  88885424.39746  21706728.008                    21706733.242
        49.800          39.800
 116287425.229 8  90613603.47146  22128757.094                    22128762.680
        48.600          38.300
 108153483.951 8  84275468.09547  20580921.000                    20580924.121
        53.900          45.100
 114331270.374 7  89089295.19746  21756519.047                    21756518.211
        47.200          38.200
 111019669.947 8  86508853.13546  21126337.914                    21126339.922
        53.000          41.300
 18  2 21  8 21 30.0000000  0  8G16G05G23G06G30G09G02G07
 126920384.009 6  98899014.94843  24152146.023                    24152148.148
        37.000          20.400
 120046146.733 7  93542452.11145  22844021.703                    22844023.781
        47.000          33.100
 122310150.904 7  95306632.78645  23274849.922                    23274850.340
        47.300          30.400
 114162864.430 8  88958092.62846  21724475.094                    21724479.570
        49.300          38.500
 116211886.166 8  90554741.88246  22114382.773                    22114387.730
        48.100          37.400
 108216829.236 8  84324828.05247  20592974.938                    20592978.332
        53.400          45.000
 114344381.286 8  89099511.47946  21759014.281                    21759013.359
        48.900          38.200
 110988447.543 8  86484523.99046  21120396.484                    21120398.848
        52.300          41.300
 18  2 21  8 22  0.0000000  0  8G16G05G23G06G30G09G02G07
 126937064.843 6  98912012.99443  24155320.000                    24155322.055
        39.000          20.400
 119969978.505 7  93483100.25245  22829527.398                    22829529.145
        45.500          32.800
 122408998.714 7  95383657.01945  23293660.273                    23293660.867
        46.800          30.100
 114256536.037 8  89031083.45646  21742299.609                    21742303.770
        48.000          39.200
 116136662.097 8  90496125.74346  22100068.156                    22100072.754
        48.400          38.100
 108280483.602 8  84374428.85047  20605087.852                    20605091.094
        52.700          44.700
 114358035.819 8  89110151.36546  21761612.711                    21761612.129
        49.500          38.100
 110957701.394 8  86460565.96146  21114545.758                    21114547.840
        52.700          40.700
 18  2 21  8 22 30.0000000  0  8G16G05G23G06G30G09G02G07
 126954346.441 6  98925479.12643  24158608.875                    24158609.941
        38.800          21.500
 119893975.970 7  93423877.49545  22815064.398                    22815066.391
        45.700          33.500
 122507960.135 7  95460769.76944  23312491.344                    23312492.277
        45.700          27.900
 114350621.359 8  89104396.67646  21760203.336                    21760208.543
        48.500          39.400
 116061757.313 8  90437758.38646  22085813.984                    22085818.895
        49.000          38.200
 108344447.761 8  84424271.04547  20617259.742                    20617263.613
        51.900          44.400
 114372236.036 8  89121216.46946  21764315.211                    21764314.387
        48.200          37.600
 110927434.734 8  86436981.53246  21108786.320                    21108788.457
        51.700          41.300
 18  2 21  8 23  0.0000000  0  8G16G05G23G06G30G09G02G07
 126972233.979 6  98939417.48043  24162013.039                    24162014.262
        40.900          21.800
 119818145.958 7  93364789.18145  22800634.141                    22800636.598
        47.200          33.800
 122607038.686 7  95537973.79544  23331344.820                    23331345.684
        45.500          27.000
 114445122.707 8  89178034.07646  21778186.602                    21778191.773
        50.000          39.300
 115987179.031 8  90379645.46046  22071622.367                    22071628.039
        49.800          38.500
 108408725.336 8  84474357.45647  20629491.188                    20629495.660
        52.700          44.200
 114386986.919 8  89132710.64546  21767122.125                    21767121.406
        48.800          37.900
 110897653.227 8  86413775.18446  21103119.508                    21103121.277
        51.900          41.500
 18  2 21  8 23 30.0000000  0  8G16G05G23G06G30G09G02G07
 126990729.643 6  98953829.67543  24165533.148                    24165534.871
        39.900          22.500
 119742492.598 7  93305838.51445  22786238.000                    22786240.074
        47.000          33.700
 122706235.286 7  95615269.85744  23350222.875                    23350223.473
        47.100          29.800
 114540039.399 8  89251995.11646  21796249.133                    21796253.652
        48.800          38.800
 115912931.396 8  90321790.19646  22057493.461                    22057499.203
        49.600          38.800
 108473317.087 8  84524688.67047  20641782.586                    20641787.223
        52.300          44.700
 114402290.202 8  89144635.27746  21770033.789                    21770033.203
        48.500          37.500
 110868360.336 8  86390949.55346  21097545.078                    21097546.977
        52.200          41.300
 18  2 21  8 24  0.0000000  0  8G16G05G23G06G30G09G02G07
 127009835.255 6  98968717.16943  24169168.539                    24169170.629
        41.700          22.000
 119667019.271 7  93247028.13045  22771875.906                    22771878.184
        47.200          34.800
 122805550.511 7  95692658.30844  23369121.961                    23369123.008
        45.800          29.400
 114635370.279 8  89326278.91546  21814389.227                    21814394.379
        48.800          37.900
 115839018.157 8  90264195.49946  22043428.859                    22043433.074
        51.100          38.900
 108538223.103 8  84575264.77647  20654133.836                    20654138.148
        52.700          45.400
 114418147.644 8  89156991.72146  21773051.789                    21773051.828
        48.900          37.900
 110839558.670 8  86368506.70246  21092063.828                    21092066.117
        52.100          40.900
 18  2 21  8 24 30.0000000  0  8G16G05G23G06G30G09G02G07
 127029552.898 6  98984081.54843  24172920.055                    24172922.129
        41.100          22.000
 119591728.609 7  93188360.09945  22757548.547                    22757551.113
        47.300          34.400
 122904985.270 7  95770139.89644  23388043.211                    23388043.621
        43.700          27.200
 114731114.410 8  89400884.72146  21832608.641                    21832613.457
        48.600          38.600
 115765443.207 8  90206864.39046  22029427.633                    22029431.813
        50.500          38.400
 108603443.771 8  84626086.06647  20666545.313                    20666549.840
        52.500          44.800
 114434560.964 8  89169781.31146  21776174.438                    21776174.727
        48.500          38.100
 110811250.337 8  86346448.27246  21086677.000                    21086679.324
        51.700          41.600
 18  2 21  8 25  0.0000000  0  8G16G05G23G06G30G09G02G07
 127049882.019 6  98999922.42943  24176789.453                    24176790.234
        41.400          21.700
 119516623.327 8  93129836.51045  22743256.688                    22743259.359
        48.200          34.800
 123004538.205 7  95847713.59144  23406987.438                    23406987.355
        45.900          27.300
 114827269.300 8  89475810.59446  21850906.852                    21850912.234
        48.900          39.000
 115692209.006 8  90149798.78246  22015491.648                    22015495.543
        51.100          37.900
 108668978.033 8  84677151.72147  20679015.734                    20679019.848
        51.500          44.400
 114451530.033 8  89183003.94646  21779403.930                    21779403.816
        49.800          38.400
 110783437.005 8  86324775.58246  21081384.289                    21081386.426
        50.800          41.900
 18  2 21  8 25 30.0000000  0  8G16G05G23G06G30G09G02G07
 127070822.861 7  99016239.92243  24180773.938                    24180775.309
        42.600          21.300
 119441703.947 8  93071457.78045  22729000.094                    22729002.648
        48.700          35.100
 123104208.058 7  95925378.36344  23425954.109                    23425954.121
        43.300          27.400
 114923831.757 7  89551054.06346  21869282.273                    21869287.457
        47.900          39.600
 115619317.101 8  90092999.91246  22001619.828                    22001624.930
        49.400          38.100
 108734823.961 8  84728460.22647  20691546.008                    20691550.266
        52.100          43.900
 114469054.086 8  89196659.04346  21782738.609                    21782738.867
        48.800          38.400
 110756119.108 8  86303488.90646  21076185.914                    21076187.527
        51.200          41.300
 18  2 21  8 26  0.0000000  0  8G16G05G23G06G30G09G02G07
 127092374.263 7  99033033.22843  24184874.672                    24184877.066
        42.300          22.000
 119366971.077 8  93013224.38945  22714778.875                    22714781.215
        49.100          35.900
 123203992.490 7  96003132.46944  23444943.047                    23444942.043
        43.400          26.200
 115020797.982 8  89626612.13946  21887733.805                    21887739.375
        48.000          38.700
 115546768.556 8  90036468.59546  21987814.844                    21987819.719
        49.800          39.000
 108800979.140 8  84780009.70547  20704135.023                    20704138.555
        52.100          44.700
 114487132.075 8  89210745.78046  21786178.523                    21786178.406
        48.400          38.600
 110729296.160 8  86282587.91746  21071081.469                    21071083.707
        51.100          41.700
 18  2 21  8 26 30.0000000  0  8G16G05G23G06G30G09G02G07
 127114536.396 6  99050302.40043  24189091.953                    24189094.133
        40.200          21.500
 119292428.228 7  92955139.06245  22700593.836                    22700595.926
        47.400          35.500
 123303891.038 7  96080975.47444  23463953.008                    23463952.844
        43.500          28.200
 115118165.938 8  89702483.24346  21906262.664                    21906267.363
        48.700          38.600
 115474566.229 7  89980207.06746  21974075.133                    21974080.234
        47.600          39.000
 108867442.891 8  84831799.63647  20716782.398                    20716786.539
        51.700          44.700
 114505764.756 7  89225264.74946  21789724.688                    21789724.516
        47.500          37.700
 110702969.958 8  86262074.00146  21066072.023                    21066073.523
        50.900          41.200
 18  2 21  8 27  0.0000000  0  8G16G05G23G06G30G09G02G07
 127137312.155 7  99068049.73443  24193426.516                    24193429.035
        42.700          22.500
 119218078.721 8  92897204.39546  22686445.617                    22686447.676
        49.200          36.000
 123403905.364 7  96158908.66544  23482985.563                    23482986.043
        43.300          27.900
 115215935.471 7  89778667.27346  21924867.180                    21924872.125
        47.700          38.700
 115402714.908 8  89924219.03446  21960402.375                    21960407.316
        48.300          39.200
 108934216.444 8  84883830.96647  20729489.273                    20729493.266
        50.900          44.400
 114524954.354 8  89240217.66046  21793376.188                    21793376.230
        48.400          38.000
 110677144.025 8  86241949.90746  21061157.391                    21061159.453
        49.900          40.800
 18  2 21  8 27 30.0000000  0  8G16G05G23G06G30G09G02G07
 127160702.986 7  99086276.33843  24197878.156                    24197879.320
        43.900          21.800
 119143925.914 8  92839422.99146  22672335.156                    22672337.137
        50.200          36.100
 123504035.737 7  96236932.29444  23502039.195                    23502039.305
        42.500          27.500
 115314105.483 7  89855163.36846  21943548.438                    21943552.844
        47.000          37.600
 115331218.165 8  89868507.30546  21946797.281                    21946801.547
        50.100          38.800
 109001300.083 8  84936103.92547  20742254.953                    20742258.816
        51.500          44.900
 114544702.393 7  89255605.72546  21797133.992                    21797133.805
        47.300          37.900
 110651820.776 8  86222217.49046  21056338.602                    21056340.516
        49.900          41.600
 18  2 21  8 28  0.0000000  0  8G16G05G23G06G30G09G02G07
 127184706.730 7  99104980.56843  24202445.586                    24202448.129
        44.100          23.000
 119069969.118 8  92781794.34045  22658261.797                    22658263.477
        49.900          35.600
 123604278.800 7  96315043.75444  23521114.578                    23521115.012
        43.700          27.900
 115412670.874 7  89931967.54946  21962305.164                    21962309.664
        47.000          38.000
 115260075.975 8  89813071.83046  21933259.234                    21933263.773
        49.200          38.700
 109068690.111 8  84988615.63047  20755079.164                    20755083.367
        51.300          45.100
 114565006.040 8  89271426.74046  21800997.680                    21800997.473
        48.200          38.300
 110626998.690 8  86202875.61046  21051615.211                    21051617.086
        50.800          41.600
 18  2 21  8 28 30.0000000  0  8G16G05G23G06G30G09G02G07
 127209322.596 7  99124161.76343  24207130.313                    24207131.926
        44.000          23.000
 118996210.017 8  92724319.71545  22644225.375                    22644227.109
        49.700          34.800
 123704633.386 7  96393242.06944  23540211.945                    23540212.082
        44.300          28.300
 115511628.414 7  90009077.30446  21981136.102                    21981141.086
        47.600          38.100
 115189289.888 8  89757913.84746  21919788.820                    21919794.000
        49.600          39.000
 109136384.712 8  85041364.65847  20767960.719                    20767965.082
        51.200          45.100
 114585864.735 8  89287680.25446  21804967.188                    21804966.965
        48.700          38.100
 110602678.229 8  86183924.61846  21046987.461                    21046989.336
        50.000          41.300
 18  2 21  8 29  0.0000000  0  8G16G05G23G06G30G09G02G07
 127234559.583 7  99143826.95743  24211932.750                    24211934.301
        43.900          22.000
 118922659.729 8  92667007.80945  22630229.359                    22630230.945
        49.600          35.800
 123805107.334 7  96471533.43144  23559331.383                    23559331.574
        43.200          27.600
 115610984.452 7  90086497.58046  22000042.906                    22000048.320
        46.700          37.800
 115118871.098 8  89703042.09346  21906388.117                    21906393.313
        48.600          38.900
 109204391.670 8  85094357.08247  20780901.844                    20780906.238
        51.500          45.000
 114607287.375 8  89304373.20946  21809043.531                    21809043.555
        48.200          38.200
 110578869.400 8  86165372.28446  21042456.461                    21042458.648
        50.800          41.600
 18  2 21  8 29 30.0000000  0  8G16G05G23G06G30G09G02G07
 127260419.127 7  99163977.22543  24216852.977                    24216855.160
        43.600          22.000
 118849320.804 8  92609860.60045  22616273.070                    22616275.160
        48.800          35.700
 123905700.777 7  96549917.92544  23578473.328                    23578473.703
        43.300          28.300
 115710737.468 7  90164227.14246  22019025.625                    22019031.277
        46.700          38.100
 115048823.042 8  89648459.22646  21893058.641                    21893063.895
        49.300          38.300
 109272710.911 8  85147592.85547  20793902.469                    20793906.594
        50.800          44.300
 114629275.085 8  89321506.48746  21813227.773                    21813227.742
        49.000          38.900
 110555574.081 8  86147220.10546  21038023.445                    21038025.527
        49.800          41.100
 18  2 21  8 30  0.0000000  0  8G16G05G23G06G30G09G02G07
 127286887.839 6  99184602.17243  24221890.211                    24221892.371
        41.800          22.300
 118776182.336 7  92552869.58545  22602354.977                    22602357.254
        47.100          34.900
 124006399.531 7  96628384.44944  23597635.336                    23597636.145
        42.500          28.000
 115810871.649 7  90242253.72146  22038080.023                    22038085.387
        47.100          37.100
 114979134.682 8  89594156.63146  21879797.914                    21879802.727
        48.300          38.900
 109341328.049 8  85201060.74547  20806960.102                    20806964.750
        51.200          44.600
 114651814.161 8  89339069.39046  21817516.875                    21817516.363
        48.000          38.300
 110532780.029 8  86129458.51046  21033685.953                    21033688.234
        50.000          41.700
 18  2 21  8 30 30.0000000  0  8G16G05G23G06G30G09G02G07
 127313965.265 6  99205701.45843  24227042.031                    24227044.984
        41.800          22.300
 118703245.340 8  92496035.58445  22588475.984                    22588477.926
        49.100          35.200
