     2.11           OBSERVATION DATA    G (GPS)             RINEX VERSION / TYPE
teqc  2016Nov7                          20180328 12:23:34UTCPGM / RUN BY / DATE
Linux 2.4.21-27.ELsmp|Opteron|gcc|Linux x86_64|=+           COMMENT
teqc  2016Nov7                          20180328 12:23:33UTCCOMMENT
     2.11           OBSERVATION DATA    M (MIXED)           COMMENT
teqc  2016Nov7                          20180328 12:23:31UTCCOMMENT
teqc  2016Nov7      IGN-RGP             20180220 09:14:18UTCCOMMENT
teqc  2015Jun23     IGN-RGP             20180220 09:06:45UTCCOMMENT
Linux2.4.20-8|i386|gcc|Win32-MinGW32|=                      COMMENT
   0.000      (antenna height)                              COMMENT
 +48.90315691 (latitude)                                    COMMENT
  +2.98054565 (longitude)                                   COMMENT
0221.246      (elevation)                                   COMMENT
BIT 2 OF LLI FLAGS DATA COLLECTED UNDER A/S CONDITION       COMMENT
19759M001 (COGO code)                                       COMMENT
SXJ0                                                        MARKER NAME
19759M001                                                   MARKER NUMBER
Automatic           GIE COOP&TECH                           OBSERVER / AGENCY
5018K67398          TRIMBLE NETR5       4.41                REC # / TYPE / VERS
1441003348          TRM55971.00     NONE                    ANT # / TYPE
  4195019.9590   218423.4060  4783652.9850                  APPROX POSITION XYZ
        1.2000        0.0000        0.0000                  ANTENNA: DELTA H/E/N
     1     1                                                WAVELENGTH FACT L1/2
     9    L1    L2    C1    P1    P2    D1    D2    S1    S2# / TYPES OF OBSERV
    30.0000                                                 INTERVAL
    18                                                      LEAP SECONDS
 SNR is mapped to RINEX snr flag value [0-9]                COMMENT
  L1 & L2: min(max(int(snr_dBHz/6), 0), 9)                  COMMENT
teqc_2016 edited: GLONASS # 25 - 30 excluded                COMMENT
Forced Modulo Decimation to 30 seconds                      COMMENT
teqc_2016 edited: all GLONASS satellites excluded           COMMENT
teqc_2016 edited: all SBAS satellites excluded              COMMENT
teqc_2016 edited: all Galileo satellites excluded           COMMENT
  2018     2    20     8     0    0.0000000     GPS         TIME OF FIRST OBS
                                                            END OF HEADER
 18  2 20  8  0  0.0000000  0  8G05G07G23G09G30G16G02G06
 125187929.386 7  97549069.73245  23822478.172                    23822481.891
      3306.688                          45.600          31.200
 114066725.290 8  88883214.96746  21706182.297                    21706186.262
      2347.109                          51.800          37.700
 118026404.108 8  91968666.85745  22459681.664                    22459683.492
     -2487.160                          48.100          33.400
 106186182.838 8  82742558.66147  20206566.594                    20206572.613
      -950.629                          52.800          45.200
 121422053.623 7  94614634.69645  23105851.227                    23105857.078
      3500.242                          47.300          30.700
 127412466.809 6  99282474.39743  24245790.391                    24245795.699
       979.363                          38.600          20.100
 115401961.009 8  89923633.30246  21960271.203                    21960271.391
       982.617                          48.300          36.000
 111025244.938 8  86513228.97946  21127409.188                    21127416.699
     -1777.297                          51.000          41.600
 18  2 20  8  0 30.0000000  0  8G05G07G23G09G30G16G02G06
 125088771.311 7  97471803.69845  23803608.578                    23803612.863
      3303.719        2574.340          45.400          30.700
 113996513.353 8  88828504.37346  21692821.547                    21692825.457
      2333.547        1818.507          52.300          37.800
 118101111.570 8  92026880.45845  22473898.500                    22473900.145
     -2493.437       -1942.847          48.100          32.100
 106214891.576 9  82764929.09747  20212029.953                    20212035.992
      -963.461        -750.569          54.400          45.400
 121317145.142 7  94532887.83245  23085887.523                    23085894.672
      3493.527        2722.299          46.400          32.000
 127383364.309 6  99259797.11943  24240252.914                    24240256.988
       960.430         748.776          36.900          20.100
 115372742.578 8  89900865.68846  21954710.953                    21954712.184
       965.145         752.292          48.800          36.900
 111078826.005 8  86554980.43846  21137605.453                    21137612.586
     -1795.008       -1398.483          51.700          41.200
 18  2 20  8  1  0.0000000  0  8G05G07G23G09G30G16G02G06
 124989707.436 7  97394611.05545  23784757.602                    23784761.898
      3300.445        2571.879          45.800          30.700
 113926711.217 8  88774113.11246  21679538.703                    21679542.691
      2319.844        1807.856          51.700          38.100
 118176006.373 7  92085240.03245  22488150.398                    22488152.246
     -2499.699       -1947.691          47.500          33.800
 106243986.320 8  82787600.31947  20217566.461                    20217572.559
      -976.266        -760.576          51.600          45.000
 121212440.563 7  94451299.89745  23065962.336                    23065970.625
      3486.723        2716.997          46.600          32.500
 127354826.848 6  99237560.14643  24234821.383                    24234826.402
       941.797         734.071          37.300          19.600
 115344049.664 7  89878507.55746  21949250.484                    21949252.520
       947.578         738.646          47.100          36.900
 111132942.164 8  86597148.85446  21147903.508                    21147910.367
     -1812.828       -1412.344          51.600          40.900
 18  2 20  8  1 30.0000000  0  8G05G07G23G09G30G16G02G06
 124890739.156 7  97317492.92145  23765924.531                    23765928.441
      3297.289        2569.382          47.500          30.600
 113857321.332 8  88720043.08446  21666334.219                    21666338.789
      2306.066        1797.156          51.800          38.600
 118251087.531 8  92143744.80545  22502438.094                    22502440.609
     -2505.844       -1952.476          48.600          33.900
 106273466.301 8  82810571.72447  20223176.172                    20223182.168
      -989.148        -770.553          53.400          45.200
 121107942.808 7  94369873.13845  23046076.969                    23046085.523
      3479.766        2711.603          47.700          32.200
 127326856.491 6  99215765.08143  24229498.992                    24229503.984
       922.941         719.366          36.900          19.000
 115315883.779 7  89856560.07946  21943890.727                    21943893.090
       930.055         724.952          46.600          36.000
 111187591.917 8  86639733.05646  21158302.961                    21158309.875
     -1830.613       -1426.159          51.300          41.000
 18  2 20  8  2  0.0000000  0  8G05G07G23G09G30G16G02G06
 124791868.050 7  97240450.51645  23747109.805                    23747114.090
      3294.168        2566.809          47.300          31.200
 113788345.104 8  88666295.39846  21653208.594                    21653213.184
      2292.340        1786.369          52.300          38.600
 118326353.693 8  92202393.72645  22516760.648                    22516763.270
     -2511.930       -1957.275          48.100          33.600
 106303330.071 8  82833842.19647  20228859.320                    20228864.883
     -1001.832        -780.505          51.100          45.000
 121003654.050 8  94288609.19745  23026232.141                    23026238.586
      3472.895        2706.143          48.700          32.300
 127299454.839 6  99194413.11142  24224284.047                    24224288.906
       904.172         704.571          36.200          17.800
 115288245.269 7  89835023.55245  21938631.508                    21938632.797
       912.578         711.231          46.800          35.700
 111242773.217 8  86682731.45846  21168803.477                    21168810.742
     -1848.125       -1439.948          51.200          41.600
 18  2 20  8  2 30.0000000  0  8G05G07G23G09G30G16G02G06
 124693096.347 8  97163485.55145  23728314.750                    23728318.750
      3290.785        2564.216          48.100          30.600
 113719784.445 8  88612871.53146  21640161.742                    21640165.773
      2278.453        1775.536          52.600          38.000
 118401803.526 8  92261185.77945  22531118.109                    22531120.547
     -2517.965       -1962.056          48.300          33.600
 106333576.510 9  82857410.83747  20234614.867                    20234620.809
     -1014.535        -790.446          54.100          44.900
 120899576.828 7  94207510.07345  23006427.102                    23006433.230
      3465.742        2700.617          47.600          31.600
 127272623.305 6  99173505.43542  24219178.547                    24219183.508
       884.840         689.740          36.500          17.400
 115261135.648 7  89813899.16745  21933472.930                    21933473.520
       894.863         697.473          47.200          35.800
 111298484.276 8  86726142.66946  21179405.305                    21179412.180
     -1865.773       -1453.708          52.300          40.600
 18  2 20  8  3  0.0000000  0  8G05G07G23G09G30G16G02G06
 124594425.333 7  97086599.03844  23709537.727                    23709542.371
      3287.336        2561.604          46.300          29.700
 113651641.451 8  88559773.11646  21627194.422                    21627198.836
      2264.465        1764.700          53.400          38.800
 118477436.076 8  92320120.23045  22545510.078                    22545512.230
     -2524.113       -1966.759          49.100          33.100
 106364204.602 8  82881276.88347  20240443.195                    20240448.824
     -1027.266        -800.304          52.700          44.600
 120795713.765 7  94126577.83345  22986662.328                    22986669.727
      3458.434        2695.047          46.400          31.900
 127246363.560 6  99153043.30143  24214182.273                    24214186.613
       865.805         674.879          37.600          19.600
 115234556.258 8  89793187.96745  21928414.867                    21928415.352
       877.125         683.718          48.500          35.000
 111354723.399 8  86769965.36246  21190106.945                    21190113.918
     -1883.426       -1467.353          51.100          40.600
 18  2 20  8  3 30.0000000  0  8G05G07G23G09G30G16G02G06
 124495856.454 7  97009792.13245  23690780.859                    23690785.605
      3283.824        2558.919          47.000          30.900
 113583917.768 8  88507001.41546  21614307.219                    21614310.852
      2250.320        1753.764          53.000          39.000
 118553250.105 8  92379196.07545  22559937.156                    22559939.219
     -2530.273       -1971.476          48.000          31.700
 106395213.232 8  82905439.44547  20246343.953                    20246349.676
     -1040.043        -810.200          52.800          44.900
 120692067.266 7  94045814.37745  22966938.531                    22966946.238
      3451.180        2689.354          47.600          32.800
 127220676.854 6  99133027.66743  24209294.508                    24209297.828
       846.590         659.958          39.200          20.100
 115208507.664 7  89772890.36445  21923457.172                    21923458.766
       859.293         669.893          47.400          34.800
 111411488.756 8  86814198.09646  21200909.156                    21200916.117
     -1901.004       -1481.034          50.700          40.500
 18  2 20  8  4  0.0000000  0  8G05G07G23G09G30G16G02G06
 124397390.595 7  96933065.49944  23672043.266                    23672047.738
      3280.598        2556.265          46.400          28.200
 113516615.259 8  88454557.89846  21601499.789                    21601503.633
      2236.449        1742.840          53.000          38.800
 118629244.238 8  92438412.26745  22574398.398                    22574400.684
     -2535.973       -1976.086          48.700          31.800
 106426601.214 8  82929897.61447  20252316.828                    20252322.535
     -1052.418        -819.988          52.600          44.700
 120588639.955 8  93965221.70645  22947257.617                    22947265.422
      3443.996        2683.677          48.500          34.100
 127195564.629 6  99113459.69743  24204516.000                    24204519.742
       827.473         645.054          39.500          21.800
 115182991.035 7  89753007.23745  21918601.875                    21918603.629
       841.828         656.116          46.800          35.100
 111468778.386 8  86858839.35046  21211810.828                    21211817.918
     -1918.211       -1494.563          50.900          40.400
 18  2 20  8  4 30.0000000  0  8G05G07G23G09G30G16G02G06
 124299029.781 7  96856420.69444  23653326.320                    23653330.477
      3276.832        2553.465          46.700          28.600
 113449736.001 8  88402444.20446  21588773.344                    21588777.488
      2222.176        1731.776          52.700          38.700
 118705417.680 7  92497768.16745  22588893.758                    22588896.301
     -2542.148       -1980.770          47.600          32.600
 106458367.680 8  82954650.69847  20258362.031                    20258367.453
     -1065.262        -829.862          53.500          44.400
 120485434.506 8  93884801.90745  22927618.508                    22927626.016
      3436.457        2677.842          48.000          32.300
 127171028.987 6  99094341.02543  24199847.297                    24199850.547
       808.184         630.024          40.700          21.700
 115158007.621 7  89733539.60545  21913848.039                    21913849.820
       823.898         642.211          47.900          35.100
 111526590.726 8  86903887.91046  21222812.102                    21222819.246
     -1935.789       -1508.176          51.900          40.900
 18  2 20  8  5  0.0000000  0  8G05G07G23G09G30G16G02G06
 124200774.984 7  96779858.50044  23634628.422                    23634632.680
      3273.266        2550.719          46.800          27.600
 113383280.796 8  88350660.93946  21576127.250                    21576131.652
      2207.945        1720.747          52.000          38.400
 118781768.021 8  92557261.90345  22603422.688                    22603425.355
     -2548.059       -1985.363          48.600          32.400
 106490510.459 8  82979697.02147  20264478.445                    20264484.199
     -1077.824        -839.610          53.200          44.700
 120382452.439 7  93804556.16945  22908020.914                    22908028.539
      3428.824        2672.002          47.800          31.500
 127147070.363 7  99075671.95643  24195288.297                    24195291.313
       788.863         615.030          42.100          21.700
 115133557.562 8  89714487.60545  21909195.555                    21909197.246
       805.918         628.346          49.400          35.700
 111584922.887 8  86949341.52746  21233912.461                    21233919.609
     -1953.215       -1521.641          51.400          41.000
 18  2 20  8  5 30.0000000  0  8G05G07G23G09G30G16G02G06
 124102628.311 7  96703380.56544  23615952.070                    23615956.445
      3269.910        2547.932          46.500          27.400
 113317252.117 8  88299210.03546  21563562.547                    21563566.910
      2193.898        1709.664          52.400          38.700
 118858295.046 7  92616893.33345  22617985.250                    22617987.785
     -2553.723       -1989.927          47.400          31.500
 106523029.137 8  83005036.23947  20270666.258                    20270672.734
     -1090.102        -849.335          51.900          44.500
 120279696.946 8  93724486.97245  22888467.195                    22888474.141
      3421.512        2666.117          48.800          33.400
 127123690.655 7  99057453.98943  24190839.055                    24190842.266
       769.777         600.016          42.000          19.900
 115109642.410 8  89695852.41645  21904644.164                    21904645.727
       788.348         614.453          49.300          35.700
 111643773.625 8  86995199.22746  21245111.305                    21245118.258
     -1970.195       -1535.065          50.300          40.200
 18  2 20  8  6  0.0000000  0  8G05G07G23G09G30G16G02G06
 124004591.139 7  96626987.95944  23597295.898                    23597300.168
      3266.109        2544.992          46.600          26.700
 113251651.997 8  88248093.06546  21551079.227                    21551083.375
      2179.539        1698.477          52.200          38.800
 118934997.975 8  92676661.82845  22632581.570                    22632583.883
     -2559.648       -1994.501          48.100          31.900
 106555922.923 8  83030667.75147  20276926.086                    20276931.719
     -1102.609        -859.109          53.500          44.900
 120177170.960 8  93644596.60345  22868957.594                    22868964.406
      3413.691        2660.097          48.100          33.600
 127100891.688 6  99039688.57443  24186499.984                    24186503.895
       750.340         584.867          40.500          19.600
 115086263.750 7  89677635.26245  21900195.359                    21900196.988
       770.406         600.479          47.800          35.000
 111703141.398 8  87041459.81346  21256408.797                    21256415.945
     -1987.453       -1548.510          51.500          40.100
 18  2 20  8  6 30.0000000  0  8G05G07G23G09G30G16G02G06
 123906665.732 7  96550682.41744  23578661.539                    23578665.395
      3262.371        2542.117          47.600          27.700
 113186482.112 8  88197311.33246  21538677.523                    21538681.664
      2165.160        1687.297          51.800          38.400
 119011875.433 7  92736566.32045  22647210.688                    22647213.359
     -2565.379       -1999.001          47.800          31.800
 106589190.437 8  83056590.48547  20283256.773                    20283262.766
     -1115.090        -868.774          53.200          45.000
 120074876.676 8  93564886.80345  22849490.945                    22849498.395
      3405.977        2654.064          48.500          32.600
 127078674.727 6  99022376.66643  24182272.977                    24182276.141
       730.781         569.722          39.900          19.000
 115063421.857 8  89659836.36945  21895848.555                    21895850.344
       752.559         586.548          48.400          34.600
 111763024.078 8  87088121.62446  21267803.711                    21267811.047
     -2004.598       -1561.847          51.500          40.300
 18  2 20  8  7  0.0000000  0  8G05G07G23G09G30G16G02G06
 123808853.370 7  96474464.99544  23560048.961                    23560053.230
      3258.527        2539.158          47.300          28.800
 113121744.168 8  88146866.18246  21526358.398                    21526362.383
      2150.676        1676.087          52.000          38.900
 119088926.191 8  92796605.84745  22661873.250                    22661875.813
     -2571.227       -2003.466          48.300          31.700
 106622830.817 8  83082803.75347  20289658.148                    20289664.090
     -1127.551        -878.427          52.900          45.200
 119972816.829 7  93485359.68545  22830069.484                    22830077.172
      3398.074        2647.954          47.300          31.800
 127057041.228 6  99005519.34343  24178155.703                    24178159.246
       711.414         554.600          40.400          20.600
 115041118.130 8  89642456.82445  21891604.891                    21891606.016
       734.512         572.584          48.000          35.200
 111823419.926 8  87135183.28246  21279297.023                    21279304.320
     -2021.727       -1575.129          51.200          39.900
 18  2 20  8  7 30.0000000  0  8G05G07G23G09G30G16G02G06
 123711155.671 7  96398336.91444  23541457.063                    23541461.152
      3254.676        2536.167          46.700          27.700
 113057439.979 8  88096759.03546  21514121.820                    21514125.652
      2136.301        1664.776          52.500          37.900
 119166148.779 7  92856779.27945  22676568.156                    22676570.344
     -2576.828       -2007.920          47.600          31.100
 106656842.582 8  83109306.42147  20296130.477                    20296136.695
     -1139.852        -888.062          53.600          45.000
 119870993.675 7  93406017.00045  22810693.203                    22810700.875
      3390.129        2641.776          47.600          31.800
 127035992.418 6  98989117.68943  24174150.578                    24174153.938
       691.918         539.369          40.300          19.000
 115019353.080 8  89625497.03746  21887463.430                    21887464.641
       716.594         558.568          48.800          36.100
 111884326.671 8  87182643.06046  21290887.297                    21290894.461
     -2038.656       -1588.378          51.100          40.800
 18  2 20  8  8  0.0000000  0  8G05G07G23G09G30G16G02G06
 123613574.123 7  96322299.34744  23522888.063                    23522892.191
      3250.816        2533.118          46.300          26.900
 112993571.583 8  88046991.46046  21501967.836                    21501971.645
      2121.719        1653.418          52.800          38.200
 119243542.463 7  92917086.01445  22691295.984                    22691298.473
     -2582.562       -2012.373          47.100          32.900
 106691224.718 8  83136097.68647  20302673.070                    20302679.270
     -1152.180        -897.692          52.500          44.500
 119769409.852 7  93326860.76345  22791362.945                    22791370.098
      3382.254        2635.518          47.500          33.500
 127015529.527 6  98973172.59643  24170256.305                    24170260.172
       672.289         524.107          40.000          21.100
 114998127.773 8  89608957.83445  21883423.680                    21883425.676
       698.621         544.509          49.500          35.900
 111945742.456 8  87230499.48346  21302574.180                    21302581.758
     -2055.531       -1601.585          49.700          39.400
 18  2 20  8  8 30.0000000  0  8G05G07G23G09G30G16G02G06
 123516109.901 7  96246353.17544  23504341.383                    23504345.168
      3246.930        2530.057          47.400          26.800
 112930140.660 8  87997564.77346  21489897.680                    21489901.777
      2107.102        1642.046          53.600          39.400
 119321106.819 7  92977525.75345  22706055.672                    22706058.602
     -2588.234       -2016.806          47.600          32.100
 106725976.478 8  83163176.97547  20309285.977                    20309292.598
     -1164.484        -907.284          53.400          44.900
 119668068.213 7  93247893.26545  22772078.320                    22772085.934
      3374.090        2629.192          47.000          32.800
 126995654.275 6  98957685.40943  24166473.305                    24166477.496
       652.734         508.824          37.900          20.100
 114977443.820 8  89592840.46645  21879487.289                    21879489.074
       680.582         530.436          48.000          35.700
 112007665.672 8  87278751.31446  21314357.727                    21314365.199
     -2072.414       -1614.752          50.500          40.000
 18  2 20  8  9  0.0000000  0  8G05G07G23G09G30G16G02G06
 123418765.342 7  96170500.28044  23485817.422                    23485821.328
      3242.832        2526.932          46.800          26.500
 112867148.957 8  87948480.34246  21477910.641                    21477914.898
      2092.375        1630.635          53.400          38.900
 119398839.904 7  93038096.96145  22720847.695                    22720850.461
     -2593.836       -2021.134          47.500          31.400
 106761096.462 8  83190543.19247  20315969.023                    20315975.578
     -1176.805        -916.812          53.700          44.900
 119566971.008 7  93169116.26145  22752839.344                    22752847.488
      3365.766        2622.821          44.700          33.600
 126976367.661 6  98942656.88943  24162803.617                    24162807.922
       633.203         493.554          39.900          20.900
 114957301.587 8  89577145.19245  21875654.805                    21875656.246
       662.414         516.376          49.000          35.700
 112070094.105 8  87327396.81746  21326237.578                    21326244.801
     -2089.363       -1627.827          52.000          39.900
 18  2 20  8  9 30.0000000  0  8G05G07G23G09G30G16G02G06
 123321542.281 7  96094742.04844  23467316.055                    23467320.023
      3238.805        2523.729          47.700          26.200
 112804597.645 8  87899739.07546  21466007.578                    21466011.773
      2077.652        1619.136          53.600          39.500
 119476740.340 7  93098798.57145  22735671.625                    22735673.938
     -2599.555       -2025.505          46.600          31.900
 106796583.298 8  83218195.24647  20322721.914                    20322728.066
     -1189.039        -926.341          51.700          44.900
 119466120.457 7  93090531.43145  22733648.570                    22733655.871
      3357.566        2616.365          46.800          33.800
 126957670.737 6  98928087.86143  24159245.945                    24159250.063
       613.113         478.204          38.600          21.100
 114937701.363 8  89561872.28546  21871925.305                    21871926.281
       644.363         502.266          49.900          36.400
 112133025.454 8  87376434.21946  21338213.117                    21338220.238
     -2106.074       -1640.903          50.200          39.700
 18  2 20  8 10  0.0000000  0  8G05G07G23G09G30G16G02G06
 123224441.332 7  96019078.95944  23448838.813                    23448841.961
      3234.688        2520.549          47.900          26.300
 112742488.588 8  87851342.41746  21454188.695                    21454192.969
      2062.926        1607.649          53.200          39.000
 119554807.064 7  93159629.75845  22750527.906                    22750529.336
     -2604.902       -2029.777          47.500          30.300
 106832435.811 8  83246132.26147  20329544.453                    20329550.594
     -1201.164        -935.823          52.800          44.500
 119365519.101 7  93012140.75345  22714505.063                    22714512.051
      3349.258        2609.858          47.600          33.400
 126939564.878 6  98913979.41043  24155800.641                    24155805.508
       593.699         462.856          39.300          20.900
 114918644.142 8  89547022.50046  21868299.078                    21868300.008
       626.207         488.172          50.300          36.200
 112196457.631 8  87425861.87846  21350283.570                    21350290.508
     -2122.648       -1653.865          50.600          39.600
 18  2 20  8 10 30.0000000  0  8G05G07G23G09G30G16G02G06
 123127464.498 8  95943512.59244  23430384.586                    23430388.781
      3230.453        2517.301          49.100          27.000
 112680823.434 8  87803291.66446  21442454.000                    21442458.051
      2048.047        1596.109          53.100          38.700
 119633039.215 7  93220589.85645  22765414.336                    22765416.516
     -2610.508       -2034.067          46.200          31.100
 106868652.938 8  83274353.38447  20336436.422                    20336442.047
     -1213.375        -945.257          52.300          44.400
 119265169.511 8  92933946.25745  22695409.477                    22695416.105
      3340.723        2603.299          48.400          34.400
 126922051.304 6  98900332.48043  24152467.406                    24152472.363
       573.863         447.490          39.200          20.600
 114900130.840 8  89532596.54846  21864775.875                    21864777.313
       608.031         474.029          50.200          36.200
 112260388.712 8  87475678.28346  21362449.742                    21362456.590
     -2139.398       -1666.792          49.900          40.200
 18  2 20  8 11  0.0000000  0  8G05G07G23G09G30G16G02G06
 123030613.070 8  95868043.95344  23411954.750                    23411958.355
      3226.258        2514.022          48.800          27.000
 112619604.203 8  87755588.37046  21430804.672                    21430807.934
      2033.305        1584.511          53.700          38.600
 119711435.859 7  93281678.11745  22780333.141                    22780335.074
     -2615.910       -2038.305          46.600          31.200
 106905233.846 8  83302857.98747  20343397.484                    20343403.328
     -1225.352        -954.694          53.000          44.500
 119165074.472 8  92855950.13645  22676361.602                    22676369.129
      3332.328        2596.676          48.200          34.600
 126905131.480 6  98887148.22143  24149247.219                    24149252.430
       554.148         432.018          39.500          21.100
 114882162.627 8  89518595.33146  21861356.430                    21861357.914
       589.891         459.862          49.300          36.300
 112324816.908 8  87525882.05646  21374709.922                    21374717.191
     -2155.883       -1679.677          50.000          40.200
 18  2 20  8 11 30.0000000  0  8G05G07G23G09G30G16G02G06
 122933889.385 8  95792674.84444  23393548.516                    23393552.605
      3221.977        2510.727          48.400          28.500
 112558832.069 8  87708233.45646  21419239.891                    21419243.973
      2018.230        1572.893          53.100          39.400
 119789995.414 7  93342893.31045  22795282.461                    22795284.934
     -2621.434       -2042.524          46.900          31.700
 106942176.852 8  83331644.73547  20350427.664                    20350433.160
     -1237.516        -964.083          52.100          44.700
 119065235.965 8  92778153.92945  22657363.328                    22657370.406
      3323.586        2589.978          48.900          34.700
 126888805.843 6  98874426.98843  24146141.453                    24146145.355
       534.348         416.598          39.800          21.500
 114864739.482 8  89505018.84046  21858041.242                    21858042.750
       571.660         445.724          49.700          36.500
 112389739.518 8  87576471.06346  21387064.391                    21387071.816
     -2172.285       -1692.467          48.700          40.400
 18  2 20  8 12  0.0000000  0  8G05G07G23G09G30G16G02G06
 122837295.128 7  95717406.60244  23375167.070                    23375171.207
      3217.586        2507.330          45.000          29.200
 112498508.987 8  87661228.45146  21407760.586                    21407764.605
      2003.250        1561.204          52.900          39.400
 119868716.975 7  93404234.76145  22810262.703                    22810264.961
     -2626.809       -2046.727          46.800          31.400
 106979481.060 9  83360712.95047  20357526.664                    20357531.883
     -1249.582        -973.454          54.300          44.400
 118965656.722 7  92700559.70745  22638414.500                    22638420.563
      3314.938        2583.225          47.300          34.300
 126873075.775 7  98862169.80743  24143148.695                    24143152.711
       514.352         401.101          42.200          22.600
 114847862.718 8  89491868.10546  21854829.563                    21854831.262
       553.391         431.510          49.600          37.000
 112455154.804 8  87627443.97246  21399512.070                    21399519.875
     -2188.680       -1705.242          50.200          39.500
 18  2 20  8 12 30.0000000  0  8G05G07G23G09G30G16G02G06
 122740831.715 8  95642240.30844  23356810.875                    23356815.074
      3213.168        2503.894          48.400          27.700
 112438636.431 8  87614574.50946  21396367.633                    21396371.473
      1988.094        1549.460          53.200          39.600
 119947599.493 7  93465701.63245  22825273.641                    22825275.816
     -2632.230       -2050.919          47.100          31.100
 107017145.226 9  83390061.64047  20364693.984                    20364699.340
     -1261.484        -982.799          54.400          45.200
 118866339.144 8  92623169.36445  22619514.875                    22619520.844
      3306.055        2576.366          49.300          34.400
 126857942.496 7  98850377.64043  24140268.906                    24140272.375
       494.477         385.569          42.300          22.200
 114831532.883 8  89479143.55646  21851722.273                    21851723.652
       535.164         417.280          50.500          38.100
 112521060.528 8  87678799.04346  21412053.734                    21412061.203
     -2205.152       -1717.993          48.500          39.400
 18  2 20  8 13  0.0000000  0  8G05G07G23G09G30G16G02G06
 122644500.268 7  95567176.84544  23338479.141                    23338483.184
      3208.918        2500.441          46.800          28.300
 112379215.661 8  87568272.62746  21385059.844                    21385064.074
      1973.285        1537.707          52.500          39.000
 120026641.632 7  93527292.89345  22840314.898                    22840316.551
     -2637.230       -2055.038          47.000          31.100
 107055168.066 8  83419689.82247  20371929.516                    20371935.449
     -1273.344        -992.101          53.700          45.000
 118767285.523 7  92545984.73045  22600664.313                    22600671.855
      3297.438        2569.478          46.900          33.600
 126843406.744 7  98839051.12043  24137501.914                    24137506.613
       474.672         370.018          42.100          22.200
 114815750.530 8  89466845.60346  21848718.758                    21848720.305
       517.066         403.053          49.900          37.500
 112587454.469 8  87730534.57446  21424688.047                    21424695.336
     -2221.160       -1730.637          50.300          39.000
 18  2 20  8 13 30.0000000  0  8G05G07G23G09G30G16G02G06
 122548303.109 7  95492218.03144  23320173.828                    23320177.422
      3204.359        2496.938          47.700          29.600
 112320248.611 8  87522324.28946  21373838.867                    21373843.168
      1958.023        1525.923          53.300          39.500
 120105842.347 7  93589007.70645  22855386.383                    22855388.301
     -2642.594       -2059.125          47.200          31.500
 107093548.510 9  83449596.65347  20379233.063                    20379239.367
     -1285.246       -1001.352          54.500          45.100
 118668498.482 8  92469007.84945  22581866.016                    22581873.820
      3288.383        2562.542          49.100          34.800
 126829469.852 6  98828191.17743  24134849.781                    24134854.309
       454.539         354.450          40.900          21.100
 114800516.523 8  89454974.94046  21845820.016                    21845821.465
       498.703         388.816          49.800          37.500
 112654334.509 8  87782648.87946  21437414.945                    21437422.418
     -2237.391       -1743.220          50.700          38.700
 18  2 20  8 14  0.0000000  0  8G05G07G23G09G30G16G02G06
 122452241.355 8  95417364.70844  23301893.617                    23301897.879
      3199.832        2493.371          48.400          28.400
 112261737.123 8  87476730.93646  21362704.375                    21362709.023
      1942.805        1514.022          53.200          39.100
 120185200.907 7  93650845.52245  22870487.555                    22870490.559
     -2647.848       -2063.240          46.200          31.400
 107132285.625 8  83479781.40747  20386604.203                    20386610.441
     -1297.145       -1010.630          52.600          45.000
 118569980.726 8  92392240.78345  22563119.289                    22563126.234
      3279.457        2555.486          49.400          35.400
 126816132.955 6  98817798.76143  24132313.258                    24132316.160
       434.629         338.896          38.800          20.900
 114785831.594 8  89443532.12746  21843025.539                    21843026.898
       480.414         374.515          49.400          37.600
 112721698.652 8  87835140.37446  21450233.938                    21450241.219
     -2253.395       -1755.791          49.600          39.500
 18  2 20  8 14 30.0000000  0  8G05G07G23G09G30G16G02G06
 122356316.870 7  95342618.35644  23283640.102                    23283644.441
      3195.230        2489.839          47.900          28.900
 112203682.709 8  87431493.76746  21351657.008                    21351661.141
      1927.625        1502.206          53.200          39.100
 120264715.996 7  93712805.28945  22885618.883                    22885621.734
     -2652.910       -2067.220          46.200          31.400
 107171378.091 9  83510243.05647  20394043.453                    20394049.438
     -1308.840       -1019.787          54.600          45.100
 118471734.536 7  92315685.30645  22544423.016                    22544429.988
      3270.422        2548.460          47.600          33.400
 126803396.959 6  98807874.61443  24129889.367                    24129892.230
       414.582         323.290          41.600          22.000
 114771696.552 8  89432517.80746  21840335.508                    21840337.438
       462.090         360.295          49.800          37.500
 112789544.630 8  87888007.32346  21463144.727                    21463152.395
     -2269.348       -1768.195          51.900          39.500
 18  2 20  8 15  0.0000000  0  8G05G07G23G09G30G16G02G06
 122260531.926 7  95267980.72645  23265412.867                    23265417.109
      3190.430        2486.162          47.800          30.800
 112146086.446 8  87386613.58046  21340696.656                    21340700.727
      1912.160        1490.250          53.100          38.900
 120344386.289 7  93774885.99745  22900779.727                    22900782.168
     -2658.367       -2071.283          45.800          30.000
 107210824.483 9  83540980.49647  20401549.906                    20401556.043
     -1320.934       -1029.022          55.000          45.200
 118373762.090 7  92239343.16345  22525778.766                    22525786.664
      3260.969        2541.268          47.000          33.300
 126791262.465 6  98798419.15243  24127580.000                    24127583.348
       394.395         307.626          40.400          22.200
 114758111.094 8  89421931.73246  21837750.813                    21837751.934
       443.559         345.970          49.600          37.900
 112857869.983 8  87941247.81546  21476146.766                    21476154.211
     -2285.535       -1780.681          51.200          39.800
 18  2 20  8 15 30.0000000  0  8G05G07G23G09G30G16G02G06
 122164887.558 8  95193452.65945  23247212.148                    23247216.480
      3185.781        2482.504          48.900          30.200
 112088950.457 8  87342092.04346  21329824.117                    21329828.148
      1896.789        1478.292          52.900          38.700
 120424211.014 7  93837087.07244  22915969.875                    22915971.586
     -2663.414       -2075.278          46.000          29.100
 107250624.156 9  83571993.22447  20409123.180                    20409129.543
     -1332.543       -1038.149          54.500          44.400
 118276066.331 7  92163216.62745  22507188.328                    22507195.570
      3251.793        2534.088          47.800          33.800
 126779730.939 6  98789433.54243  24125386.242                    24125388.250
       374.125         291.959          41.200          20.100
 114745076.676 8  89411775.03946  21835269.961                    21835271.727
       425.219         331.656          49.700          38.400
 112926672.961 8  87994860.48846  21489239.414                    21489246.715
     -2301.363       -1793.041          51.300          38.700
 18  2 20  8 16  0.0000000  0  8G05G07G23G09G30G16G02G06
 122069385.534 8  95119035.50345  23229038.703                    23229042.730
      3180.945        2478.736          48.100          31.800
 112032275.237 8  87297929.54546  21319038.875                    21319042.824
      1881.434        1466.252          53.300          38.700
 120504188.644 7  93899407.29045  22931189.344                    22931191.102
     -2668.449       -2079.276          45.500          30.500
 107290775.135 9  83603279.67947  20416763.883                    20416769.785
     -1344.230       -1047.306          54.500          44.600
 118178649.064 8  92087307.06145  22488651.258                    22488658.441
      3242.535        2526.769          49.400          35.000
 126768802.572 6  98780917.92843  24123305.969                    24123309.004
       354.109         276.205          41.800          20.100
 114732593.387 8  89402047.78146  21832894.281                    21832896.559
       406.871         317.291          49.400          38.100
 112995950.593 8  88048843.02946  21502422.445                    21502429.879
     -2317.230       -1805.379          49.800          38.900
 18  2 20  8 16 30.0000000  0  8G05G07G23G09G30G16G02G06
 121974028.029 8  95044730.94145  23210892.563                    23210897.016
      3176.027        2474.977          48.300          31.300
 111976062.975 8  87254127.79446  21308342.359                    21308346.113
      1865.867        1454.237          52.500          39.200
 120584318.426 7  93961846.04245  22946437.211                    22946439.797
     -2673.652       -2083.192          45.200          30.900
 107331276.840 8  83634839.44047  20424471.102                    20424476.531
     -1356.004       -1056.387          53.100          44.300
 118081513.185 8  92011616.79145  22470166.938                    22470173.809
      3232.977        2519.448          48.200          34.500
 126758478.633 6  98772873.27443  24121341.758                    24121343.789
       333.934         260.572          40.400          19.000
 114720661.844 8  89392750.46546  21830624.133                    21830625.871
       388.441         302.975          49.900          38.300
 113065701.184 8  88103194.11846  21515695.773                    21515702.746
     -2332.961       -1817.625          50.200          38.900
 18  2 20  8 17  0.0000000  0  8G05G07G23G09G30G16G02G06
 121878815.672 8  94970539.50145  23192774.445                    23192778.758
      3171.379        2471.191          49.100          31.500
 111920314.865 8  87210687.72446  21297733.742                    21297738.203
      1850.551        1442.141          53.000          38.600
 120664599.421 7  94024402.60945  22961714.625                    22961716.965
     -2678.457       -2087.117          45.200          30.600
 107372127.871 8  83666671.41747  20432244.953                    20432250.281
     -1367.453       -1065.458          52.800          44.100
 117984660.945 7  91936147.52545  22451735.992                    22451743.082
      3223.641        2512.037          47.900          34.000
 126748760.115 6  98765300.42042  24119492.070                    24119494.188
       313.781         244.768          40.400          17.800
 114709282.722 8  89383883.61946  21828458.703                    21828460.082
       370.020         288.576          49.300          37.900
 113135922.296 8  88157911.84446  21529058.398                    21529065.914
     -2348.449       -1829.841          49.200          39.200
 18  2 20  8 17 30.0000000  0  8G05G07G23G09G30G16G02G06
 121783751.120 8  94896463.23545  23174684.195                    23174688.297
      3166.234        2467.281          49.600          32.100
 111865032.742 8  87167610.75946  21287213.773                    21287218.047
      1834.867        1430.000          53.200          39.200
 120745030.758 7  94087076.35045  22977019.953                    22977022.582
     -2683.613       -2091.047          46.400          30.300
 107413327.218 8  83698774.80147  20440084.578                    20440089.691
     -1379.113       -1074.505          53.500          43.500
 117888094.908 8  91860901.28845  22433360.297                    22433367.184
      3214.070        2504.576          48.200          34.600
 126739647.637 6  98758199.78343  24117757.836                    24117760.422
       293.637         229.037          41.000          19.900
 114698456.825 8  89375447.85446  21826398.813                    21826399.680
       351.582         274.226          50.300          38.200
 113206611.753 8  88212994.51246  21542510.008                    21542517.340
     -2364.184       -1841.989          51.300          39.000
 18  2 20  8 18  0.0000000  0  8G05G07G23G09G30G16G02G06
 121688836.279 8  94822503.59745  23156622.523                    23156626.398
      3161.301        2463.409          49.500          32.100
 111810218.116 8  87124898.08646  21276783.133                    21276787.367
      1819.367        1417.847          53.300          39.700
 120825610.665 7  94149865.85945  22992354.008                    22992355.570
     -2688.449       -2094.872          46.100          30.400
 107454873.603 9  83731148.60847  20447990.820                    20447996.348
     -1390.633       -1083.499          54.800          44.300
 117791817.464 8  91785879.89845  22415039.602                    22415046.320
      3204.434        2497.038          49.700          35.700
 126731142.054 6  98751572.05443  24116139.867                    24116142.297
       273.371         213.265          40.900          19.300
 114688184.126 8  89367443.15546  21824444.109                    21824445.254
       333.203         259.836          49.700          37.400
 113277767.152 8  88268440.25846  21556050.602                    21556057.664
     -2379.551       -1854.050          50.800          38.100
 18  2 20  8 18 30.0000000  0  8G05G07G23G09G30G16G02G06
 121594072.497 8  94748661.70745  23138589.766                    23138593.996
      3156.227        2459.464          49.300          33.400
 111755871.981 8  87082550.47346  21266441.641                    21266445.766
      1803.621        1405.662          53.600          39.400
 120906338.323 7  94212770.50445  23007715.805                    23007717.758
     -2693.437       -2098.697          46.300          30.700
 107496765.758 9  83763791.83947  20455962.664                    20455968.809
     -1402.238       -1092.458          54.700          44.600
 117695830.888 8  91711085.17246  22396774.289                    22396781.281
      3194.680        2489.458          49.000          36.000
 126723243.835 6  98745417.56843  24114636.336                    24114639.477
       253.059         197.506          39.800          19.600
 114678465.414 8  89359870.13946  21822594.172                    21822595.754
       314.699         245.445          48.700          38.300
 113349386.159 8  88324247.24046  21569678.961                    21569686.789
     -2395.121       -1866.066          51.100          38.100
 18  2 20  8 19  0.0000000  0  8G05G07G23G09G30G16G02G06
 121499461.599 8  94674938.93345  23120586.188                    23120589.836
      3151.160        2455.493          48.900          33.400
 111701995.909 8  87040569.13646  21256189.336                    21256193.262
      1787.969        1393.488          53.500          39.400
 120987212.797 7  94275789.54944  23023105.813                    23023107.820
     -2698.266       -2102.458          46.200          29.900
 107539002.508 9  83796703.58647  20463999.969                    20464006.230
     -1413.684       -1101.377          54.300          44.900
 117600137.615 8  91636519.01945  22378564.078                    22378571.480
      3184.816        2481.851          48.300          35.500
 126715953.911 6  98739737.11443  24113249.141                    24113251.891
       232.820         181.690          40.300          19.900
 114669300.742 8  89352728.82646  21820850.547                    21820852.453
       296.301         231.094          48.900          38.500
 113421466.365 8  88380413.61646  21583395.664                    21583402.645
     -2410.328       -1877.980          51.300          38.300
 18  2 20  8 19 30.0000000  0  8G05G07G23G09G30G16G02G06
 121405004.873 8  94601336.30345  23102611.547                    23102615.180
      3145.934        2451.482          49.300          34.000
 111648591.419 8  86998955.27346  21246026.617                    21246030.578
      1772.277        1381.200          53.800          39.400
 121068232.990 7  94338922.12144  23038523.008                    23038525.180
     -2703.039       -2106.222          45.500          29.300
 107581582.698 9  83829882.93247  20472102.758                    20472109.215
     -1425.055       -1110.260          54.100          45.100
 117504740.072 8  91562183.32645  22360410.008                    22360417.762
      3174.977        2474.128          48.800          35.500
 126709273.077 6  98734531.26543  24111977.570                    24111980.957
       212.516         165.902          40.400          19.600
 114660690.666 8  89346019.66346  21819212.359                    21819213.914
       277.707         216.683          48.700          38.200
 113494005.566 8  88436937.64346  21597199.633                    21597206.801
     -2425.602       -1889.872          50.700          38.800
 18  2 20  8 20  0.0000000  0  8G05G07G23G09G30G16G02G06
 121310704.083 8  94527855.17345  23084666.781                    23084670.484
      3140.676        2447.413          49.000          33.300
 111595660.351 8  86957710.30046  21235953.969                    21235957.891
      1756.457        1368.897          53.300          39.600
 121149398.456 7  94402167.89445  23053968.914                    23053970.668
     -2707.953       -2109.979          45.000          30.200
 107624505.542 8  83863329.29547  20480270.867                    20480277.285
     -1436.508       -1119.165          53.600          44.600
 117409641.092 8  91488080.23145  22342314.023                    22342319.973
      3164.949        2466.356          48.700          35.300
 126703202.288 6  98729800.78543  24110822.211                    24110825.453
       192.125         150.035          38.300          19.600
 114652636.243 7  89339743.47346  21817679.594                    21817681.031
       259.188         202.249          47.800          38.900
 113567001.684 8  88493817.72246  21611089.984                    21611097.309
     -2440.941       -1901.690          49.800          38.800
 18  2 20  8 20 30.0000000  0  8G05G07G23G09G30G16G02G06
 121216561.065 8  94454496.99545  23066751.711                    23066755.992
      3135.496        2443.259          48.900          33.700
 111543203.509 8  86916834.86246  21225971.992                    21225975.676
      1740.598        1356.508          53.700          39.600
 121230707.568 7  94465525.63245  23069441.805                    23069443.250
     -2712.719       -2113.733          46.600          31.200
 107667769.419 9  83897041.40647  20488503.625                    20488509.965
     -1447.781       -1128.032          54.400          44.400
 117314842.666 8  91414211.30945  22324274.375                    22324280.520
      3154.891        2458.474          49.500          35.500
 126697741.793 6  98725545.83243  24109783.102                    24109786.531
       171.816         134.125          40.500          20.400
 114645137.301 8  89333900.14746  21816252.188                    21816254.043
       240.633         187.773          48.300          38.100
 113640452.054 8  88551051.75846  21625067.250                    21625074.484
     -2455.871       -1913.508          50.200          37.900
 18  2 20  8 21  0.0000000  0  8G05G07G23G09G30G16G02G06
 121122578.279 8  94381263.66545  23048867.469                    23048871.285
      3130.160        2439.097          49.300          34.400
 111491221.925 8  86876329.74646  21216079.883                    21216083.672
      1724.895        1344.214          53.000          39.700
 121312158.860 7  94528994.14145  23084941.164                    23084943.875
     -2717.262       -2117.364          45.700          30.400
 107711372.883 9  83931018.12247  20496801.094                    20496807.098
     -1458.945       -1136.786          54.300          44.500
 117220346.778 8  91340578.17345  22306291.586                    22306298.648
      3144.953        2450.641          48.600          35.100
 126692892.111 6  98721766.87343  24108860.805                    24108864.047
       151.605         118.320          41.200          20.400
 114638193.784 8  89328489.62446  21814930.727                    21814932.305
       222.285         173.401          49.100          38.400
 113714353.969 8  88608637.63546  21639130.289                    21639137.797
     -2470.781       -1925.139          51.100          38.000
 18  2 20  8 21 30.0000000  0  8G05G07G23G09G30G16G02G06
 121028757.416 8  94308156.51545  23031013.695                    23031017.559
      3124.566        2434.844          49.300          34.300
 111439717.420 8  86836196.37946  21206279.227                    21206283.184
      1708.785        1331.764          53.500          39.600
 121393751.798 7  94592573.00945  23100467.680                    23100470.297
     -2722.176       -2121.084          45.100          30.500
 107755315.205 9  83965258.89547  20505162.992                    20505168.719
     -1470.434       -1145.613          54.700          44.000
 117126156.459 8  91267183.14745  22288368.000                    22288375.234
      3134.484        2442.632          48.600          35.700
 126688654.375 6  98718464.73143  24108054.148                    24108057.352
       131.055         102.309          38.400          21.100
 114631806.629 7  89323512.60546  21813715.313                    21813717.332
       203.590         158.906          47.300          38.000
 113788705.491 8  88666573.86446  21653279.297                    21653286.430
     -2485.902       -1936.833          51.100          37.900
 18  2 20  8 22  0.0000000  0  8G05G07G23G09G30G16G02G06
 120935099.973 8  94235176.69345  23013191.266                    23013195.188
      3119.348        2430.618          48.800          34.900
 111388691.291 8  86796435.77746  21196569.039                    21196573.449
      1693.078        1319.354          53.200          39.200
 121475485.222 7  94656261.35644  23116021.367                    23116023.328
     -2726.621       -2124.685          45.400          29.900
 107799595.002 9  83999762.63547  20513588.961                    20513594.504
     -1481.453       -1154.344          55.200          44.000
 117032273.808 8  91194027.85846  22270503.297                    22270509.875
      3124.414        2434.633          50.000          36.200
 126685028.767 6  98715639.54443  24107364.383                    24107367.918
       110.902          86.485          41.000          21.100
 114625975.936 8  89318969.20246  21812606.148                    21812608.168
       185.270         144.473          48.200          39.300
 113863504.053 8  88724858.45046  21667512.703                    21667520.188
     -2500.535       -1948.411          51.000          37.800
 18  2 20  8 22 30.0000000  0  8G05G07G23G09G30G16G02G06
 120841606.932 8  94162324.98245  22995400.219                    22995404.145
      3113.672        2426.344          48.800          33.900
 111338144.624 8  86757048.78246  21186950.273                    21186954.387
      1676.855        1306.885          53.400          39.200
 121557358.186 7  94720058.46944  23131600.648                    23131603.289
     -2731.414       -2128.295          45.500          28.500
 107844211.107 9  84034528.43047  20522079.375                    20522084.668
     -1492.812       -1163.057          54.500          44.200
 116938701.235 8  91121114.16946  22252697.133                    22252703.438
      3113.957        2426.567          49.600          36.100
 126682015.765 6  98713291.75143  24106791.117                    24106794.426
        90.125          70.580          40.700          20.600
 114620701.801 8  89314859.47346  21811602.461                    21811604.711
       166.535         130.007          48.900          38.400
 113938747.180 8  88783489.43046  21681830.797                    21681838.152
     -2515.414       -1959.903          49.000          37.900
 18  2 20  8 23  0.0000000  0  8G05G07G23G09G30G16G02G06
 120748280.516 8  94089603.11245  22977640.859                    22977644.691
      3107.980        2421.906          49.100          35.300
 111288078.855 8  86718036.50446  21177423.258                    21177427.141
      1660.793        1294.311          53.400          40.200
 121639369.801 7  94783963.55444  23147207.211                    23147209.941
     -2736.102       -2131.922          46.400          29.600
 107889162.315 9  84069555.34447  20530633.422                    20530639.293
     -1503.973       -1171.795          54.500          44.200
 116845441.080 8  91048443.92845  22234949.789                    22234956.352
      3103.414        2418.371          49.700          35.800
 126679616.246 6  98711421.98743  24106334.133                    24106337.906
        69.648          54.602          37.900          20.100
 114615984.810 8  89311183.89446  21810704.906                    21810706.582
       147.926         115.488          48.300          38.600
 114014432.469 8  88842464.95546  21696233.289                    21696240.488
     -2530.199       -1971.399          49.900          37.100
 18  2 20  8 23 30.0000000  0  8G05G07G23G09G30G16G02G06
 120655123.462 8  94017013.20745  22959913.273                    22959918.023
      3102.426        2417.521          49.100          34.500
 111238495.179 8  86679399.88746  21167987.672                    21167991.652
      1644.766        1281.788          53.500          39.400
 121721518.794 7  94847975.71545  23162840.273                    23162842.609
     -2740.508       -2135.492          46.900          30.500
 107934447.377 9  84104842.39347  20539250.586                    20539257.234
     -1515.102       -1180.442          54.900          44.500
 116752495.661 8  90976018.95145  22217262.734                    22217269.949
      3092.945        2410.165          50.000          35.500
 126677830.222 6  98710030.28543  24105994.633                    24105998.391
        49.066          38.627          39.700          20.100
 114611825.009 8  89307942.49446  21809913.211                    21809914.840
       129.410         101.016          49.600          38.300
 114090557.456 8  88901783.10946  21710719.453                    21710726.535
     -2544.785       -1982.803          51.200          37.200
 18  2 20  8 24  0.0000000  0  8G05G07G23G09G30G16G02G06
 120562136.891 8  93944556.15245  22942218.766                    22942222.926
      3096.621        2413.068          50.400          34.600
