     2.11           OBSERVATION DATA    G (GPS)             RINEX VERSION / TYPE
teqc  2016Nov7                          20180328 12:23:34UTCPGM / RUN BY / DATE
Linux 2.4.21-27.ELsmp|Opteron|gcc|Linux x86_64|=+           COMMENT
teqc  2016Nov7                          20180328 12:23:33UTCCOMMENT
     2.11           OBSERVATION DATA    M (MIXED)           COMMENT
teqc  2016Nov7                          20180328 12:23:31UTCCOMMENT
teqc  2016Nov7      IGN-RGP             20180220 09:14:31UTCCOMMENT
teqc  2015Jun23     IGN-RGP             20180220 09:06:52UTCCOMMENT
Linux2.4.20-8|i386|gcc|Win32-MinGW32|=                      COMMENT
   0.000      (antenna height)                              COMMENT
 +48.74122643 (latitude)                                    COMMENT
  +3.11041611 (longitude)                                   COMMENT
0219.653      (elevation)                                   COMMENT
BIT 2 OF LLI FLAGS DATA COLLECTED UNDER A/S CONDITION       COMMENT
19602M001 (COGO code)                                       COMMENT
SXJ1                                                        MARKER NAME
19602M001                                                   MARKER NUMBER
Automatic           GIE COOP&TECH                           OBSERVER / AGENCY
4909K60865          TRIMBLE NETR5       4.70                REC # / TYPE / VERS
99999               TRM57971.00     NONE                    ANT # / TYPE
  4208047.3850   228666.9550  4771795.1550                  APPROX POSITION XYZ
        1.3000        0.0000        0.0000                  ANTENNA: DELTA H/E/N
     1     1                                                WAVELENGTH FACT L1/2
     7    L1    L2    C1    P1    P2    S1    S2            # / TYPES OF OBSERV
    30.0000                                                 INTERVAL
    18                                                      LEAP SECONDS
 SNR is mapped to RINEX snr flag value [0-9]                COMMENT
  L1 & L2: min(max(int(snr_dBHz/6), 0), 9)                  COMMENT
teqc_2016 edited: GLONASS # 25 - 30 excluded                COMMENT
Forced Modulo Decimation to 30 seconds                      COMMENT
teqc_2016 edited: all GLONASS satellites excluded           COMMENT
teqc_2016 edited: all SBAS satellites excluded              COMMENT
teqc_2016 edited: all Galileo satellites excluded           COMMENT
  2018     2    20     8     0    0.0000000     GPS         TIME OF FIRST OBS
                                                            END OF HEADER
 18  2 20  8  0  0.0000000  0  8G23G09G30G06G07G16G05G02
 118019821.996 8  91963545.43945  22458432.922                    22458435.496
        49.300          35.900
 106188944.531 8  82744691.16747  20207089.547                    20207095.766
        53.000          45.800
 121338626.703 7  94549630.74045  23089975.703                    23089983.020
        47.300          33.900
 111002811.618 8  86495758.76746  21123143.789                    21123151.332
        49.400          41.700
 113995775.106 8  88827940.82846  21692684.594                    21692689.293
        50.300          39.900
 127421950.255 6  99289883.30743  24247597.461                    24247601.379
        36.300          19.900
 125271608.664 7  97614275.42144  23838400.711                    23838405.227
        42.500          24.800
 115454976.771 7  89964957.97646  21970363.227                    21970364.469
        47.500          37.500
 18  2 20  8  0 30.0000000  0  8G23G09G30G06G07G16G05G02
 118094394.880 8  92021654.16545  22472623.492                    22472626.383
        50.000          35.600
 106217622.590 8  82767037.70547  20212546.711                    20212552.934
        52.300          46.400
 121233868.366 7  94468000.89745  23070040.656                    23070048.137
        47.200          34.400
 111056009.011 8  86537211.26546  21133266.711                    21133274.281
        48.900          41.800
 113925848.198 8  88773452.34346  21679377.609                    21679382.078
        50.200          39.200
 127393228.370 6  99267502.61443  24242132.594                    24242135.789
        37.100          20.400
 125172436.877 7  97536998.70044  23819529.453                    23819533.645
        42.300          25.600
 115425422.370 7  89941928.56846  21964738.953                    21964740.398
        45.700          37.700
 18  2 20  8  1  0.0000000  0  8G23G09G30G06G07G16G05G02
 118169153.813 8  92079907.86245  22486849.922                    22486852.234
        50.300          35.100
 106246684.698 8  82789683.49847  20218077.195                    20218083.305
        53.400          45.700
 121129315.378 7  94386531.06545  23050145.023                    23050152.555
        47.200          34.000
 111109742.339 8  86579081.37246  21143492.070                    21143499.266
        50.300          41.900
 113856332.032 8  88719283.91446  21666148.789                    21666153.684
        51.200          39.900
 127365071.520 6  99245562.21143  24236773.953                    24236777.438
        38.200          20.400
 125073357.360 7  97459793.89944  23800674.555                    23800679.223
        42.600          25.400
 115396392.706 7  89919308.04846  21959214.219                    21959215.977
        46.500          37.100
 18  2 20  8  1 30.0000000  0  8G23G09G30G06G07G16G05G02
 118244097.888 8  92138305.82945  22501111.078                    22501113.820
        48.100          34.300
 106276130.127 8  82812627.98547  20223680.656                    20223686.617
        52.400          46.200
 121024970.649 7  94305223.51445  23030288.672                    23030296.164
        47.500          34.400
 111164010.310 8  86621368.08546  21153818.820                    21153826.457
        48.500          41.700
 113787229.160 8  88665437.54146  21652999.414                    21653004.203
        50.100          39.500
 127337481.993 6  99224063.83143  24231523.563                    24231527.938
        37.600          21.500
 124974371.674 7  97382662.17944  23781838.992                    23781842.922
        42.900          26.000
 115367889.391 7  89897097.66246  21953790.375                    21953792.426
        46.700          37.600
 18  2 20  8  2  0.0000000  0  8G23G09G30G06G07G16G05G02
 118319225.681 8  92196846.94045  22515407.961                    22515409.910
        49.400          34.300
 106305957.464 8  82835870.05947  20229356.477                    20229362.629
        52.300          45.800
 120920836.367 7  94224079.95645  23010472.844                    23010480.301
        47.800          34.700
 111218810.826 8  86664069.77046  21164247.109                    21164254.586
        49.100          41.900
 113718540.886 8  88611914.22746  21639928.523                    21639932.969
        51.500          40.100
 127310461.155 6  99203008.68743  24226382.742                    24226386.414
        36.300          20.400
 124875481.236 7  97305604.68644  23763020.609                    23763024.855
        43.100          26.200
 115339912.766 7  89875297.69446  21948466.617                    21948468.340
        46.400          37.800
 18  2 20  8  2 30.0000000  0  8G23G09G30G06G07G16G05G02
 118394535.941 8  92255530.24845  22529738.422                    22529741.383
        49.500          34.100
 106336165.576 8  82859408.84047  20235104.805                    20235111.324
        52.500          45.900
 120816915.070 7  94143102.36045  22990696.992                    22990704.695
        47.800          34.400
 111274142.111 8  86707185.03946  21174775.695                    21174783.473
        49.500          41.400
 113650269.250 8  88558715.56346  21626937.242                    21626941.020
        51.600          39.800
 127284010.626 6  99182397.88643  24221348.258                    24221352.730
        39.900          21.500
 124776688.402 7  97228623.24844  23744220.734                    23744225.555
        44.000          27.600
 115312464.392 7  89853909.33946  21943243.469                    21943245.426
        47.200          37.600
 18  2 20  8  3  0.0000000  0  8G23G09G30G06G07G16G05G02
 118470027.778 8  92314355.04845  22544104.148                    22544106.645
        49.500          34.300
 106366753.539 8  82883243.60947  20240925.711                    20240932.254
        51.300          45.800
 120713209.460 8  94062292.82545  22970962.641                    22970969.602
        48.100          34.000
 111330002.555 8  86750712.64346  21185405.844                    21185413.945
        49.400          41.100
 113582416.348 8  88505843.18746  21614024.727                    21614028.957
        50.800          40.500
 127258132.089 5  99162232.75143  24216423.469                    24216427.836
        35.800          20.100
 124677994.437 7  97151718.86944  23725440.664                    23725444.648
        43.900          27.100
 115285545.711 7  89832933.73346  21938121.125                    21938122.691
        45.200          37.400
 18  2 20  8  3 30.0000000  0  8G23G09G30G06G07G16G05G02
 118545700.108 8  92373320.46945  22558504.383                    22558506.145
        48.600          33.900
 106397720.370 8  82907373.59847  20246818.563                    20246824.738
        52.700          46.100
 120609722.136 8  93981653.37045  22951269.383                    22951276.781
        48.300          34.400
 111386390.440 8  86794651.24946  21196136.406                    21196143.789
        49.200          41.600
 113514983.988 8  88453298.51746  21601192.406                    21601196.980
        52.200          40.500
 127232826.789 6  99142514.40343  24211607.922                    24211613.254
        37.900          20.900
 124579401.011 7  97074892.81744  23706678.539                    23706683.086
        44.100          27.800
 115259157.402 7  89812371.40546  21933099.281                    21933101.250
        47.500          37.400
 18  2 20  8  4  0.0000000  0  8G23G09G30G06G07G16G05G02
 118621551.438 8  92432425.38845  22572938.219                    22572940.578
        49.300          32.800
 106429064.774 8  82931797.80747  20252783.109                    20252789.621
        51.600          45.900
 120506455.485 8  93901185.88045  22931618.313                    22931625.641
        48.100          34.400
 111443303.802 8  86838999.29946  21206966.469                    21206973.695
        49.000          41.600
 113447973.851 8  88401082.84546  21588440.969                    21588445.426
        51.700          40.800
 127208096.233 6  99123243.83943  24206902.828                    24206906.230
        39.800          22.300
 124480908.857 7  96998145.67444  23687935.836                    23687940.441
        45.300          27.200
 115233300.502 8  89792223.16746  21928179.102                    21928180.949
        48.300          37.300
 18  2 20  8  4 30.0000000  0  8G23G09G30G06G07G16G05G02
 118697580.871 8  92491669.08345  22587406.023                    22587408.254
        48.300          32.900
 106460785.767 8  82956515.45847  20258819.336                    20258825.672
        52.100          46.000
 120403412.148 7  93820892.40045  22912010.023                    22912017.000
        47.200          34.200
 111500740.882 8  86883755.44746  21217896.320                    21217904.027
        48.400          41.700
 113381387.931 8  88349197.71746  21575770.297                    21575774.625
        52.300          40.200
 127183942.368 6  99104422.63043  24202306.094                    24202310.387
        40.900          22.000
 124382519.833 7  96921478.89144  23669213.211                    23669217.375
        43.900          27.100
 115207976.183 8  89772489.92846  21923359.836                    21923361.363
        48.600          37.700
 18  2 20  8  5  0.0000000  0  8G23G09G30G06G07G16G05G02
 118773786.834 7  92551050.32945  22601907.156                    22601909.492
        47.900          33.000
 106492882.016 8  82981525.52247  20264927.016                    20264933.223
        52.900          45.800
 120300594.459 7  93740774.74645  22892444.117                    22892451.520
        47.500          34.100
 111558699.639 8  86928918.09246  21228925.742                    21228933.395
        50.000          41.700
 113315227.823 8  88297644.40246  21563180.313                    21563184.313
        52.100          40.600
 127160366.368 6  99086051.69443  24197820.273                    24197824.063
        40.400          21.700
 124284235.829 7  96844893.95844  23650510.875                    23650514.891
        44.200          28.000
 115183185.460 7  89753172.47446  21918642.414                    21918644.008
        47.800          37.800
 18  2 20  8  5 30.0000000  0  8G23G09G30G06G07G16G05G02
 118850168.628 8  92610568.58145  22616442.570                    22616444.629
        48.500          32.600
 106525352.596 8  83006827.26247  20271106.133                    20271112.160
        52.700          45.800
 120198005.126 7  93660835.03745  22872922.484                    22872929.832
        47.800          34.800
 111617178.377 8  86974485.91546  21240053.727                    21240061.418
        49.700          41.600
 113249495.495 8  88246424.41246  21550672.289                    21550676.383
        52.300          40.500
 127137369.575 6  99068132.15943  24193444.055                    24193447.922
        39.600          22.200
 124186058.382 7  96768392.05944  23631828.047                    23631832.539
        44.500          28.300
 115158929.359 8  89734271.60646  21914026.172                    21914028.371
        48.400          37.600
 18  2 20  8  6  0.0000000  0  8G23G09G30G06G07G16G05G02
 118926724.886 8  92670222.78345  22631010.492                    22631012.609
        48.300          32.400
 106558196.147 8  83032419.63647  20277355.891                    20277362.262
        52.400          45.200
 120095646.412 7  93581075.03145  22853443.891                    22853451.500
        47.500          34.400
 111676174.957 8  87020457.25547  21251280.703                    21251288.199
        48.900          42.100
 113184192.430 8  88195538.92146  21538244.984                    21538249.535
        52.300          40.400
 127114953.314 6  99050664.94443  24189177.852                    24189181.859
        41.200          21.800
 124087988.294 7  96691973.81544  23613165.656                    23613170.328
        44.100          27.600
 115135208.886 7  89715788.11546  21909513.219                    21909514.895
        47.800          37.600
 18  2 20  8  6 30.0000000  0  8G23G09G30G06G07G16G05G02
 119003454.474 7  92730012.04445  22645611.719                    22645614.105
        47.800          31.600
 106591411.530 8  83058301.74247  20283676.539                    20283682.418
        52.500          45.800
 119993520.804 7  93501496.66645  22834010.273                    22834017.332
        47.300          34.300
 111735687.475 8  87066830.62147  21262605.484                    21262612.938
        49.600          42.000
 113119320.451 8  88144989.33746  21525900.297                    21525904.680
        51.400          40.000
 127093119.055 7  99033651.20843  24185023.031                    24185026.668
        42.200          23.000
 123990028.041 7  96615641.13544  23594524.305                    23594528.855
        43.400          28.400
 115112024.551 7  89697722.38746  21905100.977                    21905102.570
        47.800          37.700
 18  2 20  8  7  0.0000000  0  8G23G09G30G06G07G16G05G02
 119080356.017 8  92789935.29345  22660245.906                    22660247.707
        48.400          32.800
 106624997.696 8  83084472.77247  20290068.078                    20290074.258
        52.800          45.800
 119891630.915 7  93422101.97445  22814620.648                    22814628.156
        47.000          34.500
 111795714.010 8  87113604.51647  21274028.195                    21274036.164
        49.800          42.400
 113054881.141 8  88094776.89346  21513637.867                    21513642.234
        52.300          39.400
 127071868.096 6  99017092.03143  24180979.156                    24180983.016
        39.900          21.700
 123892178.738 7  96539394.93344  23575904.875                    23575908.797
        43.500          28.000
 115089377.590 8  89680075.39546  21900791.289                    21900793.348
        48.000          37.500
 18  2 20  8  7 30.0000000  0  8G23G09G30G06G07G16G05G02
 119157428.328 7  92849991.61345  22674912.406                    22674914.359
        47.900          32.300
 106658953.484 8  83110931.81947  20296529.273                    20296535.754
        53.200          45.800
 119789979.189 7  93342892.85345  22795277.586                    22795284.793
        46.700          34.700
 111856252.648 8  87160777.44747  21285548.367                    21285556.184
        50.200          42.200
 112990876.512 8  88044903.15146  21501458.328                    21501462.785
        51.800          40.200
 127051201.861 6  99000988.47443  24177046.938                    24177049.777
        40.400          22.000
 123794442.321 7  96463236.67844  23557305.750                    23557309.898
        42.400          27.100
 115067268.845 7  89662847.78646  21896584.188                    21896585.844
        47.900          37.700
 18  2 20  8  8  0.0000000  0  8G23G09G30G06G07G16G05G02
 119234670.660 7  92910180.42445  22689611.047                    22689613.586
        47.700          32.300
 106693277.835 8  83137678.06347  20303061.461                    20303067.375
        52.100          45.700
 119688568.260 7  93263871.37545  22775979.680                    22775986.637
        46.700          35.500
 111917301.501 8  87208347.96946  21297165.961                    21297173.133
        49.000          41.500
 112927308.657 8  87995369.76046  21489361.555                    21489365.941
        51.200          40.100
 127031121.630 6  98985341.56743  24173225.609                    24173228.723
        41.200          21.100
 123696820.206 7  96387167.49744  23538728.539                    23538733.086
        43.200          28.200
 115045699.355 7  89646040.38446  21892479.828                    21892481.379
        47.000          37.700
 18  2 20  8  8 30.0000000  0  8G23G09G30G06G07G16G05G02
 119312082.329 7  92970501.16445  22704342.320                    22704344.230
        47.900          32.600
 106727969.729 8  83164710.69847  20309662.797                    20309669.418
        53.700          46.000
 119587400.722 8  93185039.54046  22756727.758                    22756735.531
        48.300          36.200
 111978858.653 8  87256314.55546  21308879.883                    21308887.348
        50.700          41.500
 112864178.918 8  87946177.76146  21477348.539                    21477352.770
        52.000          39.400
 127011628.794 6  98970152.34543  24169516.883                    24169520.289
        41.000          21.700
 123599313.297 7  96311188.10044  23520173.828                    23520178.480
        44.800          27.300
 115024670.423 8  89629654.18646  21888478.141                    21888479.852
        48.400          37.500
 18  2 20  8  9  0.0000000  0  8G23G09G30G06G07G16G05G02
 119389661.557 8  93030952.48945  22719105.016                    22719107.043
        48.300          33.000
 106763027.957 8  83192028.78647  20316334.031                    20316340.621
        52.500          45.800
 119486478.999 7  93106399.26845  22737522.570                    22737530.504
        47.100          35.800
 112040922.104 8  87304675.67947  21320690.047                    21320697.465
        50.900          42.400
 112801489.214 8  87897328.63746  21465419.141                    21465423.266
        51.500          39.300
 126992724.540 7  98955421.74543  24165918.469                    24165922.906
        42.000          22.300
 123501924.119 7  96235300.44344  23501641.156                    23501645.563
        43.400          27.300
 115004182.637 7  89613689.66646  21884579.570                    21884581.148
        47.200          37.600
 18  2 20  8  9 30.0000000  0  8G23G09G30G06G07G16G05G02
 119467407.011 8  93091533.33745  22733899.547                    22733901.875
        48.100          32.100
 106798451.189 8  83219631.29247  20323075.070                    20323081.715
        53.000          46.400
 119385805.353 8  93027952.27945  22718365.828                    22718373.063
        48.500          35.700
 112103489.549 8  87353429.52047  21332596.266                    21332603.914
        50.800          42.200
 112739240.739 8  87848823.34146  21453573.586                    21453577.910
        52.400          39.400
 126974409.880 7  98941150.57843  24162432.922                    24162437.086
        42.000          22.000
 123404654.544 7  96159505.97244  23483131.430                    23483135.367
        45.600          28.400
 114984236.324 8  89598147.07246  21880784.000                    21880785.293
        48.400          38.200
 18  2 20  8 10  0.0000000  0  8G23G09G30G06G07G16G05G02
 119545317.242 8  93152242.57945  22748725.586                    22748727.789
        48.300          32.400
 106834237.765 8  83247516.93447  20329884.719                    20329891.250
        51.500          45.700
 119285381.811 8  92949700.17646  22699255.602                    22699262.992
        48.500          37.300
 112166558.481 8  87402574.12247  21344597.930                    21344605.328
        48.600          42.500
 112677434.953 8  87800662.99246  21441812.313                    21441816.770
        51.900          38.900
 126956685.748 6  98927339.54843  24159061.555                    24159064.410
        41.700          21.500
 123307504.716 7  96083804.79644  23464644.453                    23464648.430
        45.700          28.800
 114964832.058 8  89583026.85146  21877091.469                    21877093.152
        48.800          37.500
 18  2 20  8 10 30.0000000  0  8G23G09G30G06G07G16G05G02
 119623391.826 7  93213079.88145  22763582.656                    22763584.602
        47.100          32.400
 106870387.183 8  83275685.30147  20336764.039                    20336770.547
        51.400          46.000
 119185211.466 8  92871645.37946  22680194.180                    22680201.148
        48.100          36.300
 112230127.456 8  87452108.36647  21356694.789                    21356702.254
        49.000          42.400
 112616073.958 8  87752849.23046  21430135.727                    21430139.930
        51.500          38.800
 126939553.859 6  98913990.02943  24155800.789                    24155804.504
        40.500          22.600
 123210477.114 7  96008198.88244  23446180.422                    23446185.137
        46.000          29.100
 114945971.234 8  89568330.09046  21873502.383                    21873504.000
        48.600          38.000
 18  2 20  8 11  0.0000000  0  8G23G09G30G06G07G16G05G02
 119701629.850 7  93274044.54845  22778470.773                    22778473.059
        47.100          32.700
 106906898.571 8  83304135.72447  20343711.906                    20343718.043
        52.800          45.900
 119085297.135 8  92793790.05346  22661180.992                    22661188.277
        48.400          37.200
 112294194.704 8  87502030.85847  21368886.063                    21368894.098
        50.200          42.300
 112555159.738 8  87705383.61046  21418544.047                    21418547.910
        52.600          39.300
 126923015.582 7  98901103.12343  24152654.547                    24152658.270
        42.000          21.800
 123113573.049 7  95932689.23344  23427740.656                    23427744.820
        46.800          28.900
 114927654.996 8  89554057.68946  21870017.039                    21870018.035
        49.000          37.600
 18  2 20  8 11 30.0000000  0  8G23G09G30G06G07G16G05G02
 119780029.874 7  93335135.44745  22793389.414                    22793392.027
        47.500          33.600
 106943770.397 8  83332867.00947  20350728.609                    20350734.719
        53.400          45.600
 118985640.894 8  92716135.84346  22642216.836                    22642224.277
        48.100          37.100
 112358757.733 8  87552339.66747  21381172.453                    21381180.223
        51.000          42.000
 112494693.610 8  87658267.15846  21407037.859                    21407042.043
        52.100          39.500
 126907071.664 6  98888679.26343  24149619.695                    24149623.859
        40.900          22.800
 123016795.023 7  95857277.78844  23409323.945                    23409328.055
        45.800          29.200
 114909883.531 8  89540209.77946  21866635.008                    21866636.461
        48.000          37.600
 18  2 20  8 12  0.0000000  0  8G23G09G30G06G07G16G05G02
 119858590.948 7  93396351.83545  22808339.484                    22808341.652
        47.800          32.200
 106981001.658 8  83361878.37647  20357813.148                    20357819.559
        52.900          45.600
 118886245.335 8  92638684.76846  22623302.586                    22623310.086
        48.600          36.900
 112423814.660 8  87603033.36546  21393552.172                    21393559.578
        49.100          41.600
 112434677.399 8  87611501.29546  21395617.336                    21395621.379
        52.200          39.600
 126891723.240 6  98876719.44343  24146699.250                    24146702.563
        41.100          20.600
 122920144.550 7  95781965.73845  23390932.031                    23390936.742
        47.200          30.100
 114892658.014 8  89526787.28146  21863357.297                    21863358.820
        48.800          37.900
 18  2 20  8 12 30.0000000  0  8G23G09G30G06G07G16G05G02
 119937312.038 7  93457692.92845  22823319.438                    22823322.578
        47.000          32.800
 107018591.198 8  83391168.91347  20364966.258                    20364972.457
        52.500          45.200
 118787112.976 8  92561438.77546  22604438.438                    22604445.848
        48.500          37.000
 112489363.342 8  87654110.25146  21406025.852                    21406033.414
        48.300          41.500
 112375112.623 8  87565087.19346  21384282.492                    21384286.605
        52.700          40.200
 126876971.593 6  98865224.66843  24143891.766                    24143896.066
        39.600          20.900
 122823623.123 7  95706754.24244  23372565.148                    23372569.023
        46.500          28.800
 114875979.109 8  89513790.72746  21860183.055                    21860184.930
        48.500          37.300
 18  2 20  8 13  0.0000000  0  8G23G09G30G06G07G16G05G02
 120016191.853 7  93519157.69445  22838330.172                    22838332.719
        47.900          32.700
 107056537.692 8  83420737.60347  20372187.133                    20372193.340
        52.400          45.900
 118688246.100 8  92484399.66046  22585624.570                    22585631.941
        49.400          37.600
 112555401.443 8  87705568.48846  21418592.258                    21418599.941
        48.300          41.600
 112316000.533 8  87519025.83346  21373033.563                    21373037.699
        53.000          40.500
 126862817.459 6  98854195.47443  24141198.227                    24141202.156
        39.000          21.300
 122727231.863 7  95631644.16744  23354222.547                    23354226.434
        46.600          29.400
 114859847.305 7  89501220.47646  21857113.391                    21857115.262
        47.600          37.800
 18  2 20  8 13 30.0000000  0  8G23G09G30G06G07G16G05G02
 120095229.051 7  93580745.09145  22853370.375                    22853373.289
        46.000          33.300
 107094839.850 8  83450583.43347  20379476.047                    20379482.215
        51.200          45.700
 118589647.056 7  92407569.24246  22566861.484                    22566869.520
        47.100          37.700
 112621926.629 7  87757406.24446  21431251.289                    21431258.945
        47.300          41.000
 112257342.799 8  87473318.51846  21361871.602                    21361876.035
        53.000          40.600
 126849261.828 6  98843632.64543  24138618.367                    24138623.391
        40.200          20.400
 122630972.808 7  95556637.10045  23335904.508                    23335909.160
        43.100          30.000
 114844263.272 8  89489077.05646  21854147.930                    21854149.590
        48.200          37.800
 18  2 20  8 14  0.0000000  0  8G23G09G30G06G07G16G05G02
 120174423.186 7  93642454.77945  22868440.063                    22868442.906
        47.400          32.800
 107133496.974 9  83480705.85347  20386832.203                    20386838.242
        54.300          45.500
 118491318.728 8  92330949.77546  22548150.703                    22548157.570
        49.700          38.100
 112688937.276 8  87809622.28946  21444003.391                    21444010.723
        49.500          41.000
 112199141.471 8  87427966.84446  21350796.078                    21350800.293
        52.600          41.100
 126836306.193 6  98833537.37443  24136153.492                    24136157.375
        39.900          20.900
 122534847.337 7  95481734.14045  23317612.336                    23317616.922
        46.600          30.200
 114829227.972 8  89477361.22646  21851286.672                    21851288.406
        48.200          37.300
 18  2 20  8 14 30.0000000  0  8G23G09G30G06G07G16G05G02
 120253772.965 7  93704285.75445  22883539.984                    22883542.957
        45.700          32.800
 107172507.769 8  83511103.86947  20394255.547                    20394261.848
        53.400          45.500
 118393263.456 8  92254543.08046  22529491.250                    22529498.953
        49.400          38.700
 112756431.055 8  87862214.81846  21456847.070                    21456854.125
        49.800          40.500
 112141398.064 8  87382971.99546  21339808.125                    21339812.402
        52.800          41.000
 126823951.379 6  98823910.24343  24133802.516                    24133805.539
        39.800          20.100
 122438857.335 7  95406936.73345  23299346.266                    23299350.727
        45.700          30.400
 114814742.251 8  89466073.64046  21848529.891                    21848531.578
        48.000          37.100
 18  2 20  8 15  0.0000000  0  8G23G09G30G06G07G16G05G02
 120333276.905 7  93766236.85445  22898669.109                    22898671.840
        45.800          32.700
 107211870.716 9  83541776.28447  20401746.242                    20401752.625
        54.700          45.500
 118295483.353 8  92178350.80146  22510883.875                    22510891.586
        49.800          38.400
 112824405.381 8  87915181.79146  21469782.133                    21469789.430
        51.000          41.200
 112084113.553 8  87338334.73546  21328907.133                    21328911.504
        52.300          40.600
 126812197.886 6  98814751.69743  24131564.984                    24131569.277
        39.400          20.900
 122343004.968 7  95332246.57845  23281106.227                    23281110.727
        45.900          30.400
 114800805.717 8  89455213.99346  21845878.531                    21845879.547
        48.800          37.300
 18  2 20  8 15 30.0000000  0  8G23G09G30G06G07G16G05G02
 120412934.329 7  93828307.55645  22913827.344                    22913830.199
        45.800          32.400
 107251585.118 8  83572722.56347  20409303.727                    20409309.789
        53.600          45.300
 118197981.294 8  92102375.17646  22492330.109                    22492337.406
        49.800          38.600
 112892858.540 8  87968521.88746  21482808.500                    21482815.711
        50.300          40.700
 112027290.052 8  87294056.70346  21318093.508                    21318097.969
        52.100          40.800
 126801047.260 7  98806062.82143  24129444.117                    24129447.859
        42.300          20.100
 122247291.193 7  95257664.42044  23262892.766                    23262897.004
        45.200          29.700
 114787419.773 7  89444783.37846  21843330.977                    21843332.633
        47.800          37.100
 18  2 20  8 16  0.0000000  0  8G23G09G30G06G07G16G05G02
 120492743.678 7  93890496.63445  22929014.469                    22929017.734
        45.500          32.800
 107291649.091 8  83603941.23547  20416927.891                    20416933.871
        53.600          45.900
 118100759.037 8  92026617.58746  22473829.438                    22473836.691
        48.500          38.100
 112961787.526 8  88022232.75246  21495925.516                    21495932.895
        49.500          40.500
 111970928.008 8  87250138.25146  21307368.094                    21307372.910
        52.400          40.700
 126790499.474 6  98797843.81643  24127436.820                    24127440.039
        40.400          20.100
 122151717.854 7  95183191.69445  23244705.680                    23244710.070
        45.000          30.500
 114774584.566 7  89434781.90346  21840888.547                    21840890.207
        47.600          36.900
 18  2 20  8 16 30.0000000  0  8G23G09G30G06G07G16G05G02
 120572704.309 7  93952803.58545  22944231.070                    22944233.602
        45.100          32.100
 107332062.123 9  83635431.90247  20424617.789                    20424624.234
        54.000          45.900
 118003819.629 8  91951080.40246  22455382.469                    22455389.719
        49.900          38.000
 113031190.792 8  88076313.18546  21509132.078                    21509139.164
        49.800          40.400
 111915029.777 8  87206581.20846  21296731.125                    21296735.574
        52.500          40.800
 126780556.066 6  98790095.73643  24125544.492                    24125548.371
        36.900          19.900
 122056287.233 7  95108830.17145  23226545.250                    23226549.793
        46.700          30.200
 114762300.855 7  89425210.17246  21838551.164                    21838552.848
        47.100          36.800
 18  2 20  8 17  0.0000000  0  8G23G09G30G06G07G16G05G02
 120652815.149 7  94015227.59845  22959474.906                    22959477.660
        45.800          32.100
 107372822.661 9  83667193.35347  20432374.484                    20432380.688
        54.100          45.500
 117907165.230 8  91875765.30246  22436989.914                    22436997.020
        49.900          38.000
 113101065.748 8  88130761.16846  21522429.039                    21522436.238
        48.900          40.300
 111859596.355 8  87163386.34646  21286182.828                    21286186.887
        51.900          41.200
 126771217.809 6  98782819.18343  24123767.383                    24123771.125
        39.200          19.300
 121960999.792 7  95034580.22745  23208413.375                    23208418.109
        46.100          30.100
 114750569.148 7  89416068.57746  21836318.789                    21836319.918
        47.300          36.900
 18  2 20  8 17 30.0000000  0  8G23G09G30G06G07G16G05G02
 120733075.387 7  94077768.01945  22974748.281                    22974750.930
        46.400          31.900
 107413929.791 8  83699224.87647  20440196.625                    20440203.441
        53.900          45.900
 117810798.397 8  91800674.27546  22418651.898                    22418659.125
        48.300          38.200
 113171410.309 8  88185575.09246  21535815.156                    21535822.324
        50.200          40.500
 111804629.608 8  87120555.12346  21275722.594                    21275727.188
        52.600          40.900
 126762485.396 6  98776014.68843  24122105.547                    24122109.363
        40.200          21.500
 121865858.196 7  94960443.93145  23190308.008                    23190312.738
        44.900          31.400
 114739390.315 7  89407357.78446  21834191.211                    21834193.164
        47.000          37.300
 18  2 20  8 18  0.0000000  0  8G23G09G30G06G07G16G05G02
 120813483.268 7  94140423.47045  22990049.266                    22990051.984
        45.800          32.100
 107455382.167 9  83731525.43347  20448084.805                    20448091.164
        54.100          45.300
 117714721.462 8  91725809.14046  22400368.547                    22400375.824
        49.600          37.400
 113242222.022 8  88240753.03146  21549289.875                    21549297.652
        49.800          40.200
 111750130.968 8  87078088.65246  21265352.008                    21265356.418
        53.200          41.100
 126754359.544 6  98769682.85443  24120559.000                    24120562.113
        40.800          20.400
 121770864.367 7  94886422.76745  23172231.453                    23172235.789
        47.600          31.400
 114728764.296 7  89399077.76646  21832168.797                    21832170.625
        46.900          37.500
 18  2 20  8 18 30.0000000  0  8G23G09G30G06G07G16G05G02
 120894038.017 7  94203193.38645  23005378.289                    23005380.969
        46.300          30.900
 107497178.607 9  83764094.08047  20456038.438                    20456044.801
        54.100          45.500
 117618936.783 8  91651171.75046  22382141.398                    22382148.676
        49.700          37.400
 113313498.579 8  88296293.18246  21562853.461                    21562860.926
        49.900          40.400
 111696101.576 8  87035987.85146  21255070.820                    21255074.832
        52.700          41.100
 126746840.906 6  98763824.18643  24119128.328                    24119131.211
        40.200          20.900
 121676019.704 7  94812517.83845  23154182.844                    23154187.551
        47.800          31.100
 114718691.979 7  89391229.19846  21830252.305                    21830254.484
        47.300          37.500
 18  2 20  8 19  0.0000000  0  8G23G09G30G06G07G16G05G02
 120974738.555 7  94266076.88045  23020735.133                    23020737.465
        46.100          30.900
 107539317.794 9  83796929.80547  20464057.406                    20464063.625
        54.500          44.600
 117523446.655 8  91576763.86846  22363970.289                    22363977.707
        49.400          37.100
 113385237.493 8  88352193.61646  21576505.289                    21576512.691
        50.200          40.100
 111642542.827 8  86994253.78046  21244878.773                    21244883.207
        53.400          41.000
 126739930.184 6  98758439.18743  24117813.258                    24117816.426
        37.900          19.900
 121581325.863 7  94738730.43245  23136163.563                    23136168.129
        47.500          31.400
 114709173.253 7  89383812.00346  21828441.305                    21828443.293
        46.600          37.100
 18  2 20  8 19 30.0000000  0  8G23G09G30G06G07G16G05G02
 121055583.822 7  94329073.16845  23036119.391                    23036121.949
        45.800          31.700
 107581798.619 9  83830031.74047  20472141.016                    20472147.762
        54.500          45.300
 117428253.555 8  91502587.44846  22345855.547                    22345862.406
        49.700          37.400
 113457436.593 8  88408452.63446  21590244.406                    21590251.711
        50.300          40.300
 111589456.230 8  86952887.62846  21234776.672                    21234780.645
        53.400          41.600
 126733628.150 6  98753528.49743  24116614.203                    24116617.836
        38.600          21.800
 121486784.206 7  94665061.60645  23118172.484                    23118176.766
        47.600          31.600
 114700208.710 7  89376826.64046  21826734.773                    21826737.066
        46.500          37.300
 18  2 20  8 20  0.0000000  0  8G23G09G30G06G07G16G05G02
 121136573.393 7  94392181.89745  23051531.172                    23051533.984
        46.900          31.700
 107624620.286 9  83863399.26747  20480289.633                    20480295.957
        54.100          45.200
 117333360.235 8  91428644.61546  22327798.141                    22327805.488
        49.000          37.500
 113530093.789 8  88465068.60746  21604070.516                    21604078.215
        49.600          39.900
 111536843.595 8  86911890.78646  21224765.070                    21224769.035
        53.000          41.300
 126727935.811 6  98749092.92043  24115530.461                    24115534.336
        40.200          21.100
 121392396.471 7  94591512.73645  23100211.430                    23100215.945
        47.100          30.900
 114691799.456 7  89370273.97246  21825135.086                    21825137.063
        47.000          37.400
 18  2 20  8 20 30.0000000  0  8G23G09G30G06G07G16G05G02
 121217705.732 7  94455401.86645  23066970.570                    23066972.805
        46.800          31.800
 107667781.276 9  83897031.20147  20488503.047                    20488509.363
        54.300          45.300
 117238768.777 8  91354937.00946  22309797.625                    22309805.141
        49.800          37.300
 113603206.458 8  88522039.50246  21617983.406                    21617990.859
        49.200          39.900
 111484705.737 8  86871263.89946  21214843.539                    21214847.578
        53.300          41.100
 126722853.442 6  98745132.65143  24114563.633                    24114567.488
        40.200          22.200
 121298164.537 7  94518085.25845  23082279.641                    23082283.898
        47.500          31.800
 114683945.370 7  89364153.89846  21823640.406                    21823642.418
        47.000          37.400
 18  2 20  8 21  0.0000000  0  8G23G09G30G06G07G16G05G02
 121298979.618 7  94518732.14445  23082436.297                    23082439.242
        46.600          30.400
 107711280.342 8  83930926.56747  20496780.734                    20496787.309
        53.800          45.400
 117144481.485 8  91281466.40446  22291855.453                    22291862.945
        49.500          37.000
 113676772.179 8  88579363.42446  21631982.352                    21631989.824
        49.400          39.400
 111433044.013 8  86831008.02246  21205012.594                    21205016.668
        52.600          41.500
 126718381.821 6  98741648.26243  24113712.422                    24113716.395
        41.300          22.200
 121204091.138 7  94444781.30945  23064377.984                    23064382.324
        47.200          31.200
 114676646.652 7  89358466.58346  21822251.648                    21822253.395
        46.300          37.100
 18  2 20  8 21 30.0000000  0  8G23G09G30G06G07G16G05G02
 121380394.147 7  94582171.99345  23097929.250                    23097932.051
        46.800          31.500
 107755116.473 8  83965084.58947  20505122.461                    20505128.734
        53.900          44.500
 117050500.899 8  91208234.78746  22273971.438                    22273978.777
        48.700          37.500
 113750788.639 8  88637038.56246  21646067.086                    21646074.484
        48.700          38.600
 111381859.852 8  86791124.28146  21195272.484                    21195276.758
        52.300          41.600
 126714521.590 6  98738640.30343  24112978.422                    24112982.988
        40.700          22.800
 121110177.591 7  94371601.91245  23046506.797                    23046511.125
        47.000          30.800
 114669903.896 7  89353212.48446  21820968.727                    21820970.242
        45.700          37.000
 18  2 20  8 22  0.0000000  0  8G23G09G30G06G07G16G05G02
 121461948.434 7  94645720.75745  23113448.648                    23113450.570
        46.300          30.700
 107799288.500 8  83999504.34347  20513528.406                    20513534.535
        53.400          45.000
 116956829.447 8  91135244.05446  22256146.656                    22256153.414
        49.700          37.800
 113825253.507 8  88695063.11246  21660237.156                    21660244.715
        49.700          39.500
 111331154.758 8  86751613.83746  21185623.586                    21185628.301
        52.600          41.600
 126711273.429 7  98736109.25343  24112359.586                    24112364.301
        42.200          22.900
 121016425.634 7  94298548.45245  23028666.414                    23028671.031
        47.300          32.000
 114663717.439 7  89348391.85546  21819791.438                    21819793.402
        45.700          37.100
 18  2 20  8 22 30.0000000  0  8G23G09G30G06G07G16G05G02
 121543641.460 7  94709377.61645  23128994.414                    23128996.375
        46.300          30.800
 107843795.185 8  84034184.87047  20521997.664                    20522004.027
        53.600          45.300
 116863469.379 8  91062495.96346  22238380.875                    22238387.563
        49.400          38.000
 113900164.269 8  88753435.11446  21674492.305                    21674499.941
        49.300          39.300
 111280929.712 8  86712477.44846  21176065.852                    21176070.230
        52.600          41.400
 126708637.413 6  98734055.18844  24111858.836                    24111862.609
        39.100          24.200
 120922836.208 7  94225621.63545  23010857.070                    23010861.777
        46.500          31.200
 114658087.331 7  89344004.75346  21818719.789                    21818721.727
        45.500          37.300
 18  2 20  8 23  0.0000000  0  8G23G09G30G06G07G16G05G02
 121625472.243 7  94773141.82745  23144565.844                    23144568.613
        47.200          30.900
 107888635.256 8  84069125.18247  20530530.313                    20530536.906
        53.800          45.300
 116770423.019 8  90989992.30946  22220674.578                    22220681.570
        49.000          37.500
 113975518.455 8  88812152.63346  21688831.914                    21688839.301
        49.100          39.500
 111231186.112 8  86673716.21446  21166600.125                    21166604.426
        51.900          41.300
 126706614.585 6  98732478.96943  24111474.164                    24111477.879
        40.400          22.500
 120829411.378 7  94152823.07045  22993078.961                    22993083.477
        46.400          32.000
 114653014.099 7  89340051.58246  21817754.211                    21817756.223
        46.300          37.200
 18  2 20  8 23 30.0000000  0  8G23G09G30G06G07G16G05G02
 121707439.717 7  94837012.55244  23160163.789                    23160166.477
        46.700          29.700
 107933807.576 8  84104324.38847  20539126.242                    20539132.789
        53.300          44.500
 116677692.786 8  90917734.99946  22203028.734                    22203035.742
        48.900          37.900
 114051313.688 8  88871213.82746  21703254.953                    21703263.328
        49.700          39.000
 111181925.231 8  86635331.12546  21157226.117                    21157230.770
        51.900          40.800
 126705204.907 6  98731380.52543  24111205.305                    24111209.602
        39.400          22.300
 120736154.073 7  94080155.03145  22975332.094                    22975336.906
        47.200          31.900
 114648497.876 7  89336532.43546  21816895.133                    21816897.199
        46.300          37.100
 18  2 20  8 24  0.0000000  0  8G23G09G30G06G07G16G05G02
 121789542.795 7  94900988.92444  23175787.805                    23175790.043
        47.800          29.900
 107979311.095 8  84139781.67247  20547785.078                    20547791.535
        53.000          44.500
 116585281.115 8  90845725.92046  22185443.414                    22185450.355
        48.900          37.900
 114127547.604 8  88930616.85846  21717762.031                    21717769.859
        49.100          39.700
 111133148.536 8  86597323.32446  21147943.891                    21147948.246
        51.800          40.600
 126704408.948 6  98730760.25943  24111054.703                    24111057.820
        40.600          22.300
 120643065.179 7  94007618.25145  22957618.445                    22957622.656
        47.100          31.600
 114644539.262 7  89333447.80546  21816141.383                    21816143.863
        47.400          36.900
 18  2 20  8 24 30.0000000  0  8G23G09G30G06G07G16G05G02
 121871780.559 7  94965070.25845  23191437.813                    23191438.945
        46.700          30.000
 108025144.368 8  84175495.90347  20556507.188                    20556513.391
        53.400          44.800
 116493190.147 8  90773966.74546  22167919.000                    22167926.270
        49.500          38.100
 114204217.533 8  88990359.63446  21732351.703                    21732359.723
        49.000          40.100
 111084857.184 8  86559693.70646  21138754.531                    21138758.883
        51.500          41.200
 126704227.180 6  98730618.62243  24111020.203                    24111023.574
        38.400          22.900
 120550146.276 7  93935213.91745  22939936.266                    22939941.063
        47.000          31.900
 114641137.690 7  89330797.22346  21815494.508                    21815496.293
        46.200          37.400
 18  2 20  8 25  0.0000000  0  8G23G09G30G06G07G16G05G02
 121954152.775 7  95029256.37044  23207111.977                    23207114.563
        47.400          29.900
 108071306.999 8  84211466.77947  20565291.266                    20565297.605
        52.800          44.700
 116401422.945 8  90702459.86846  22150456.078                    22150463.117
        48.900          38.100
 114281321.691 8  89050440.76846  21747024.336                    21747032.465
        49.200          39.500
 111037052.422 8  86522443.26646  21129657.391                    21129661.469
        50.300          41.100
 126704661.067 6  98730956.72243  24111101.813                    24111106.570
        41.000          22.600
 120457399.254 7  93862943.52645  22922286.961                    22922291.758
        47.600          32.700
 114638294.477 7  89328581.72646  21814953.570                    21814955.309
        45.800          37.500
 18  2 20  8 25 30.0000000  0  8G23G09G30G06G07G16G05G02
 122036657.471 7  95093545.69544  23222812.383                    23222814.285
        46.900          28.900
 108117797.044 8  84247692.78647  20574137.914                    20574144.832
        52.900          44.300
 116309981.119 7  90631206.52646  22133055.164                    22133062.578
        47.900          38.400
 114358856.881 8  89110857.77346  21761778.992                    21761786.723
        48.800          39.900
 110989735.394 8  86485572.87546  21120653.266                    21120657.488
        50.800          40.800
 126705709.957 6  98731774.04043  24111301.727                    24111305.906
        41.400          22.600
 120364827.052 7  93790809.36045  22904671.773                    22904675.867
        45.300          32.300
 114636008.871 7  89326800.72746  21814518.398                    21814520.586
        47.500          37.500
 18  2 20  8 26  0.0000000  0  8G23G09G30G06G07G16G05G02
 122119293.672 7  95157937.49444  23238537.914                    23238539.855
        47.700          28.900
 108164613.247 8  84284172.92847  20583046.914                    20583053.363
        52.800          44.500
 116218866.894 8  90560208.46146  22115717.039                    22115724.168
        49.500          38.400
 114436820.536 8  89171608.65646  21776614.875                    21776622.707
        48.200          39.100
 110942906.980 8  86449083.21946  21111742.148                    21111746.473
        50.200          40.100
 126707373.808 6  98733070.54543  24111618.508                    24111622.441
        40.500          22.800
 120272429.734 7  93718811.45945  22887088.789                    22887093.277
        47.000          32.600
 114634281.300 7  89325454.56246  21814189.320                    21814191.828
        47.000          36.900
 18  2 20  8 26 30.0000000  0  8G23G09G30G06G07G16G05G02
 122202060.638 7  95222431.17944  23254287.703                    23254289.816
        46.300          29.500
 108211754.477 8  84320906.34747  20592017.820                    20592024.195
        51.000          44.300
 116128082.692 8  90489467.55546  22098441.305                    22098448.680
        50.300          38.900
 114515210.177 7  89232691.47246  21791532.102                    21791539.691
        46.800          39.200
 110896568.660 8  86412975.44546  21102924.367                    21102928.773
        50.000          40.900
 126709653.132 6  98734846.64343  24112052.422                    24112056.184
        38.100          22.000
 120180210.531 7  93646952.33745  22869540.258                    22869544.465
        47.200          32.800
 114633111.901 7  89324543.32846  21813967.117                    21813969.008
        46.300          37.300
 18  2 20  8 27  0.0000000  0  8G23G09G30G06G07G16G05G02
 122284957.080 7  95287025.76544  23270062.289                    23270064.785
        45.500          29.200
 108259219.593 8  84357892.13447  20601050.297                    20601056.148
        52.000          44.300
 116037630.787 8  90418985.58746  22081229.570                    22081236.078
        49.100          39.200
 114594023.365 8  89294104.32146  21806529.523                    21806537.203
        48.200          38.900
 110850721.335 8  86377250.27646  21094199.695                    21094204.281
        49.300          40.600
 126712548.639 6  98737102.89443  24112603.852                    24112607.379
        39.000          22.900
 120088170.673 7  93575232.97845  22852025.242                    22852030.082
        45.000          33.100
 114632500.678 7  89324067.03746  21813849.859                    21813852.359
        46.800          37.300
 18  2 20  8 27 30.0000000  0  8G23G09G30G06G07G16G05G02
 122367982.390 7  95351720.78245  23285861.109                    23285864.176
        46.200          30.200
 108307007.484 8  84395129.44647  20610143.828                    20610149.563
        51.900          44.400
 115947513.599 8  90348764.42946  22064080.297                    22064087.063
        50.000          38.600
 114673257.573 7  89355845.24446  21821607.289                    21821615.027
        47.600          38.800
 110805366.184 8  86341908.62046  21085569.055                    21085573.340
        50.000          41.100
 126716060.282 6  98739839.23343  24113271.328                    24113275.867
        41.400          22.000
 119996311.531 7  93503654.42745  22834545.281                    22834549.707
        46.300          33.200
 114632447.642 7  89324025.71246  21813840.445                    21813842.672
        45.500          36.400
 18  2 20  8 28  0.0000000  0  8G23G09G30G06G07G16G05G02
 122451135.396 7  95416515.27144  23301684.906                    23301687.766
        46.400          29.300
 108355116.835 8  84432617.24647  20619298.750                    20619304.828
        50.800          44.000
 115857733.344 8  90278805.82246  22046995.500                    22047002.363
        50.700          38.400
 114752910.199 7  89417912.20146  21836764.750                    21836772.484
        46.600          38.500
 110760504.346 8  86306951.34546  21077031.859                    21077036.449
        50.000          40.600
 126720188.011 6  98743055.64643  24114056.867                    24114061.238
        39.300          22.300
 119904635.563 7  93432218.61245  22817100.297                    22817104.250
        47.300          33.700
 114632952.976 7  89324419.47246  21813937.164                    21813938.996
        46.300          37.500
 18  2 20  8 28 30.0000000  0  8G23G09G30G06G07G16G05G02
 122534415.143 7  95481408.53544  23317532.750                    23317534.543
        43.400          29.100
 108403546.422 8  84470354.57647  20628514.742                    20628520.750
        52.000          44.000
 115768292.196 8  90209111.45146  22029975.336                    22029982.109
        50.300          38.200
 114832978.549 7  89480303.09646  21852001.188                    21852009.180
        46.500          37.700
 110716137.068 8  86272379.46346  21068589.117                    21068593.563
        50.600          41.200
 126724932.295 6  98746752.47743  24114959.430                    24114963.488
        41.200          21.800
 119813144.597 7  93360926.94945  22799689.969                    22799694.293
        47.500          33.600
 114634016.599 7  89325248.26446  21814139.242                    21814141.215
        47.200          37.100
 18  2 20  8 29  0.0000000  0  8G23G09G30G06G07G16G05G02
 122617820.782 7  95546399.90744  23333403.852                    23333407.191
        45.700          28.600
 108452295.164 8  84508340.59347  20637791.031                    20637797.598
        50.900          43.900
 115679192.571 8  90139683.19746  22013020.031                    22013026.816
        49.700          38.900
 114913460.259 7  89543016.09146  21867316.664                    21867324.477
        46.300          38.000
 110672265.076 8  86238193.51746  21060240.578                    21060244.754
        50.200          41.600
 126730293.295 6  98750929.86543  24115979.969                    24115984.121
        41.700          22.200
 119721839.822 7  93289780.37445  22782315.398                    22782319.539
        47.200          34.600
 114635638.758 7  89326512.27846  21814448.008                    21814450.133
        46.200          37.500
 18  2 20  8 29 30.0000000  0  8G23G09G30G06G07G16G05G02
 122701351.053 7  95611488.35744  23349299.781                    23349302.652
        43.800          28.900
 108501361.862 8  84546574.37647  20647128.492                    20647134.770
        51.500          44.300
 115590436.727 8  90070522.83146  21996130.813                    21996137.395
        48.100          38.900
 114994352.672 7  89606049.11546  21882709.898                    21882717.512
        46.600          38.200
 110628889.581 8  86204394.43746  21051986.625                    21051990.730
        50.700          41.600
 126736271.295 6  98755588.03743  24117116.945                    24117121.367
        41.900          21.500
 119630723.859 7  93218780.92545  22764976.117                    22764980.875
        45.700          33.900
 114637819.105 7  89328211.24646  21814862.727                    21814865.098
        45.600          37.500
 18  2 20  8 30  0.0000000  0  8G23G09G30G06G07G16G05G02
 122785005.549 7  95676673.64844  23365218.484                    23365221.301
        45.400          28.900
 108550745.354 8  84585055.00647  20656525.836                    20656532.027
        51.200          44.100
 115502026.944 8  90001632.12246  21979306.797                    21979313.648
        50.000          39.200
 115075653.108 7  89669400.07846  21898180.531                    21898188.953
        46.300          38.100
 110586011.713 8  86170983.12846  21043827.367                    21043831.730
        50.700          41.300
 126742866.408 7  98760727.06143  24118372.945                    24118376.539
        42.500          20.900
 119539798.526 8  93147930.02445  22747674.117                    22747678.035
        48.200          34.300
 114640557.762 7  89330345.25746  21815383.805                    21815386.270
        46.500          37.500
 18  2 20  8 30 30.0000000  0  8G23G09G30G06G07G16G05G02
 122868782.833 6  95741954.61444  23381160.305                    23381163.684
        41.500          27.800
 108600444.320 8  84623781.46747  20665982.977                    20665989.000
        51.300          44.100
