     2.11           OBSERVATION DATA    G (GPS)             RINEX VERSION / TYPE
teqc  2016Nov7                          20180328 12:23:34UTCPGM / RUN BY / DATE
Linux 2.4.21-27.ELsmp|Opteron|gcc|Linux x86_64|=+           COMMENT
teqc  2016Nov7                          20180328 12:23:32UTCCOMMENT
     2.11           OBSERVATION DATA    M (MIXED)           COMMENT
teqc  2016Nov7                          20180328 12:23:29UTCCOMMENT
teqc  2016Nov7      IGN-RGP             20180220 09:11:31UTCCOMMENT
teqc  2015Jun23     IGN-RGP             20180220 09:04:12UTCCOMMENT
Linux2.4.20-8|i386|gcc|Win32-MinGW32|=                      COMMENT
   0.000      (antenna height)                              COMMENT
 +49.05310303 (latitude)                                    COMMENT
  +2.53355530 (longitude)                                   COMMENT
0164.566      (elevation)                                   COMMENT
BIT 2 OF LLI FLAGS DATA COLLECTED UNDER A/S CONDITION       COMMENT
19782M001 (COGO code)                                       COMMENT
SXJ2                                                        MARKER NAME
19782M001                                                   MARKER NUMBER
Automatic           GIE COOP&TECH                           OBSERVER / AGENCY
5010K65924          TRIMBLE NETR5       4.41                REC # / TYPE / VERS
1441009133          TRM55971.00     NONE                    ANT # / TYPE
  4183990.1470   185132.0450  4794555.4040                  APPROX POSITION XYZ
        1.2500        0.0000        0.0000                  ANTENNA: DELTA H/E/N
     1     1                                                WAVELENGTH FACT L1/2
     9    L1    L2    C1    P1    P2    D1    D2    S1    S2# / TYPES OF OBSERV
    30.0000                                                 INTERVAL
    18                                                      LEAP SECONDS
 SNR is mapped to RINEX snr flag value [0-9]                COMMENT
  L1 & L2: min(max(int(snr_dBHz/6), 0), 9)                  COMMENT
teqc_2016 edited: GLONASS # 25 - 30 excluded                COMMENT
Forced Modulo Decimation to 30 seconds                      COMMENT
teqc_2016 edited: all GLONASS satellites excluded           COMMENT
teqc_2016 edited: all SBAS satellites excluded              COMMENT
teqc_2016 edited: all Galileo satellites excluded           COMMENT
  2018     2    20     8     0    0.0000000     GPS         TIME OF FIRST OBS
                                                            END OF HEADER
 18  2 20  8  0  0.0000000  0  8G07G05G23G09G16G30G02G06
 114161928.218 8  88957387.37346  21724296.813                    21724300.840
      2353.914                          50.800          39.800
 125004081.274 7  97405815.30144  23787492.492                    23787496.406
      3300.250                          43.900          29.100
 118125670.946 8  92046027.16745  22478575.750                    22478577.098
     -2500.910                          49.400          35.700
 106213895.274 8  82764136.53947  20211835.852                    20211841.930
      -966.195                          53.300          46.500
 127506301.941 6  99355616.47143  24263651.211                    24263656.172
      1000.352                          38.400          21.800
 121498305.569 7  94674032.84045  23120358.047                    23120365.672
      3503.172                          46.300          34.500
 115268224.697 7  89819424.88246  21934821.734                    21934823.664
       973.348                          47.300          38.200
 110996141.025 8  86490560.55447  21121872.414                    21121880.234
     -1790.672                          49.900          42.800
 18  2 20  8  0 30.0000000  0  8G07G05G23G09G16G30G02G06
 114091514.338 8  88902519.42746  21710897.672                    21710901.695
      2340.277        1823.792          51.300          40.600
 124905122.696 7  97328704.73344  23768661.195                    23768664.871
      3297.090        2569.128          44.100          29.500
 118200793.199 8  92104564.00045  22492870.492                    22492873.281
     -2507.168       -1953.594          49.100          35.900
 106243076.888 8  82786875.46247  20217389.023                    20217394.965
      -979.098        -762.850          53.300          46.500
 127476577.884 6  99332454.87143  24257994.766                    24257999.414
       981.414         764.974          41.000          22.200
 121393310.791 7  94592218.73145  23100378.969                    23100386.078
      3496.457        2724.588          47.300          33.700
 115239284.883 7  89796874.36846  21929314.828                    21929316.445
       955.883         745.089          47.300          38.300
 111050127.928 8  86532628.25047  21132146.133                    21132153.547
     -1808.465       -1408.978          50.000          43.000
 18  2 20  8  1  0.0000000  0  8G07G05G23G09G16G30G02G06
 114021509.532 8  88847970.24346  21697576.195                    21697580.242
      2326.781        1813.174          52.300          40.200
 124806260.890 7  97251669.56144  23749848.391                    23749852.875
      3293.777        2566.609          45.100          29.400
 118276102.990 8  92163246.95145  22507200.820                    22507203.348
     -2513.391       -1958.420          48.200          34.000
 106272646.427 8  82809916.64447  20223015.875                    20223022.117
      -992.082        -772.894          53.000          46.700
 127447417.381 6  99309732.36143  24252445.961                    24252449.973
       962.613         750.345          39.100          22.200
 121288518.575 8  94510562.48245  23080437.039                    23080444.605
      3489.711        2719.328          48.000          33.800
 115210870.916 7  89774733.60746  21923907.797                    21923909.238
       938.406         731.433          46.300          37.900
 111104648.759 8  86575111.99847  21142520.852                    21142528.367
     -1826.207       -1422.799          50.800          42.900
 18  2 20  8  1 30.0000000  0  8G07G05G23G09G16G30G02G06
 113951916.390 8  88793741.84046  21684332.648                    21684337.227
      2312.785        1802.424          52.500          40.300
 124707497.445 7  97174711.02144  23731054.164                    23731058.137
      3290.324        2564.018          45.600          29.900
 118351599.418 8  92222075.29245  22521568.000                    22521571.742
     -2519.676       -1963.279          49.200          35.200
 106302603.119 8  82833259.51847  20228716.703                    20228722.875
     -1005.051        -782.950          52.900          47.100
 127418822.525 6  99287450.68743  24247004.352                    24247007.723
       943.555         735.597          37.700          22.300
 121183931.890 7  94429066.38345  23060534.422                    23060542.457
      3482.633        2713.935          47.600          33.900
 115182984.384 7  89753003.83946  21918600.805                    21918602.625
       920.641         717.689          45.400          37.900
 111159702.117 8  86618010.70947  21152996.820                    21153004.375
     -1844.051       -1436.626          50.700          42.100
 18  2 20  8  2  0.0000000  0  8G07G05G23G09G16G30G02G06
 113882736.174 8  88739835.20246  21671168.297                    21671172.520
      2299.082        1791.674          52.100          39.100
 124608833.735 7  97097830.20744  23712278.594                    23712283.211
      3287.063        2561.420          45.100          28.900
 118427281.000 8  92281047.92646  22535970.422                    22535972.668
     -2525.879       -1968.084          49.700          36.000
 106332945.519 8  82856902.94747  20234490.297                    20234497.074
     -1017.871        -792.966          53.500          46.400
 127390794.918 6  99265611.00643  24241671.125                    24241674.582
       924.715         720.839          39.200          22.000
 121079552.828 7  94347732.07745  23040672.125                    23040679.566
      3475.793        2708.513          47.500          34.500
 115155625.554 7  89731685.25546  21913394.602                    21913396.414
       903.059         703.976          47.200          38.100
 111215285.869 8  86661322.71747  21163573.891                    21163581.453
     -1861.738       -1450.387          50.500          42.200
 18  2 20  8  2 30.0000000  0  8G07G05G23G09G16G30G02G06
 113813970.788 8  88686251.79946  21658082.633                    21658087.203
      2285.398        1780.891          51.200          39.600
 124510271.992 7  97021028.82944  23693522.734                    23693527.375
      3283.730        2558.774          45.000          28.700
 118503146.258 8  92340163.65645  22550406.758                    22550409.875
     -2531.875       -1972.826          50.000          35.800
 106363672.314 8  82880845.89447  20240337.469                    20240343.918
     -1030.555        -802.913          53.500          47.000
 127363335.879 6  99244214.35243  24236446.133                    24236448.914
       906.012         706.078          37.600          21.500
 120975383.869 7  94266561.49145  23020849.391                    23020857.086
      3468.844        2703.032          46.900          34.600
 115128795.890 7  89710778.99646  21908289.406                    21908291.082
       885.559         690.235          46.700          37.800
 111271398.128 8  86705046.53147  21174252.141                    21174259.816
     -1879.129       -1464.078          50.300          42.100
 18  2 20  8  3  0.0000000  0  8G07G05G23G09G16G30G02G06
 113745622.553 8  88632993.44146  21645076.430                    21645080.922
      2271.359        1770.044          52.500          39.700
 124411813.681 7  96944308.05144  23674787.219                    23674791.746
      3280.258        2556.058          45.500          28.300
 118579194.430 8  92399421.97945  22564878.492                    22564880.563
     -2537.918       -1977.546          49.900          35.400
 106394782.723 8  82905087.76347  20246257.688                    20246263.902
     -1043.348        -812.858          52.800          46.300
 127336447.293 6  99223262.20443  24231328.984                    24231332.855
       886.816         691.264          39.600          21.800
 120871427.866 7  94185556.83345  23001067.523                    23001074.996
      3461.695        2697.479          47.200          33.900
 115102496.922 8  89690286.28846  21903284.648                    21903286.383
       867.777         676.435          48.800          38.600
 111328037.389 8  86749181.01047  21185029.891                    21185037.348
     -1896.754       -1477.739          50.200          42.100
 18  2 20  8  3 30.0000000  0  8G07G05G23G09G16G30G02G06
 113677693.091 8  88580061.40646  21632149.781                    21632153.965
      2257.273        1759.120          52.300          40.100
 124313460.238 7  96867669.01144  23656070.945                    23656076.055
      3276.605        2553.283          45.400          29.500
 118655424.339 8  92458821.85146  22579384.602                    22579387.008
     -2544.023       -1982.265          50.300          36.100
 106426275.603 8  82929627.64947  20252250.664                    20252256.879
     -1056.121        -822.792          52.300          46.500
 127310130.479 6  99202755.59043  24226321.219                    24226325.176
       867.660         676.372          39.800          22.500
 120767687.278 7  94104720.04345  22981326.109                    22981333.664
      3454.367        2691.842          47.900          34.000
 115076729.177 7  89670207.51346  21898381.305                    21898383.086
       850.098         662.611          47.200          38.400
 111385201.852 8  86793724.72947  21195908.352                    21195915.848
     -1914.187       -1491.370          49.800          42.000
 18  2 20  8  4  0.0000000  0  8G07G05G23G09G16G30G02G06
 113610184.323 8  88527457.18146  21619302.953                    21619307.566
      2243.223        1748.143          51.800          40.400
 124215212.582 7  96791112.39044  23637374.672                    23637380.082
      3273.035        2550.516          44.900          29.400
 118731834.585 8  92518362.31145  22593924.289                    22593927.117
     -2550.145       -1986.969          49.400          35.100
 106458149.811 8  82954464.69447  20258316.078                    20258322.277
     -1068.875        -832.704          53.400          46.500
 127284386.964 6  99182695.70943  24221422.375                    24221427.000
       848.504         661.438          39.300          22.800
 120664164.625 7  94024053.05445  22961626.180                    22961633.676
      3447.043        2686.120          46.900          34.100
 115051493.890 8  89650543.64746  21893579.078                    21893580.746
       832.234         648.748          48.700          38.000
 111442889.657 8  86838676.26847  21206885.984                    21206893.938
     -1931.703       -1504.960          50.900          42.800
 18  2 20  8  4 30.0000000  0  8G07G05G23G09G16G30G02G06
 113543098.137 8  88475182.23846  21606537.078                    21606541.379
      2229.293        1737.203          52.200          40.200
 124117072.502 7  96714639.60744  23618699.703                    23618704.742
      3269.566        2547.733          44.700          29.000
 118808424.103 8  92578042.41045  22608498.617                    22608501.832
     -2555.840       -1991.567          49.600          34.800
 106490404.181 8  82979597.96047  20264454.234                    20264460.027
     -1081.352        -842.510          51.900          46.400
 127259218.605 6  99163084.01243  24216632.977                    24216637.695
       829.453         646.501          39.000          22.600
 120560862.483 7  93943557.93645  22941968.180                    22941976.367
      3439.887        2680.413          46.700          34.200
 115026792.068 7  89631295.45746  21888878.563                    21888879.645
       814.527         634.934          47.900          37.900
 111501098.880 8  86884034.08247  21217962.625                    21217970.480
     -1948.887       -1518.432          49.000          42.200
 18  2 20  8  5  0.0000000  0  8G07G05G23G09G16G30G02G06
 113476435.602 8  88423237.40346  21593851.695                    21593856.164
      2215.047        1726.163          52.500          40.100
 124019041.205 7  96638251.60745  23600044.398                    23600049.629
      3265.824        2544.888          46.500          30.100
 118885190.811 8  92637860.61445  22623107.336                    22623109.684
     -2561.836       -1996.162          49.800          34.800
 106523036.835 8  83005025.99147  20270663.508                    20270669.730
     -1094.078        -852.342          52.900          47.000
 127234626.023 6  99143920.96043  24211953.547                    24211958.066
       810.125         631.524          38.100          22.500
 120457782.628 7  93863235.98845  22922353.609                    22922360.754
      3432.301        2674.602          47.800          33.800
 115002624.075 7  89612463.25146  21884279.594                    21884281.270
       796.719         621.042          46.800          38.200
 111559826.936 8  86929796.19247  21229138.203                    21229145.977
     -1966.195       -1531.887          51.000          42.600
 18  2 20  8  5 30.0000000  0  8G07G05G23G09G16G30G02G06
 113410199.086 8  88371624.53546  21581247.289                    21581251.563
      2200.738        1715.066          52.100          40.400
 123921120.742 7  96561949.94545  23581411.102                    23581416.406
      3262.238        2542.002          45.700          30.700
 118962134.293 8  92697816.52645  22637749.070                    22637750.516
     -2567.746       -2000.747          48.700          33.800
 106556047.164 8  83030748.32447  20276945.477                    20276951.352
     -1106.594        -862.134          53.900          46.300
 127210611.130 6  99125208.07843  24207383.289                    24207388.141
       790.855         616.486          38.800          22.200
 120354928.149 8  93783089.66645  22902780.742                    22902788.484
      3424.684        2668.691          48.100          35.100
 114978991.447 8  89594048.19646  21879782.523                    21879784.418
       778.789         607.092          48.300          37.600
 111619072.497 8  86975961.53047  21240412.625                    21240420.199
     -1983.523       -1545.336          49.100          42.300
 18  2 20  8  6  0.0000000  0  8G07G05G23G09G16G30G02G06
 113344390.500 8  88320345.11846  21568724.273                    21568728.578
      2186.527        1703.941          51.500          40.000
 123823312.310 7  96485735.57745  23562799.133                    23562804.090
      3258.305        2539.042          44.900          30.200
 119039253.601 8  92757909.49845  22652424.781                    22652427.535
     -2573.523       -2005.287          48.800          34.800
 106589434.277 8  83056764.25547  20283298.719                    20283304.668
     -1119.195        -871.907          52.100          46.100
 127187175.611 6  99106946.64843  24202923.297                    24202927.930
       771.590         601.434          40.400          21.800
 120252301.764 8  93703121.06645  22883251.734                    22883258.770
      3417.004        2662.748          49.600          35.600
 114955895.497 7  89576051.34846  21875387.266                    21875388.902
       761.051         593.170          47.400          37.900
 111678833.842 8  87022528.79247  21251784.359                    21251791.984
     -2000.664       -1558.692          50.300          42.300
 18  2 20  8  6 30.0000000  0  8G07G05G23G09G16G30G02G06
 113279011.685 8  88269400.59946  21556283.008                    21556287.324
      2172.109        1692.751          51.400          39.900
 123725618.281 7  96409610.34745  23544208.195                    23544213.305
      3254.629        2536.086          46.200          30.700
 119116547.505 8  92818138.46845  22667133.477                    22667135.418
     -2579.324       -2009.801          49.800          34.100
 106623196.907 8  83083072.79947  20289723.555                    20289729.938
     -1131.648        -881.648          52.700          46.600
 127164320.906 6  99089137.75843  24198575.016                    24198578.418
       752.133         586.329          39.000          22.900
 120149905.920 8  93623332.10045  22863766.063                    22863773.770
      3409.328        2656.729          50.200          35.700
 114933336.742 8  89558473.08346  21871094.859                    21871096.477
       742.961         579.190          48.200          37.900
 111739109.000 8  87069496.44047  21263254.945                    21263262.273
     -2017.715       -1572.011          49.000          42.300
 18  2 20  8  7  0.0000000  0  8G07G05G23G09G16G30G02G06
 113214064.275 8  88218792.23546  21543923.836                    21543928.117
      2157.738        1681.529          51.600          39.900
 123628039.888 7  96333575.24345  23525639.516                    23525644.992
      3250.691        2533.062          45.600          30.900
 119194014.692 8  92878502.48445  22681874.648                    22681877.832
     -2585.090       -2014.265          48.900          34.300
 106657334.064 8  83109673.18447  20296219.703                    20296225.352
     -1144.094        -891.344          53.000          46.500
 127142048.394 6  99071782.55343  24194335.469                    24194339.914
       732.797         571.198          40.500          22.900
 120047743.276 8  93543724.84845  22844325.250                    22844332.125
      3401.598        2650.657          49.900          35.900
 114911316.411 8  89541314.37646  21866904.516                    21866905.660
       725.063         565.210          48.400          38.000
 111799896.104 8  87116862.98447  21274821.945                    21274829.688
     -2034.723       -1585.267          50.300          42.400
 18  2 20  8  7 30.0000000  0  8G07G05G23G09G16G30G02G06
 113149550.182 8  88168521.52746  21531647.227                    21531651.723
      2143.227        1670.215          51.000          40.400
 123530578.874 7  96257631.58545  23507093.773                    23507098.535
      3246.695        2529.955          44.300          31.600
 119271653.751 8  92939000.43045  22696648.695                    22696650.629
     -2590.773       -2018.760          48.600          34.100
 106691844.395 8  83136564.34447  20302786.617                    20302792.820
     -1156.535        -901.058          53.700          46.000
 127120359.475 7  99054882.09143  24190209.094                    24190213.016
       713.148         556.015          42.100          22.000
 119945816.177 8  93464301.13446  22824929.328                    22824936.410
      3393.547        2644.473          49.400          36.200
 114889835.156 8  89524575.73446  21862816.531                    21862817.809
       707.117         551.197          50.100          38.100
 111861193.069 8  87164626.81747  21286486.633                    21286494.570
     -2051.699       -1598.520          50.400          43.000
 18  2 20  8  8  0.0000000  0  8G07G05G23G09G16G30G02G06
 113085471.447 8  88118590.06846  21519453.492                    21519457.902
      2128.668        1658.877          52.900          40.500
 123433236.611 7  96181780.45945  23488570.305                    23488574.934
      3242.723        2526.839          46.400          30.100
 119349463.902 8  92999631.68345  22711455.891                    22711458.969
     -2596.551       -2023.196          49.500          35.000
 106726726.769 8  83163745.40247  20309424.344                    20309430.785
     -1168.840        -910.704          53.500          46.200
 127099255.298 7  99038437.29243  24186193.102                    24186197.016
       693.668         540.793          42.600          22.800
 119844127.128 8  93385062.93246  22805578.750                    22805585.883
      3385.629        2638.249          49.200          36.700
 114868894.038 8  89508257.97246  21858831.938                    21858833.410
       689.113         537.124          48.800          38.600
 111922997.918 8  87212786.40647  21298247.727                    21298255.059
     -2068.578       -1611.691          50.300          42.300
 18  2 20  8  8 30.0000000  0  8G07G05G23G09G16G30G02G06
 113021829.562 8  88068999.00546  21507343.156                    21507347.484
      2114.047        1647.516          51.500          40.100
 123336014.139 7  96106022.68545  23470069.125                    23470074.121
      3238.688        2523.726          45.500          31.000
 119427444.530 8  93060395.78945  22726295.172                    22726297.238
     -2602.176       -2027.611          48.400          34.200
 106761980.337 8  83191215.71247  20316132.961                    20316139.461
     -1181.379        -920.350          52.500          46.300
 127078737.510 7  99022449.40243  24182288.742                    24182292.695
       673.984         525.551          42.100          23.200
 119742678.986 8  93306012.43946  22786273.242                    22786280.813
      3377.457        2631.955          48.200          37.000
 114848494.411 8  89492362.15646  21854949.938                    21854951.246
       670.941         523.053          49.100          38.100
 111985308.949 8  87261340.42547  21310105.195                    21310112.664
     -2085.453       -1624.823          49.400          42.000
 18  2 20  8  9  0.0000000  0  8G07G05G23G09G16G30G02G06
 112958626.465 8  88019749.84446  21495315.813                    21495320.270
      2099.473        1636.119          52.000          39.400
 123238913.988 7  96030360.23245  23451592.023                    23451596.516
      3234.559        2520.520          46.400          30.400
 119505593.870 8  93121291.36945  22741165.906                    22741169.465
     -2607.793       -2031.966          48.100          33.900
 106797603.766 8  83218974.21247  20322911.844                    20322918.371
     -1193.504        -929.907          53.700          46.000
 127058807.239 6  99006919.35343  24178496.219                    24178500.305
       654.543         510.265          41.700          23.300
 119641474.094 7  93227151.52645  22767014.289                    22767022.590
      3369.430        2625.617          47.700          35.900
 114828636.846 8  89476888.72546  21851170.883                    21851172.723
       652.883         508.973          49.400          37.600
 112048123.997 8  87310287.17747  21322058.633                    21322066.152
     -2102.176       -1637.853          50.000          42.400
 18  2 20  8  9 30.0000000  0  8G07G05G23G09G16G30G02G06
 112895863.395 8  87970843.55746  21483372.430                    21483376.738
      2084.734        1624.669          52.800          39.900
 123141937.969 7  95954794.52445  23433137.969                    23433142.465
      3230.488        2517.281          47.500          31.400
 119583910.577 7  93182317.34945  22756069.297                    22756071.348
     -2613.340       -2036.301          47.300          33.300
 106833595.757 8  83247019.91547  20329761.000                    20329767.223
     -1205.918        -939.479          53.800          46.400
 127039465.588 6  98991847.91544  24174815.656                    24174819.875
       634.855         494.978          40.600          25.100
 119540514.752 7  93148481.93445  22747802.305                    22747810.066
      3361.215        2619.211          47.900          35.800
 114809321.717 8  89461837.95746  21847495.422                    21847496.820
       634.816         494.872          49.100          38.000
 112111440.963 8  87359625.05047  21334107.367                    21334114.863
     -2118.957       -1650.890          50.700          42.500
 18  2 20  8 10  0.0000000  0  8G07G05G23G09G16G30G02G06
 112833542.195 8  87922281.59146  21471513.180                    21471517.098
      2070.027        1613.185          51.800          40.500
 123045086.678 7  95879325.99645  23414707.977                    23414712.027
      3226.320        2514.042          47.400          32.100
 119662393.475 7  93243472.83545  22771003.977                    22771007.133
     -2618.859       -2040.590          47.800          33.900
 106869954.976 8  83275351.77247  20336679.773                    20336685.832
     -1218.035        -948.980          53.400          46.400
 127020713.912 6  98977236.24843  24171246.641                    24171251.500
       615.164         479.629          40.500          22.600
 119439803.379 7  93070005.56945  22728637.352                    22728646.168
      3352.926        2612.758          47.300          35.800
 114790549.894 8  89447210.55046  21843923.570                    21843924.719
       616.707         480.758          49.000          37.800
 112175257.585 8  87409352.26747  21346250.922                    21346258.969
     -2135.570       -1663.833          51.100          42.200
 18  2 20  8 10 30.0000000  0  8G07G05G23G09G16G30G02G06
 112771664.513 8  87874065.22146  21459737.930                    21459742.559
      2055.164        1601.622          52.700          40.400
 122948362.130 7  95803956.22545  23396301.547                    23396305.621
      3221.965        2510.701          47.200          30.800
 119741041.697 7  93304757.14145  22785970.203                    22785973.051
     -2624.422       -2044.884          47.900          33.900
 106906680.467 8  83303969.03347  20343668.695                    20343674.711
     -1230.301        -958.504          51.300          46.300
 127002553.428 7  98963085.26143  24167791.172                    24167795.836
       595.500         464.274          42.000          23.900
 119339342.654 8  92991724.49645  22709520.406                    22709528.367
      3344.520        2606.197          48.300          35.900
 114772322.315 8  89433007.23446  21840455.203                    21840456.559
       598.441         466.578          48.600          38.000
 112239571.957 8  87459467.35646  21358490.164                    21358496.633
     -2152.098       -1676.732          48.500          41.700
 18  2 20  8 11  0.0000000  0  8G07G05G23G09G16G30G02G06
 112710232.427 8  87826196.07146  21448047.719                    21448052.270
      2040.309        1590.047          52.000          40.800
 122851765.593 7  95728686.19645  23377920.125                    23377924.184
      3217.719        2507.377          46.700          30.400
 119819854.335 8  93366169.53845  22800968.406                    22800971.152
     -2629.812       -2049.128          49.200          35.200
 106943771.316 8  83332870.99347  20350726.688                    20350733.129
     -1242.461        -967.962          51.900          46.000
 126984985.693 6  98949396.11443  24164448.008                    24164452.879
       575.699         448.858          41.600          22.300
 119239135.367 7  92913640.89845  22690451.828                    22690459.754
      3336.031        2599.603          47.900          35.100
 114754640.125 8  89419228.90446  21837089.719                    21837091.270
       580.313         452.433          49.400          38.300
 112304382.364 7  87509968.95546  21370823.063                    21370830.098
     -2168.641       -1689.579          47.900          41.700
 18  2 20  8 11 30.0000000  0  8G07G05G23G09G16G30G02G06
 112649247.092 8  87778675.03246  21436443.133                    21436447.492
      2025.355        1578.422          52.200          40.600
 122755299.417 7  95653517.76245  23359562.711                    23359566.871
      3213.422        2503.991          46.000          30.200
 119898829.698 7  93427708.76245  22815996.367                    22815999.289
     -2635.246       -2053.331          47.900          33.800
 106981225.849 9  83362056.33247  20357854.180                    20357860.066
     -1254.598        -977.403          54.300          46.300
 126968011.155 6  98936169.22143  24161217.891                    24161222.359
       555.965         433.470          41.500          23.000
 119139183.523 8  92835756.36145  22671431.477                    22671438.758
      3327.324        2592.930          48.900          34.600
 114737503.367 8  89405875.57446  21833829.094                    21833830.621
       562.082         438.255          49.600          38.300
 112369686.066 8  87560854.94346  21383249.875                    21383256.965
     -2185.016       -1702.367          49.100          41.000
 18  2 20  8 12  0.0000000  0  8G07G05G23G09G16G30G02G06
 112588710.485 8  87731503.64746  21424923.211                    21424927.590
      2010.363        1566.728          51.900          40.000
 122658965.303 7  95578452.20945  23341230.727                    23341235.406
      3208.906        2500.500          44.700          30.400
 119977967.003 8  93489374.15445  22831055.961                    22831059.156
     -2640.645       -2057.549          48.000          33.700
 107019043.107 9  83391524.33347  20365050.578                    20365056.469
     -1266.656        -986.818          54.600          46.300
 126951631.180 7  98923405.60944  24158100.781                    24158105.309
       536.172         417.979          42.400          25.300
 119039489.805 7  92758072.93545  22652460.906                    22652467.902
      3318.820        2586.190          47.300          34.800
 114720913.306 8  89392948.25546  21830672.125                    21830673.840
       543.891         424.033          49.800          38.600
 112435481.321 8  87612123.93646  21395770.125                    21395777.570
     -2201.363       -1715.120          50.400          41.600
 18  2 20  8 12 30.0000000  0  8G07G05G23G09G16G30G02G06
 112528624.111 8  87684683.10946  21413488.797                    21413493.250
      1995.375        1555.028          52.200          40.300
 122562764.607 7  95503490.64145  23322924.742                    23322929.012
      3204.453        2497.030          45.800          30.400
 120057265.142 7  93551164.87745  22846145.273                    22846147.773
     -2646.047       -2061.710          47.500          32.100
 107057221.907 9  83421274.03747  20372315.734                    20372321.961
     -1278.684        -996.179          54.000          45.800
 126935847.146 7  98911106.37443  24155097.180                    24155101.359
       516.195         402.494          42.500          22.600
 118940056.686 8  92680592.58645  22633539.430                    22633546.008
      3310.109        2579.385          48.100          35.000
 114704870.536 8  89380447.38246  21827618.992                    21827621.074
       525.609         409.828          49.500          38.200
 112501765.893 8  87663774.21546  21408383.648                    21408390.801
     -2217.672       -1727.810          49.900          41.100
 18  2 20  8 13  0.0000000  0  8G07G05G23G09G16G30G02G06
 112468989.410 8  87638214.52746  21402140.859                    21402145.488
      1980.270        1543.272          52.800          40.400
 122466698.662 7  95428634.04645  23304644.055                    23304648.184
      3199.910        2493.511          46.600          31.400
 120136722.889 8  93613079.96045  22861266.445                    22861268.477
     -2651.273       -2065.829          48.100          33.200
 107095761.042 8  83451304.52647  20379649.563                    20379655.227
     -1290.668       -1005.542          53.300          46.100
 126920659.781 6  98899272.05743  24152207.836                    24152211.383
       496.199         386.980          41.100          22.600
 118840886.623 8  92603317.21745  22614667.969                    22614674.477
      3301.199        2572.526          48.400          35.200
 114689375.702 8  89368373.49246  21824670.609                    21824672.332
       507.363         395.578          49.200          38.300
 112568537.684 8  87715804.15046  21421090.117                    21421097.516
     -2233.937       -1740.436          48.500          41.100
 18  2 20  8 13 30.0000000  0  8G07G05G23G09G16G30G02G06
 112409808.060 8  87592099.20746  21390879.102                    21390883.730
      1965.141        1531.464          52.200          40.600
 122370769.477 7  95353884.03645  23286389.570                    23286393.961
      3195.379        2489.929          47.200          31.700
 120216338.895 8  93675118.39345  22876416.984                    22876417.844
     -2656.492       -2069.939          48.500          32.400
 107134659.178 8  83481614.75647  20387051.547                    20387057.418
     -1302.543       -1014.831          53.000          45.600
 126906070.244 6  98887903.61843  24149430.352                    24149434.289
       476.324         371.428          41.400          22.000
 118741981.977 8  92526248.67646  22595847.180                    22595853.793
      3292.301        2565.580          49.100          36.600
 114674429.462 8  89356727.04846  21821826.445                    21821827.699
       489.051         381.321          49.300          38.000
 112635794.377 8  87768211.95046  21433888.531                    21433895.629
     -2249.926       -1753.012          48.100          40.700
 18  2 20  8 14  0.0000000  0  8G07G05G23G09G16G30G02G06
 112351081.879 8  87546338.56446  21379703.664                    21379708.391
      1949.914        1519.611          51.900          40.500
 122274978.213 7  95279241.50145  23268160.945                    23268165.355
      3190.680        2486.315          43.700          30.700
 120296112.491 7  93737279.62545  22891597.141                    22891599.195
     -2661.742       -2074.021          47.000          32.100
 107173915.396 8  83512204.00347  20394521.742                    20394527.703
     -1314.484       -1024.138          52.100          46.300
 126892079.803 6  98877001.96143  24146768.820                    24146771.676
       456.375         355.846          40.200          21.300
 118643345.400 7  92449389.02046  22577077.195                    22577084.031
      3283.367        2558.592          46.900          36.800
 114660032.512 8  89345508.64346  21819086.594                    21819088.086
       470.719         367.033          49.700          38.400
 112703534.015 7  87820996.06246  21446778.961                    21446786.453
     -2266.113       -1765.551          47.800          40.500
 18  2 20  8 14 30.0000000  0  8G07G05G23G09G16G30G02G06
 112292812.559 8  87500933.92046  21368615.258                    21368619.840
      1934.672        1507.726          52.100          41.100
 122179326.843 7  95204707.96445  23249959.102                    23249963.324
      3185.973        2482.642          46.000          31.000
 120376042.440 7  93799562.69045  22906807.547                    22906808.785
     -2666.934       -2078.062          47.300          32.300
 107213528.437 8  83543071.30847  20402059.719                    20402066.027
     -1326.422       -1033.400          53.500          46.100
 126878689.343 6  98866567.82943  24144220.805                    24144224.090
       436.289         340.254          40.900          21.800
 118544979.395 8  92372740.20646  22558358.891                    22558365.391
      3274.273        2551.519          49.000          36.700
 114646185.790 8  89334718.98046  21816451.742                    21816453.199
       452.379         352.744          48.900          38.300
 112771754.340 8  87874154.71746  21459760.805                    21459767.977
     -2282.012       -1777.995          49.800          40.100
 18  2 20  8 15  0.0000000  0  8G07G05G23G09G16G30G02G06
 112235001.507 8  87455886.36146  21357614.219                    21357619.105
      1919.406        1495.823          52.300          40.900
 122083817.908 7  95130285.42445  23231784.227                    23231788.715
      3181.352        2478.951          45.000          31.200
 120456127.674 7  93861966.74645  22922047.352                    22922049.586
     -2672.082       -2082.070          47.700          34.400
 107253497.193 8  83574215.78247  20409665.766                    20409672.219
     -1338.199       -1042.606          52.500          45.600
 126865899.902 6  98856602.05843  24141786.633                    24141790.391
       416.242         324.621          40.400          21.800
 118446886.459 8  92296304.17746  22539692.234                    22539699.344
      3265.223        2544.425          48.200          37.400
 114632889.341 8  89324358.09946  21813921.531                    21813923.055
       434.055         338.452          48.800          38.300
 112840453.272 7  87927686.31846  21472833.531                    21472840.801
     -2297.930       -1790.387          47.800          40.500
 18  2 20  8 15 30.0000000  0  8G07G05G23G09G16G30G02G06
 112177651.193 8  87411197.83246  21346700.984                    21346705.484
      1904.035        1483.870          52.400          41.200
 121988452.825 7  95055974.96345  23213636.984                    23213641.066
      3176.445        2475.222          43.200          30.900
 120536367.751 7  93924491.44945  22937316.211                    22937318.234
     -2677.156       -2086.033          46.200          33.400
 107293821.327 9  83605637.17147  20417339.414                    20417345.688
     -1349.988       -1051.778          54.800          46.000
 126853713.288 6  98847106.01043  24139467.414                    24139471.156
       396.219         309.014          41.000          20.600
 118349069.845 7  92220083.46346  22521078.281                    22521085.477
      3255.898        2537.243          47.800          37.400
 114620144.851 8  89314427.32846  21811496.563                    21811498.094
       415.707         324.138          48.200          38.300
 112909629.368 8  87981589.72546  21485997.242                    21486004.773
     -2313.758       -1802.705          49.800          40.000
 18  2 20  8 16  0.0000000  0  8G07G05G23G09G16G30G02G06
 112120761.346 8  87366868.09446  21335875.086                    21335879.430
      1888.465        1471.837          52.700          40.300
 121893232.526 7  94981777.34145  23195517.391                    23195521.691
      3171.465        2471.391          47.200          31.000
 120616760.402 7  93987135.06545  22952613.617                    22952617.012
     -2682.410       -2090.043          45.000          32.400
 107334498.045 8  83637333.30747  20425079.719                    20425086.316
     -1361.891       -1060.980          53.500          46.100
 126842128.949 6  98838079.25443  24137263.539                    24137266.938
       375.902         293.315          41.000          21.700
 118251530.511 8  92144078.80746  22502517.086                    22502524.223
      3246.570        2529.970          50.000          37.700
 114607951.695 8  89304926.17246  21809176.188                    21809177.516
       397.141         309.756          48.800          38.100
 112979278.869 8  88035862.02146  21499251.375                    21499259.004
     -2329.609       -1815.024          50.000          40.500
 18  2 20  8 16 30.0000000  0  8G07G05G23G09G16G30G02G06
 112064334.182 8  87322898.89346  21325137.648                    21325141.609
      1873.137        1459.807          52.100          40.600
 121798159.234 7  94907694.25645  23177425.852                    23177429.930
      3166.570        2467.554          47.200          30.900
 120697304.854 7  94049896.91445  22967941.008                    22967943.438
     -2687.395       -2093.981          44.600          30.500
 107375526.779 9  83669303.74147  20432887.195                    20432893.391
     -1373.512       -1070.111          54.100          46.000
 126831148.215 6  98829522.83543  24135173.789                    24135177.637
       355.777         277.616          40.200          21.300
 118154271.499 8  92068292.58046  22484009.445                    22484015.980
      3237.254        2522.655          50.000          37.000
 114596310.520 8  89295855.12646  21806960.617                    21806962.586
       378.746         295.409          48.800          38.800
 113049400.143 8  88090501.94346  21512595.258                    21512602.609
     -2345.297       -1827.261          51.300          40.700
 18  2 20  8 17  0.0000000  0  8G07G05G23G09G16G30G02G06
 112008370.806 8  87279291.08146  21314487.914                    21314492.508
      1857.691        1447.732          52.900          40.900
 121703233.418 7  94833726.08745  23159361.641                    23159365.840
      3161.730        2463.723          44.100          31.400
 120777999.990 7  94112776.22545  22983297.211                    22983299.719
     -2692.359       -2097.880          45.000          30.700
 107416905.994 8  83701547.27447  20440761.555                    20440767.809
     -1385.195       -1079.199          53.700          46.200
 126820771.891 6  98821437.36244  24133199.695                    24133203.129
       335.695         261.918          41.200          24.000
 118057294.895 8  91992726.40246  22465554.695                    22465561.961
      3227.785        2515.288          48.300          37.500
 114585221.842 7  89287214.58846  21804850.844                    21804852.566
       360.313         281.040          47.800          38.900
 113119990.582 8  88145507.45246  21526028.227                    21526035.621
     -2360.855       -1839.406          50.000          41.200
 18  2 20  8 17 30.0000000  0  8G07G05G23G09G16G30G02G06
 111952873.340 8  87236046.33046  21303927.430                    21303931.531
      1842.180        1435.653          52.500          41.300
 121608458.018 7  94759875.14545  23141326.117                    23141330.656
      3156.684        2459.772          43.500          31.100
 120858845.191 7  94175772.44245  22998682.281                    22998684.035
     -2697.285       -2101.735          46.200          32.800
 107458634.911 8  83734063.31547  20448702.023                    20448708.203
     -1396.766       -1088.240          52.800          46.000
 126811000.980 6  98813823.65143  24131340.133                    24131343.859
       315.613         246.187          41.700          22.200
 117960603.586 7  91917382.53646  22447155.672                    22447162.371
      3218.270        2507.880          47.900          37.500
 114574686.730 8  89279005.39946  21802846.070                    21802847.984
       341.941         266.716          48.300          38.300
 113191048.341 8  88200877.11246  21539549.773                    21539557.277
     -2376.453       -1851.498          48.700          40.800
 18  2 20  8 18  0.0000000  0  8G07G05G23G09G16G30G02G06
 111897843.144 8  87193165.68046  21293455.250                    21293459.348
      1826.547        1423.474          52.400          41.100
 121513834.779 7  94686142.73945  23123320.406                    23123324.426
      3151.516        2455.813          46.900          31.300
 120939838.549 7  94238884.14345  23014094.078                    23014097.367
     -2702.293       -2105.574          46.000          33.300
 107500712.105 8  83766850.73147  20456709.164                    20456715.828
     -1408.387       -1097.276          53.900          45.800
 126801836.131 6  98806682.19943  24129595.711                    24129600.273
       295.297         230.427          41.400          22.800
 117864199.757 8  91842262.70346  22428810.188                    22428817.102
      3208.637        2500.359          48.100          37.800
 114564705.018 8  89271227.44846  21800946.781                    21800948.543
       323.543         252.298          48.000          38.300
 113262570.801 8  88256608.87646  21553160.461                    21553167.855
     -2391.754       -1863.550          49.900          40.900
 18  2 20  8 18 30.0000000  0  8G07G05G23G09G16G30G02G06
 111843281.315 8  87150649.99246  21283072.375                    21283076.828
      1810.930        1411.267          52.800          40.800
 121419365.164 7  94612530.05145  23105343.102                    23105347.109
      3146.449        2451.780          47.500          31.000
 121020979.320 7  94302110.67845  23029534.938                    23029537.891
     -2707.078       -2109.421          47.000          32.800
 107543136.353 9  83799908.58247  20464782.211                    20464788.262
     -1419.902       -1106.286          54.900          45.900
 126793278.013 6  98800013.53143  24127967.258                    24127971.480
       275.270         214.632          40.900          21.100
 117768085.831 8  91767368.74346  22410520.219                    22410527.184
      3198.965        2492.792          48.700          37.400
 114555277.605 8  89263881.40046  21799152.609                    21799154.445
       304.996         237.868          48.000          38.800
 113334555.756 8  88312701.02946  21566858.586                    21566865.605
     -2407.164       -1875.534          50.500          40.800
 18  2 20  8 19  0.0000000  0  8G07G05G23G09G16G30G02G06
 111789189.427 8  87108500.48946  21272779.211                    21272783.711
      1795.191        1399.086          52.300          41.300
 121325050.927 7  94539038.43745  23087395.539                    23087399.813
      3141.293        2447.767          47.000          31.600
 121102266.519 7  94365451.31645  23045003.508                    23045006.598
     -2711.969       -2113.170          45.800          33.000
 107585906.468 8  83833235.94147  20472921.039                    20472927.117
     -1431.402       -1115.218          53.500          45.800
 126785327.528 6  98793818.30643  24126454.492                    24126458.277
       254.840         198.899          39.000          22.000
 117672264.226 7  91692702.57346  22392285.828                    22392293.008
      3189.121        2485.209          47.900          37.700
 114546404.453 8  89256967.25146  21797463.984                    21797465.789
       286.508         223.521          48.400          39.000
 113407000.793 8  88369151.69246  21580644.352                    21580651.766
     -2422.457       -1887.432          51.200          40.900
 18  2 20  8 19 30.0000000  0  8G07G05G23G09G16G30G02G06
 111735568.984 8  87066718.34346  21262575.570                    21262579.688
      1779.430        1386.792          53.100          41.200
 121230893.370 7  94465668.90645  23069478.219                    23069482.141
      3135.961        2443.652          46.800          30.400
 121183699.006 7  94428905.17145  23060498.852                    23060502.707
     -2716.883       -2116.978          46.100          31.800
 107629021.262 8  83866831.86847  20481125.648                    20481131.785
     -1442.937       -1124.202          53.800          45.800
 126777985.464 6  98788097.20843  24125057.781                    24125060.926
       234.555         183.036          40.900          22.600
 117576737.421 8  91618266.12146  22374107.984                    22374115.441
      3179.207        2477.461          49.100          38.300
 114538086.159 7  89250485.45646  21795880.969                    21795882.734
       267.938         209.071          47.500          38.400
 113479903.631 8  88425959.07046  21594517.586                    21594524.879
     -2437.797       -1899.329          50.400          41.400
 18  2 20  8 20  0.0000000  0  8G07G05G23G09G16G30G02G06
 111682421.730 8  87025304.91547  21252461.672                    21252466.441
      1763.711        1374.506          52.800          42.100
 121136894.120 7  94392422.72945  23051590.945                    23051594.605
      3130.680        2439.553          47.000          31.400
 121265276.208 7  94492471.77845  23076022.828                    23076025.863
     -2721.621       -2120.681          45.100          31.900
 107672479.746 9  83900695.62447  20489395.563                    20489401.492
     -1454.414       -1133.107          54.500          45.600
 126771252.645 6  98782850.86143  24123775.867                    24123779.293
       214.262         167.232          41.000          21.800
 117481508.005 7  91544061.40146  22355986.750                    22355993.520
      3169.391        2469.736          47.900          37.600
 114530323.631 8  89244436.72246  21794404.063                    21794405.508
       249.500         194.647          48.300          38.900
 113553262.150 8  88483121.53946  21608477.156                    21608484.906
     -2452.824       -1911.101          49.700          41.000
 18  2 20  8 20 30.0000000  0  8G07G05G23G09G16G30G02G06
 111629748.671 8  86984260.98946  21242438.414                    21242442.875
      1747.824        1362.165          52.800          41.800
 121043055.190 7  94319301.49845  23033733.695                    23033737.906
      3125.316        2435.345          47.800          31.400
 121346996.712 7  94556150.04745  23091573.773                    23091576.617
     -2726.461       -2124.409          45.500          32.000
 107716280.557 9  83934826.10947  20497730.594                    20497736.531
     -1465.809       -1141.976          55.000          46.200
 126765129.618 6  98778079.67143  24122611.359                    24122614.496
       193.977         151.357          39.800          21.100
 117386578.253 8  91470090.17446  22337922.391                    22337929.047
      3159.289        2461.932          48.400          38.400
 114523116.880 7  89238821.07946  21793032.844                    21793034.535
       230.934         180.208          47.300          39.000
 113627073.815 8  88540637.09846  21622522.906                    21622530.992
     -2467.914       -1922.848          50.600          41.500
 18  2 20  8 21  0.0000000  0  8G07G05G23G09G16G30G02G06
 111577550.927 8  86943587.44446  21232505.672                    21232509.992
      1731.984        1349.804          53.000          41.400
 120949379.082 7  94246307.12945  23015907.703                    23015912.352
      3119.746        2431.091          47.600          32.300
 121428858.993 7  94619938.81045  23107151.914                    23107154.395
     -2731.109       -2128.061          46.000          31.100
 107760422.170 9  83969222.16647  20506130.492                    20506137.090
     -1477.020       -1150.820          54.800          46.200
 126759616.943 6  98773784.07643  24121561.547                    24121565.012
       173.473         135.500          39.500          20.600
 117291950.270 8  91396354.09946  22319914.813                    22319921.730
      3149.219        2454.049          49.100          37.600
 114516465.910 7  89233638.49946  21791766.742                    21791768.348
       212.398         165.773          46.100          38.100
 113701336.006 8  88598503.72146  21636654.961                    21636662.598
     -2482.945       -1934.538          49.700          41.100
 18  2 20  8 21 30.0000000  0  8G07G05G23G09G16G30G02G06
 111525830.157 8  86903285.56347  21222663.664                    21222667.746
      1716.063        1337.372          53.600          42.300
 120855867.316 7  94173440.82645  22998113.227                    22998117.648
      3114.246        2426.772          47.500          32.500
 121510862.381 7  94683837.53545  23122756.547                    23122759.039
     -2735.703       -2131.731          45.800          31.200
 107804903.738 8  84003883.11447  20514594.852                    20514601.180
     -1488.359       -1159.632          53.200          46.000
 126754715.466 7  98769964.77743  24120629.164                    24120632.445
       153.230         119.611          42.000          21.800
 117197626.789 8  91322855.29846  22301965.266                    22301972.613
      3139.023        2446.104          48.700          37.900
 114510371.463 7  89228889.57346  21790607.078                    21790609.348
       193.832         151.286          47.000          38.100
 113776046.559 7  88656719.70346  21650871.805                    21650879.332
     -2497.777       -1946.150          47.500          40.700
 18  2 20  8 22  0.0000000  0  8G07G05G23G09G16G30G02G06
 111474587.762 8  86863356.45047  21212912.281                    21212916.785
      1700.070        1324.985          53.800          42.100
 120762521.462 7  94100703.81545  22980350.023                    22980354.332
      3108.781        2422.506          47.100          32.400
 121593005.820 7  94747845.37345  23138387.977                    23138390.602
     -2740.402       -2135.316          45.900          31.400
 107849723.991 9  84038807.97447  20523123.906                    20523130.000
     -1499.621       -1168.390          54.600          45.800
 126750425.772 6  98766622.12743  24119812.992                    24119816.520
       132.773         103.774          41.100          21.500
 117103610.155 8  91249595.61446  22284074.406                    22284082.246
      3128.789        2438.138          49.500          38.300
 114504833.751 7  89224574.47146  21789553.797                    21789555.578
       175.340         136.864          47.200          38.300
 113851203.057 8  88715283.18846  21665173.773                    21665181.098
     -2512.582       -1957.666          50.000          40.600
 18  2 20  8 22 30.0000000  0  8G07G05G23G09G16G30G02G06
 111423824.911 8  86823801.00746  21203252.539                    21203256.766
      1684.059        1312.490          53.200          41.600
 120669342.601 7  94028096.91645  22962618.266                    22962622.738
      3103.117        2418.153          47.400          32.100
 121675288.426 7  94811961.63545  23154046.602                    23154048.613
     -2745.047       -2138.939          47.400          32.300
 107894881.742 9  84073995.81247  20531717.492                    20531723.434
     -1510.848       -1177.137          54.000          45.800
 126746748.187 6  98763756.51243  24119112.461                    24119116.469
       112.355          87.845          41.600          22.300
 117009902.763 8  91176576.88546  22266243.102                    22266250.262
      3118.395        2430.056          49.700          38.500
 114499852.961 7  89220693.31946  21788605.617                    21788607.391
       156.711         122.377          47.500          38.800
 113926803.087 8  88774192.28146  21679559.789                    21679567.199
     -2527.367       -1969.169          49.900          40.300
 18  2 20  8 23  0.0000000  0  8G07G05G23G09G16G30G02G06
 111373542.883 8  86784620.21946  21193684.094                    21193688.766
      1668.105        1299.969          53.100          41.200
 120576332.738 7  93955621.71145  22944919.352                    22944923.773
      3097.488        2413.665          47.600          32.000
 121757709.010 7  94876185.44845  23169730.219                    23169732.523
     -2749.586       -2142.535          47.100          31.100
 107940375.608 9  84109445.56947  20540374.227                    20540380.625
     -1522.000       -1185.888          54.500          45.700
 126743683.563 6  98761368.47143  24118530.164                    24118533.680
        91.941          71.898          41.400          21.800
 116916506.821 8  91103800.85946  22248469.883                    22248477.387
      3108.000        2421.931          49.900          38.100
 114495429.447 7  89217246.42646  21787763.906                    21787765.563
       138.133         107.884          47.500          38.700
 114002844.085 8  88833444.98646  21694029.750                    21694037.297
     -2541.988       -1980.612          50.000          40.200
 18  2 20  8 23 30.0000000  0  8G07G05G23G09G16G30G02G06
 111323742.940 8  86745815.08347  21184207.500                    21184212.051
      1651.922        1287.451          52.700          42.000
 120483494.679 7  93883280.36445  22927252.359                    22927256.789
      3091.730        2409.225          47.800          32.200
 121840266.489 7  94940515.89845  23185440.430                    23185442.859
     -2754.195       -2146.071          47.100          31.900
 107986204.396 9  84145156.29047  20549095.242                    20549101.082
     -1533.203       -1194.547          54.100          45.200
 126741231.940 6  98759458.14143  24118063.031                    24118067.391
        71.395          55.971          41.400          22.300
 116823424.751 8  91031269.40446  22230757.445                    22230764.426
      3097.449        2413.741          49.600          38.400
 114491563.333 7  89214233.86046  21787028.367                    21787029.797
       119.531          93.421          47.900          38.400
 114079323.633 8  88893039.41546  21708583.266                    21708591.262
     -2556.641       -1991.968          49.800          39.500
 18  2 20  8 24  0.0000000  0  8G07G05G23G09G16G30G02G06
 111274426.429 8  86707386.64046  21174822.945                    21174827.598
      1635.738        1274.853          52.900          41.300
