     2.11           OBSERVATION DATA    G (GPS)             RINEX VERSION / TYPE
teqc  2016Nov7                          20180328 12:23:34UTCPGM / RUN BY / DATE
Linux 2.4.21-27.ELsmp|Opteron|gcc|Linux x86_64|=+           COMMENT
teqc  2016Nov7                          20180328 12:23:32UTCCOMMENT
     2.11           OBSERVATION DATA    M (MIXED)           COMMENT
teqc  2016Nov7                          20180328 12:23:30UTCCOMMENT
teqc  2016Nov7      IGN-RGP             20180220 09:16:01UTCCOMMENT
teqc  2015Jun23     IGN-RGP             20180220 09:06:32UTCCOMMENT
Linux2.4.20-8|i386|gcc|Win32-MinGW32|=                      COMMENT
   0.000      (antenna height)                              COMMENT
 +48.64478779 (latitude)                                    COMMENT
  +2.82290348 (longitude)                                   COMMENT
0189.374      (elevation)                                   COMMENT
BIT 2 OF LLI FLAGS DATA COLLECTED UNDER A/S CONDITION       COMMENT
19780M001 (COGO code)                                       COMMENT
SXJ3                                                        MARKER NAME
19780M001                                                   MARKER NUMBER
Automatic           GIE COOP&TECH                           OBSERVER / AGENCY
5010k65923          TRIMBLE NETR5       4.03                REC # / TYPE / VERS
1441003057          TRM55971.00     NONE                    ANT # / TYPE
  4217168.3290   207943.7820  4764693.1160                  APPROX POSITION XYZ
        1.2400        0.0000        0.0000                  ANTENNA: DELTA H/E/N
     1     1                                                WAVELENGTH FACT L1/2
     9    L1    L2    C1    P1    P2    D1    D2    S1    S2# / TYPES OF OBSERV
    30.0000                                                 INTERVAL
    18                                                      LEAP SECONDS
 SNR is mapped to RINEX snr flag value [0-9]                COMMENT
  L1 & L2: min(max(int(snr_dBHz/6), 0), 9)                  COMMENT
teqc_2016 edited: GLONASS # 25 - 30 excluded                COMMENT
Forced Modulo Decimation to 30 seconds                      COMMENT
teqc_2016 edited: all GLONASS satellites excluded           COMMENT
teqc_2016 edited: all SBAS satellites excluded              COMMENT
teqc_2016 edited: all Galileo satellites excluded           COMMENT
  2018     2    20     8     0    0.0000000     GPS         TIME OF FIRST OBS
                                                            END OF HEADER
 18  2 20  8  0  0.0000000  0  8G05G16G07G09G23G30G02G06
 125201590.492 7  97559725.58544  23825077.844                    23825081.637
      3300.480                          44.700          28.500
 127543262.442 6  99384396.64243  24270680.352                    24270684.625
       969.449                          39.700          21.100
 113985649.769 8  88820033.52946  21690754.336                    21690758.117
      2329.695                          49.500          39.200
 106223700.687 8  82771788.01247  20213704.281                    20213709.898
      -965.668                          52.500          46.500
 118120495.841 8  92041975.89145  22477587.563                    22477589.488
     -2491.082                          49.400          35.800
 121286694.902 8  94509155.59745  23080094.047                    23080100.781
      3490.395                          48.400          34.900
 115390625.648 8  89914791.53146  21958112.898                    21958113.680
      1001.793                          48.100          39.400
 110932084.746 8  86440646.06447  21109682.383                    21109688.457
     -1758.684                          50.900          42.600
 18  2 20  8  0 30.0000000  0  8G05G16G07G09G23G30G02G06
 125102619.022 7  97482604.93244  23806244.781                    23806247.035
      3297.496        2569.533          44.100          28.300
 127514464.520 6  99361956.67043  24265201.414                    24265204.441
       950.461         740.933          39.200          20.900
 113915962.492 8  88765731.75546  21677493.078                    21677497.266
      2315.992        1804.905          49.400          39.400
 106252864.191 8  82794512.81247  20219254.023                    20219259.582
      -978.551        -762.312          52.900          46.300
 118195319.227 8  92100279.83045  22491825.438                    22491828.113
     -2497.199       -1945.789          49.600          35.700
 121182084.089 8  94427640.70545  23060187.258                    23060193.883
      3483.434        2714.572          48.400          34.400
 115360831.332 7  89891575.17846  21952443.156                    21952444.117
       984.344         767.298          46.700          39.000
 110985110.351 8  86481964.69947  21119772.625                    21119779.277
     -1776.559       -1384.047          50.300          43.100
 18  2 20  8  1  0.0000000  0  8G05G16G07G09G23G30G02G06
 125003739.861 7  97405556.18944  23787428.625                    23787431.816
      3294.363        2567.139          46.400          29.800
 127486230.413 6  99339956.05643  24259829.117                    24259831.344
       931.707         726.269          40.300          21.800
 113846687.027 8  88711750.87046  21664310.367                    21664314.457
      2302.219        1794.178          49.000          39.400
 106282410.898 8  82817536.20947  20224876.563                    20224882.109
      -991.277        -772.249          53.600          45.800
 118270326.956 8  92158727.38446  22506099.523                    22506101.480
     -2503.340       -1950.530          49.600          36.000
 121077679.612 8  94346286.58845  23040319.883                    23040325.891
      3476.637        2709.222          48.200          34.800
 115331561.171 7  89868767.25646  21946873.070                    21946874.234
       966.883         753.698          47.400          39.800
 111038672.451 8  86523701.38447  21129964.961                    21129971.891
     -1794.418       -1397.925          50.000          43.000
 18  2 20  8  1 30.0000000  0  8G05G16G07G09G23G30G02G06
 124904954.650 7  97328580.71244  23768630.344                    23768634.371
      3291.156        2564.646          45.300          28.900
 127458562.348 6  99318396.51043  24254563.742                    24254566.922
       912.730         711.529          39.900          21.800
 113777826.001 8  88658092.94046  21651206.555                    21651210.414
      2288.383        1783.375          50.400          40.200
 106312340.164 8  82840857.71347  20230571.789                    20230577.301
     -1004.078        -782.181          53.300          46.500
 118345518.152 8  92217317.91846  22520407.602                    22520410.164
     -2509.465       -1955.296          50.600          36.100
 120973484.465 7  94265095.60145  23020492.305                    23020498.371
      3469.594        2703.718          47.600          35.100
 115302816.891 7  89846369.11746  21941402.789                    21941404.516
       949.254         739.997          47.200          40.200
 111092769.721 8  86565855.07947  21140259.891                    21140266.539
     -1812.266       -1411.821          50.500          42.700
 18  2 20  8  2  0.0000000  0  8G05G16G07G09G23G30G02G06
 124806264.707 7  97251679.45944  23749849.617                    23749854.957
      3287.984        2562.162          45.600          29.600
 127431461.669 7  99297279.08643  24249406.813                    24249409.563
       893.840         696.795          42.000          22.800
 113709380.563 8  88604758.85046  21638181.828                    21638186.180
      2274.523        1772.586          50.000          40.100
 106342650.392 8  82864476.06347  20236339.852                    20236345.090
     -1016.723        -792.041          52.800          46.600
 118420891.333 8  92276050.24445  22534750.844                    22534752.664
     -2515.520       -1959.999          50.300          35.400
 120869500.684 8  94184069.29845  23000704.820                    23000710.941
      3462.559        2698.229          48.100          34.900
 115274598.648 7  89824380.87246  21936033.484                    21936035.000
       931.836         726.344          46.500          39.200
 111147399.965 8  86608424.10047  21150655.328                    21150662.051
     -1829.887       -1425.636          50.200          42.400
 18  2 20  8  2 30.0000000  0  8G05G16G07G09G23G30G02G06
 124707672.176 7  97174854.16845  23731088.406                    23731093.008
      3284.824        2559.645          45.600          30.800
 127404929.759 6  99276604.83143  24244358.344                    24244361.324
       874.898         682.021          40.500          22.900
 113641352.569 8  88551750.03346  21625236.328                    21625240.605
      2260.621        1761.742          50.000          39.900
 106373340.327 8  82888390.30047  20242179.984                    20242185.465
     -1029.324        -801.870          53.500          46.400
 118496445.043 8  92334923.25345  22549128.203                    22549130.000
     -2521.469       -1964.653          50.100          35.500
 120765730.767 7  94103209.65445  22980957.430                    22980963.762
      3455.406        2692.659          47.700          34.900
 115246907.952 7  89802803.70946  21930763.742                    21930765.637
       914.203         712.650          45.500          39.500
 111202561.293 8  86651406.93647  21161152.273                    21161158.840
     -1847.406       -1439.357          51.200          42.500
 18  2 20  8  3  0.0000000  0  8G05G16G07G09G23G30G02G06
 124609178.581 7  97098105.90645  23712345.828                    23712350.195
      3281.422        2557.042          45.900          30.200
 127378968.475 6  99256375.26444  24239418.336                    24239420.262
       855.820         667.163          41.100          24.000
 113573744.298 8  88499068.26846  21612370.961                    21612374.949
      2246.574        1750.796          50.800          39.900
 106404409.154 8  82912599.77347  20248092.164                    20248097.707
     -1041.992        -811.712          53.000          46.600
 118572178.530 8  92393936.34245  22563539.430                    22563541.410
     -2527.477       -1969.341          50.000          35.100
 120662177.494 8  94022518.82845  22961252.102                    22961258.605
      3448.090        2686.982          48.000          35.400
 115219746.338 7  89781638.80446  21925595.070                    21925596.832
       896.527         698.876          46.000          39.600
 111258252.250 8  86694802.46547  21171749.875                    21171756.773
     -1865.172       -1453.123          50.200          42.600
 18  2 20  8  3 30.0000000  0  8G05G16G07G09G23G30G02G06
 124510785.124 7  97021435.66744  23693621.594                    23693625.844
      3278.172        2554.407          47.000          29.700
 127353578.863 7  99236591.12943  24234586.227                    24234588.730
       836.891         652.279          42.300          23.300
 113506557.195 8  88446714.69946  21599585.875                    21599590.137
      2232.703        1739.838          50.500          40.200
 106435855.527 8  82937103.43347  20254076.047                    20254081.754
     -1054.309        -821.508          52.600          46.600
 118648090.352 8  92453088.38545  22577985.359                    22577987.207
     -2533.180       -1973.938          49.700          35.400
 120558843.124 8  93941998.58746  22941588.547                    22941594.703
      3440.984        2681.260          48.600          36.000
 115193114.163 7  89760886.43646  21920526.992                    21920528.777
       879.137         685.108          47.000          39.900
 111314470.814 8  86738609.13147  21182447.992                    21182454.766
     -1882.539       -1466.816          50.200          42.500
 18  2 20  8  4  0.0000000  0  8G05G16G07G09G23G30G02G06
 124412492.020 7  96944843.62544  23674917.297                    23674921.484
      3274.672        2551.770          44.400          27.200
 127328761.734 6  99217253.11543  24229863.977                    24229867.039
       817.660         637.400          41.300          22.000
 113439792.532 8  88394690.31046  21586880.844                    21586884.895
      2218.328        1728.810          51.100          39.400
 106467677.675 8  82961899.91147  20260131.578                    20260137.508
     -1067.078        -831.270          53.200          46.300
 118724178.578 8  92512377.88545  22592464.680                    22592466.004
     -2539.293       -1978.514          49.800          34.700
 120455729.602 8  93861650.41646  22921966.789                    22921972.730
      3433.324        2675.463          48.500          36.100
 115167012.047 7  89740547.10546  21915560.375                    21915561.895
       861.160         671.300          46.900          39.800
 111371214.517 8  86782824.98847  21193246.109                    21193252.773
     -1900.273       -1480.453          50.600          42.700
 18  2 20  8  4 30.0000000  0  8G05G16G07G09G23G30G02G06
 124314302.093 7  96868331.98144  23656231.711                    23656236.371
      3271.184        2549.077          42.300          27.100
 127304520.026 6  99198363.47343  24225251.031                    24225253.738
       798.449         622.417          41.800          22.500
 113373453.122 8  88342997.28846  21574256.766                    21574260.340
      2204.191        1717.753          51.300          39.900
 106499875.492 8  82986989.10947  20266258.641                    20266264.309
     -1079.578        -841.009          53.400          46.300
 118800443.167 8  92571804.81645  22606977.180                    22606978.883
     -2545.125       -1983.090          49.800          34.900
 120352840.435 8  93781477.07746  22902387.180                    22902394.047
      3425.914        2669.619          49.100          36.700
 115141441.979 7  89720622.36546  21910694.672                    21910695.621
       843.492         657.483          47.900          38.800
 111428482.490 8  86827449.35447  21204143.852                    21204150.938
     -1917.629       -1494.036          51.100          42.300
 18  2 20  8  5  0.0000000  0  8G05G16G07G09G23G30G02G06
 124216217.189 7  96791902.21544  23637567.164                    23637571.938
      3267.656        2546.299          44.300          27.900
 127280855.025 6  99179923.17443  24220747.688                    24220750.828
       779.262         607.412          40.600          22.800
 113307540.687 8  88291636.98146  21561713.977                    21561717.750
      2189.922        1706.616          50.900          39.200
 106532447.684 8  83012370.03247  20272456.688                    20272462.527
     -1092.086        -850.738          52.300          45.600
 118876882.619 8  92631368.00545  22621523.047                    22621524.848
     -2550.941       -1987.659          49.200          33.600
 120250178.033 8  93701480.43546  22882851.359                    22882857.836
      3418.176        2663.667          49.200          37.300
 115116405.094 7  89701113.09446  21905930.063                    21905931.156
       825.688         643.597          46.900          38.800
 111486272.864 8  86872480.80147  21215140.922                    21215147.789
     -1935.086       -1507.594          50.700          42.200
 18  2 20  8  5 30.0000000  0  8G05G16G07G09G23G30G02G06
 124118238.988 7  96715555.53245  23618921.977                    23618928.023
      3264.086        2543.533          44.700          30.900
 127257768.070 6  99161933.36243  24216354.078                    24216357.445
       759.895         592.367          38.900          22.800
 113242057.113 8  88240610.83946  21549252.898                    21549256.621
      2175.559        1695.443          50.800          39.600
 106565393.287 8  83038041.91747  20278726.508                    20278731.719
     -1104.461        -860.415          53.300          45.400
 118953496.154 8  92691066.84545  22636102.000                    22636104.047
     -2556.695       -1992.169          48.900          34.000
 120147745.073 8  93621662.57346  22863359.016                    22863365.457
      3410.520        2657.670          49.800          37.300
 115091902.427 7  89682020.08846  21901267.836                    21901268.473
       807.750         629.699          46.600          38.600
 111544583.815 8  86917917.88347  21226237.109                    21226244.215
     -1952.426       -1521.115          50.000          42.700
 18  2 20  8  6  0.0000000  0  8G05G16G07G09G23G30G02G06
 124020368.187 7  96639292.59045  23600298.945                    23600304.195
      3260.445        2540.700          44.100          30.500
 127235260.493 6  99144394.98743  24212071.383                    24212074.617
       740.602         577.314          40.700          22.200
 113177003.945 8  88189920.07246  21536873.695                    21536877.258
      2161.305        1684.274          51.600          39.500
 106598711.000 8  83064003.76747  20285066.359                    20285071.887
     -1116.797        -870.063          53.000          45.800
 119030282.559 8  92750900.37545  22650714.313                    22650716.254
     -2562.457       -1996.625          48.100          33.100
 120045543.902 8  93542025.32346  22843910.969                    22843917.605
      3402.883        2651.655          50.200          37.100
 115067935.005 7  89663344.16546  21896706.469                    21896707.539
       789.973         615.800          47.600          37.900
 111603413.302 8  86963759.01947  21237432.039                    21237438.875
     -1969.570       -1534.534          50.900          43.000
 18  2 20  8  6 30.0000000  0  8G05G16G07G09G23G30G02G06
 123922607.210 6  96563115.21044  23581695.242                    23581700.438
      3256.828        2537.852          41.800          29.800
 127213333.651 6  99127309.13943  24207898.734                    24207902.539
       721.125         562.204          40.100          22.800
 113112383.001 8  88139566.11046  21524576.680                    21524580.348
      2146.809        1673.001          51.700          39.200
 106632399.576 8  83090254.59447  20291477.148                    20291482.289
     -1129.090        -879.695          53.900          45.800
 119107240.518 8  92810867.59145  22665358.984                    22665361.164
     -2568.113       -2001.080          49.100          33.300
 119943576.973 8  93462570.60146  22824506.953                    22824513.574
      3394.984        2645.501          49.900          37.000
 115044503.307 7  89645085.69546  21892247.461                    21892248.563
       772.113         601.861          46.900          37.900
 111662759.370 8  87010002.67347  21248725.117                    21248732.223
     -1986.770       -1547.945          50.000          42.400
 18  2 20  8  7  0.0000000  0  8G05G16G07G09G23G30G02G06
 123824957.220 7  96487024.28944  23563112.523                    23563117.785
      3253.238        2534.957          43.600          29.300
 127191988.920 7  99110676.92043  24203836.563                    24203840.691
       701.762         547.070          42.200          22.500
 113048195.814 8  88089550.12846  21512362.617                    21512366.063
      2132.395        1661.751          52.500          40.200
 106666457.984 8  83116793.60447  20297958.336                    20297963.328
     -1141.371        -889.255          52.700          45.700
 119184368.723 8  92870967.47545  22680035.727                    22680038.016
     -2573.676       -2005.448          48.400          33.400
 119841846.847 8  93383300.39446  22805148.352                    22805154.852
      3387.105        2639.351          49.100          37.000
 115021608.604 7  89627245.66046  21887890.539                    21887891.559
       754.277         587.924          44.900          37.800
 111722620.160 8  87056647.42347  21260115.992                    21260123.348
     -2003.793       -1561.253          50.700          42.500
 18  2 20  8  7 30.0000000  0  8G05G16G07G09G23G30G02G06
 123727419.953 7  96411021.23744  23544552.336                    23544557.000
      3249.387        2532.065          45.200          29.700
 127171227.645 6  99094499.28543  24199885.648                    24199890.164
       682.301         531.972          40.400          22.300
 112984444.311 8  88039873.63946  21500230.953                    21500234.613
      2117.855        1650.442          52.800          40.600
 106700884.898 8  83143619.76447  20304509.945                    20304514.918
     -1153.668        -898.782          53.100          45.600
 119261665.856 8  92931198.98245  22694745.023                    22694747.531
     -2579.281       -2009.787          48.300          33.600
 119740355.943 8  93304216.58946  22785835.125                    22785842.008
      3379.137        2633.162          49.000          37.400
 114999251.583 7  89609824.59846  21883636.398                    21883637.391
       736.379         573.999          46.800          37.300
 111782993.611 8  87103691.65447  21271604.813                    21271612.012
     -2020.848       -1574.512          49.500          42.900
 18  2 20  8  8  0.0000000  0  8G05G16G07G09G23G30G02G06
 123629997.007 7  96335107.24245  23526014.094                    23526018.523
      3245.531        2529.014          45.700          30.700
 127151051.120 6  99078777.35843  24196046.508                    24196050.895
       662.781         516.702          41.100          22.300
 112921130.667 8  87990538.33446  21488183.172                    21488186.414
      2103.074        1638.980          53.200          39.900
 106735679.397 8  83170732.36047  20311131.234                    20311136.203
     -1166.008        -908.375          53.300          46.300
 119339131.277 8  92991561.63445  22709486.328                    22709488.660
     -2585.004       -2014.214          48.700          33.100
 119639106.933 8  93225321.26846  22766568.109                    22766574.742
      3370.914        2626.784          48.800          36.300
 114977433.458 7  89592823.45846  21879484.477                    21879485.492
       718.266         559.905          45.400          37.800
 111843877.957 8  87151133.98447  21283190.711                    21283197.707
     -2038.023       -1587.814          50.500          42.600
 18  2 20  8  8 30.0000000  0  8G05G16G07G09G23G30G02G06
 123532689.337 7  96259283.05045  23507497.063                    23507501.324
      3241.578        2525.988          45.700          31.200
 127131460.868 7  99063512.25543  24192318.305                    24192323.637
       643.191         501.455          42.000          22.500
 112858256.263 8  87941545.28746  21476218.203                    21476221.762
      2088.469        1627.549          52.700          39.700
 106770840.462 8  83198130.59047  20317821.898                    20317827.238
     -1178.117        -917.882          53.300          46.000
 119416764.342 8  93052054.90645  22724259.195                    22724261.785
     -2590.574       -2018.564          48.600          33.600
 119538102.517 7  93146616.54146  22747347.250                    22747354.301
      3362.691        2620.366          47.300          36.300
 114956155.590 7  89576243.30546  21875435.234                    21875436.766
       700.215         545.856          46.900          37.700
 111905271.362 8  87198972.99847  21294873.531                    21294880.578
     -2054.895       -1601.018          49.300          42.600
 18  2 20  8  9  0.0000000  0  8G05G16G07G09G23G30G02G06
 123435499.188 7  96183550.48445  23489002.172                    23489007.273
      3237.715        2522.956          43.400          31.400
 127112457.919 6  99048704.76243  24188701.859                    24188706.270
       623.723         486.240          40.300          21.300
 112795822.864 8  87892895.88346  21464337.969                    21464341.359
      2073.797        1616.135          53.000          40.600
 106806366.730 8  83225813.39547  20324582.453                    20324587.582
     -1190.273        -927.300          53.200          46.300
 119494563.151 7  93112677.33145  22739063.867                    22739066.707
     -2596.105       -2022.794          47.800          33.100
 119437344.887 7  93068104.12246  22728173.930                    22728180.883
      3354.492        2614.006          46.400          36.100
 114935418.369 7  89560084.41046  21871488.836                    21871490.727
       682.273         531.877          46.200          38.300
 111967171.598 8  87247206.92246  21306652.891                    21306659.918
     -2071.684       -1614.101          50.300          41.800
 18  2 20  8  9 30.0000000  0  8G05G16G07G09G23G30G02G06
 123338428.580 7  96107911.05645  23470530.188                    23470535.109
      3233.664        2519.787          44.100          30.000
 127094043.360 7  99034355.79143  24185197.336                    24185201.855
       603.902         470.879          42.000          21.700
 112733831.836 8  87844591.17746  21452541.250                    21452545.027
      2058.883        1604.552          52.500          40.400
 106842256.950 8  83253779.79547  20331412.086                    20331417.777
     -1202.508        -936.798          53.700          46.400
 119572526.411 8  93173427.89045  22753899.953                    22753902.461
     -2601.566       -2027.106          48.400          33.700
 119336836.501 7  92989785.91246  22709047.641                    22709054.883
      3346.094        2607.428          47.000          36.300
 114915222.318 7  89544347.22046  21867646.266                    21867647.711
       664.133         517.751          47.300          38.600
 112029576.550 8  87295834.13046  21318528.281                    21318534.941
     -2088.637       -1627.258          50.000          41.800
 18  2 20  8 10  0.0000000  0  8G05G16G07G09G23G30G02G06
 123241477.954 7  96032365.11944  23452080.867                    23452085.234
      3229.734        2516.708          45.900          29.300
 127076218.498 7  99020466.31343  24181805.336                    24181810.465
       584.453         455.592          42.700          22.600
 112672284.834 8  87796632.47746  21440829.328                    21440832.953
      2044.258        1593.043          53.800          40.400
 106878509.762 8  83282028.73747  20338310.563                    20338316.648
     -1214.426        -946.161          53.800          46.400
 119650652.979 8  93234305.70945  22768767.367                    22768769.785
     -2606.840       -2031.285          48.500          33.100
 119236579.688 7  92911663.72546  22689969.477                    22689976.164
      3337.762        2600.912          47.600          36.800
 114895568.278 7  89529032.37646  21863906.117                    21863907.617
       646.188         503.697          47.800          38.600
 112092483.992 8  87344852.87146  21330499.125                    21330505.777
     -2105.219       -1640.240          50.200          41.500
 18  2 20  8 10 30.0000000  0  8G05G16G07G09G23G30G02G06
 123144649.500 7  95956914.37245  23433655.508                    23433659.156
      3225.500        2513.433          44.900          31.900
 127058984.728 6  99007037.41743  24178526.250                    24178531.324
       564.477         440.179          39.400          21.300
 112611183.711 8  87749021.21246  21429202.266                    21429205.699
      2029.176        1581.405          53.000          39.900
 106915124.326 8  83310559.56247  20345278.055                    20345283.777
     -1226.555        -955.587          53.900          46.300
 119728942.146 8  93295310.23545  22783665.250                    22783667.434
     -2612.383       -2035.545          48.900          34.400
 119136577.209 7  92833739.72346  22670939.406                    22670946.809
      3329.105        2594.215          45.700          37.100
 114876457.354 7  89514140.72546  21860269.805                    21860271.000
       627.930         489.529          47.000          38.000
 112155892.230 8  87394261.84546  21342565.602                    21342571.629
     -2121.992       -1653.260          50.200          41.700
 18  2 20  8 11  0.0000000  0  8G05G16G07G09G23G30G02G06
 123047944.360 8  95881559.67545  23415253.906                    23415257.137
      3221.473        2510.261          48.200          32.900
 127042343.265 6  98994070.06843  24175360.016                    24175362.996
       544.813         424.832          39.400          19.600
 112550530.278 8  87701758.79846  21417660.172                    21417664.020
      2014.387        1569.806          53.000          39.900
 106952099.601 8  83339371.45947  20352314.063                    20352320.059
     -1238.457        -964.890          51.600          47.100
 119807392.850 8  93356440.60845  22798594.039                    22798596.176
     -2617.602       -2039.667          48.000          33.500
 119036831.713 7  92756015.96846  22651958.766                    22651965.551
      3320.598        2587.580          47.900          37.200
 114857890.564 8  89499673.07646  21856736.414                    21856737.891
       609.797         475.436          49.000          38.700
 112219799.341 8  87444059.56446  21354726.953                    21354733.262
     -2138.516       -1666.152          48.200          41.400
 18  2 20  8 11 30.0000000  0  8G05G16G07G09G23G30G02G06
 122951364.970 7  95806302.99345  23396874.898                    23396879.051
      3217.152        2507.014          43.900          32.300
 127026294.785 6  98981564.78943  24172305.273                    24172309.098
       525.020         409.393          40.600          20.100
 112490325.867 8  87654846.27746  21406203.594                    21406206.949
      1999.336        1558.131          53.300          40.300
 106989434.052 8  83368463.22947  20359418.875                    20359424.992
     -1250.480        -974.189          52.800          46.600
 119886003.602 7  93417695.70945  22813552.836                    22813555.438
     -2623.047       -2043.814          47.400          33.300
 118937345.281 7  92678494.07546  22633027.477                    22633034.203
      3311.910        2580.820          46.100          37.800
 114839868.023 8  89485629.52246  21853306.945                    21853308.027
       591.730         461.316          48.800          38.400
 112284202.837 8  87494244.09546  21366982.508                    21366988.645
     -2155.043       -1678.989          49.700          41.500
 18  2 20  8 12  0.0000000  0  8G05G16G07G09G23G30G02G06
 122854912.793 7  95731145.48645  23378520.086                    23378524.973
      3212.906        2503.647          46.500          31.700
 127010840.440 6  98969522.44143  24169364.688                    24169368.836
       505.328         393.968          38.600          19.300
 112430572.272 8  87608285.04146  21394832.688                    21394836.309
      1984.254        1546.364          52.000          40.200
 107027126.603 8  83397834.04947  20366591.414                    20366597.512
     -1262.328        -983.511          53.700          46.000
 119964773.400 7  93479074.74045  22828542.203                    22828544.520
     -2628.285       -2047.960          47.300          33.700
 118838120.537 8  92601176.09746  22614145.430                    22614152.176
      3303.137        2573.964          49.000          37.900
 114822390.972 8  89472011.02546  21849981.219                    21849981.723
       573.453         447.079          49.000          38.400
 112349100.781 8  87544813.90646  21379331.953                    21379338.367
     -2171.449       -1691.858          50.100          41.600
 18  2 20  8 12 30.0000000  0  8G05G16G07G09G23G30G02G06
 122758589.517 7  95656088.41345  23360190.508                    23360194.820
      3208.621        2500.281          46.300          32.800
 126995981.746 6  98957944.23643  24166537.031                    24166540.719
       485.281         378.488          38.100          18.300
 112371271.180 8  87562076.40846  21383548.141                    21383551.770
      1969.094        1534.593          52.200          39.400
 107065176.267 8  83427483.12947  20373832.063                    20373838.316
     -1274.254        -992.763          53.800          46.600
 120043701.450 7  93540577.09245  22843561.578                    22843564.367
     -2633.621       -2052.057          47.300          33.300
 118739160.105 8  92524064.06946  22595314.180                    22595320.551
      3294.203        2567.064          49.400          38.600
 114805460.206 8  89458818.20846  21846759.594                    21846760.223
       555.164         432.886          49.800          38.400
 112414491.086 8  87595767.33746  21391775.422                    21391781.891
     -2187.922       -1704.606          50.400          40.800
 18  2 20  8 13  0.0000000  0  8G05G16G07G09G23G30G02G06
 122662396.200 7  95581132.57545  23341885.688                    23341889.570
      3204.223        2496.903          47.500          31.400
 126981719.205 6  98946830.62843  24163824.086                    24163826.480
       465.348         362.990          38.000          19.600
 112312423.693 8  87516221.23346  21372349.688                    21372353.363
      1953.992        1522.826          51.600          39.600
 107103581.594 8  83457409.36047  20381140.445                    20381145.809
     -1286.176       -1001.976          53.800          46.600
 120122786.266 7  93602201.58745  22858611.242                    22858613.320
     -2638.832       -2056.081          47.800          34.000
 118640466.178 8  92447159.72646  22576533.414                    22576539.910
      3285.250        2560.134          49.100          38.100
 114789076.139 8  89446051.39246  21843641.805                    21843642.281
       536.973         418.716          49.700          38.500
 112480371.473 8  87647102.65146  21404312.172                    21404318.148
     -2204.180       -1717.282          51.500          41.600
 18  2 20  8 13 30.0000000  0  8G05G16G07G09G23G30G02G06
 122566334.934 8  95506279.62945  23323606.023                    23323608.703
      3199.977        2493.426          48.200          32.100
 126968054.101 6  98936182.47743  24161222.172                    24161225.984
       445.715         347.459          38.500          18.300
 112254031.656 8  87470720.95646  21361237.844                    21361241.723
      1938.879        1510.956          51.000          39.300
 107142341.455 8  83487611.84547  20388516.117                    20388522.207
     -1297.820       -1011.192          53.200          46.600
 120202026.712 7  93663947.35545  22873690.508                    22873692.492
     -2643.836       -2060.130          47.600          33.700
 118542041.258 8  92370464.97746  22557803.445                    22557810.633
      3276.488        2553.100          48.900          38.400
 114773239.603 8  89433711.21746  21840627.898                    21840629.070
       518.871         404.466          50.000          39.000
 112546739.853 8  87698818.22946  21416941.633                    21416947.422
     -2220.312       -1729.964          48.900          41.000
 18  2 20  8 14  0.0000000  0  8G05G16G07G09G23G30G02G06
 122470407.003 7  95431530.56345  23305351.297                    23305354.914
      3195.336        2489.973          46.000          30.800
 126954987.738 6  98926000.92742  24158736.102                    24158739.891
       425.457         331.887          38.600          17.800
 112196096.992 8  87425577.07846  21350213.180                    21350217.469
      1923.559        1499.093          50.600          38.700
 107181454.954 8  83518089.88347  20395959.328                    20395964.922
     -1309.680       -1020.320          53.700          46.800
 120281422.151 7  93725813.89945  22888798.570                    22888801.102
     -2649.098       -2064.109          47.000          33.700
 118443888.123 8  92293982.02646  22539125.727                    22539132.242
      3267.203        2546.036          49.300          38.700
 114757951.426 8  89421798.34346  21837718.984                    21837719.926
       500.445         390.246          49.600          39.000
 112613594.305 8  87750912.57146  21429663.891                    21429669.867
     -2236.508       -1742.526          49.500          40.800
 18  2 20  8 14 30.0000000  0  8G05G16G07G09G23G30G02G06
 122374614.204 7  95356886.85545  23287121.883                    23287126.801
      3190.887        2486.389          44.600          31.700
 126942520.841 6  98916286.49643  24156363.406                    24156367.293
       405.648         316.294          37.900          19.300
 112138621.198 8  87380790.76646  21339276.117                    21339280.172
      1908.266        1487.110          50.200          39.300
 107220920.793 8  83548842.48047  20403469.469                    20403474.836
     -1321.301       -1029.510          53.300          46.600
 120360971.305 7  93787800.23245  22903936.352                    22903938.926
     -2654.055       -2068.128          47.500          33.600
 118346009.097 8  92217712.65546  22520500.031                    22520506.453
      3258.125        2538.855          49.500          38.800
 114743212.450 8  89410313.41346  21834914.320                    21834915.605
       482.188         375.954          50.000          39.200
 112680932.542 8  87803383.88346  21442477.813                    21442483.945
     -2252.609       -1755.085          49.300          40.900
 18  2 20  8 15  0.0000000  0  8G05G16G07G09G23G30G02G06
 122278958.815 7  95282350.20445  23268919.164                    23268923.715
      3186.324        2482.835          46.400          32.600
 126930654.165 6  98907039.73943  24154104.945                    24154108.801
       385.742         300.715          36.500          20.100
 112081605.322 8  87336362.82646  21328426.133                    21328430.102
      1892.918        1475.156          50.900          38.600
 107260737.510 8  83579868.48347  20411046.055                    20411051.797
     -1333.035       -1038.574          53.500          47.300
 120440672.787 7  93849905.25945  22919102.977                    22919105.477
     -2659.141       -2072.055          47.100          33.300
 118248406.334 8  92141658.56546  22501926.633                    22501933.238
      3248.895        2531.660          49.200          37.900
 114729022.396 8  89399256.22146  21832214.031                    21832215.184
       463.895         361.681          48.200          39.500
 112748752.115 8  87856230.26946  21455383.648                    21455389.637
     -2268.605       -1767.560          49.900          40.900
 18  2 20  8 15 30.0000000  0  8G05G16G07G09G23G30G02G06
 122183441.949 7  95207921.47945  23250743.531                    23250747.844
      3181.570        2479.212          46.300          32.100
 126919389.214 6  98898261.85943  24151961.000                    24151965.023
       365.469         285.041          39.500          20.100
 112025051.556 8  87292294.97346  21317664.602                    21317668.438
      1877.422        1463.125          51.000          40.000
 107300904.540 9  83611167.45847  20418689.648                    20418695.012
     -1344.703       -1047.684          54.200          46.200
 120520525.957 7  93912128.48045  22934298.711                    22934301.750
     -2664.289       -2076.000          47.000          33.900
 118151082.875 8  92065822.09846  22483406.672                    22483413.277
      3239.430        2524.356          48.500          38.400
 114715382.769 8  89388627.93246  21829618.219                    21829619.422
       445.535         347.365          48.500          38.500
 112817051.356 8  87909450.42546  21468380.531                    21468386.527
     -2284.594       -1780.000          51.200          40.500
 18  2 20  8 16  0.0000000  0  8G05G16G07G09G23G30G02G06
 122088065.166 7  95133601.92245  23232593.688                    23232597.488
      3176.781        2475.510          47.000          31.400
 126908725.955 5  98889952.80143  24149932.344                    24149935.875
       345.250         269.369          35.500          21.100
 111968960.247 8  87248587.48646  21306991.078                    21306994.711
      1861.891        1451.053          51.300          39.900
 107341419.721 8  83642737.71247  20426399.508                    20426405.418
     -1356.383       -1056.732          53.800          46.300
 120600529.150 8  93974468.60045  22949523.094                    22949525.137
     -2669.293       -2079.905          48.100          33.800
 118054040.263 8  91990204.49446  22464939.836                    22464946.805
      3229.977        2517.005          49.300          38.000
 114702293.540 7  89378428.52846  21827127.352                    21827128.910
       427.039         333.035          47.200          38.600
 112885827.123 8  87963041.89446  21481467.891                    21481474.168
     -2300.547       -1792.356          50.800          40.300
 18  2 20  8 16 30.0000000  0  8G05G16G07G09G23G30G02G06
 121992831.823 7  95059394.11245  23214471.953                    23214474.719
      3171.992        2471.777          45.900          30.500
 126898666.858 6  98882114.56743  24148018.188                    24148021.738
       325.176         253.693          40.200          20.600
 111913334.715 8  87205242.93246  21296405.633                    21296409.676
      1846.352        1438.956          52.200          40.100
 107382283.672 8  83674579.74247  20434175.742                    20434180.918
     -1367.984       -1065.774          53.100          45.600
 120680682.764 7  94036925.93945  22964775.375                    22964778.121
     -2674.375       -2083.793          47.600          32.700
 117957282.666 8  91914808.97946  22446527.539                    22446534.305
      3220.402        2509.586          48.300          37.100
 114689756.582 7  89368659.46946  21824741.766                    21824743.270
       408.672         318.694          47.500          39.300
 112955078.963 8  88017004.34346  21494646.508                    21494652.676
     -2316.348       -1804.707          49.700          39.900
 18  2 20  8 17  0.0000000  0  8G05G16G07G09G23G30G02G06
 121897741.313 7  94985297.59045  23196376.242                    23196380.352
      3167.316        2468.040          45.700          30.700
 126889211.730 6  98874746.88943  24146218.516                    24146223.055
       305.031         237.975          40.600          21.100
 111858174.949 8  87162261.32046  21285909.391                    21285912.867
      1830.926        1426.845          51.700          40.600
 107423493.741 8  83706691.47547  20442017.391                    20442023.156
     -1379.383       -1074.746          53.000          45.600
 120760984.612 8  94099498.77845  22980056.461                    22980059.574
     -2679.109       -2087.638          48.200          33.900
 117860811.130 8  91839636.37046  22428169.656                    22428176.395
      3210.879        2502.107          48.800          37.200
 114677771.300 8  89359320.28746  21822460.938                    21822462.539
       390.301         304.327          48.500          38.300
 113024803.191 8  88071334.90246  21507914.172                    21507920.582
     -2331.961       -1816.945          50.300          40.400
 18  2 20  8 17 30.0000000  0  8G05G16G07G09G23G30G02G06
 121802796.240 7  94911314.43245  23178309.320                    23178313.164
      3162.531        2464.278          47.300          31.900
 126880361.117 6  98867850.29543  24144535.023                    24144538.453
       285.070         222.307          38.100          22.300
 111803482.772 8  87119644.07046  21275501.531                    21275505.172
      1815.348        1414.712          51.700          40.600
 107465048.917 8  83739072.12147  20449925.156                    20449931.008
     -1390.820       -1083.654          53.700          45.500
 120841433.833 7  94162186.45945  22995365.180                    22995368.105
     -2683.891       -2091.382          47.500          33.800
 117764628.196 8  91764688.64846  22409866.539                    22409873.520
      3201.367        2494.633          48.100          37.100
 114666338.543 7  89350411.64146  21820285.281                    21820286.969
       371.984         290.042          47.200          38.300
 113094997.679 8  88126031.89246  21521271.797                    21521278.117
     -2347.488       -1829.089          50.200          39.400
 18  2 20  8 18  0.0000000  0  8G05G16G07G09G23G30G02G06
 121707998.596 7  94837446.14145  23160269.664                    23160273.445
      3157.523        2460.420          46.700          32.100
 126872115.808 6  98861425.33943  24142966.047                    24142968.789
       264.773         206.599          39.600          21.700
 111749259.600 8  87077392.27846  21265183.242                    21265187.336
      1799.633        1402.502          52.000          39.600
 107506947.868 8  83771720.65247  20457897.773                    20457903.816
     -1402.316       -1092.593          53.300          45.300
 120922028.769 8  94224987.67445  23010702.531                    23010705.242
     -2688.883       -2095.193          48.200          33.800
 117668736.165 8  91689967.59946  22391618.617                    22391625.508
      3191.555        2487.031          48.400          36.900
 114655458.284 8  89341933.51646  21818215.172                    21818216.516
       353.488         275.654          48.200          38.700
 113165660.004 8  88181093.42646  21534718.219                    21534724.625
     -2363.105       -1841.226          50.800          39.700
 18  2 20  8 18 30.0000000  0  8G05G16G07G09G23G30G02G06
 121613349.688 7  94763693.76245  23142258.242                    23142262.023
      3152.371        2456.526          46.100          30.600
 126864476.542 6  98855472.66143  24141511.547                    24141515.289
       244.344         190.807          41.000          22.500
 111695506.557 8  87035506.82546  21254953.961                    21254957.934
      1783.781        1390.272          51.400          39.300
 107549189.462 8  83804636.16847  20465936.297                    20465942.039
     -1413.980       -1101.471          53.400          45.400
 121002768.586 7  94287901.78945  23026066.898                    23026069.324
     -2693.906       -2098.940          47.500          33.800
 117573137.506 7  91615475.15046  22373426.672                    22373433.922
      3181.570        2479.382          47.700          36.900
 114645131.452 8  89333886.63646  21816249.781                    21816251.215
       334.805         261.279          48.700          38.600
 113236787.950 8  88236517.79546  21548253.414                    21548259.879
     -2378.785       -1853.299          49.500          39.400
 18  2 20  8 19  0.0000000  0  8G05G16G07G09G23G30G02G06
 121518851.311 7  94690058.67744  23124275.867                    23124279.379
      3147.422        2452.614          44.500          29.900
 126857444.005 6  98849992.74143  24140174.219                    24140176.770
       224.266         175.037          41.300          22.300
 111642225.129 8  86993988.85046  21244814.891                    21244818.703
      1768.176        1378.003          51.600          40.200
 107591772.417 8  83837817.69147  20474039.703                    20474045.234
     -1425.098       -1110.320          53.200          44.800
 121083652.299 7  94350928.03545  23041458.188                    23041460.840
     -2698.461       -2102.667          47.800          32.300
 117477834.565 7  91541213.13646  22355291.445                    22355298.168
      3171.863        2471.666          47.300          38.100
 114635358.039 8  89326270.97946  21814390.375                    21814391.434
       316.637         246.903          49.800          38.700
 113308379.060 8  88292303.05646  21561877.055                    21561883.402
     -2394.004       -1865.301          50.000          40.200
 18  2 20  8 19 30.0000000  0  8G05G16G07G09G23G30G02G06
 121424504.649 7  94616541.80944  23106321.672                    23106325.070
      3142.336        2448.634          45.100          29.700
 126851018.968 7  98844986.18943  24138951.711                    24138954.680
       204.078         159.266          42.700          23.800
 111589416.753 8  86952839.48046  21234765.609                    21234769.879
      1752.340        1365.696          52.000          40.000
 107634695.522 8  83871264.25747  20482207.695                    20482213.367
     -1436.418       -1119.147          53.500          45.300
 121164678.751 7  94414065.49345  23056876.914                    23056879.418
     -2703.105       -2106.353          47.600          32.700
 117382829.694 7  91467183.37746  22337212.578                    22337220.012
      3161.855        2463.897          47.300          37.300
 114626138.519 8  89319086.93246  21812635.859                    21812637.355
       298.148         232.517          49.600          39.200
 113380431.064 8  88348447.46046  21575587.758                    21575594.555
     -2409.324       -1877.236          50.400          40.400
 18  2 20  8 20  0.0000000  0  8G05G16G07G09G23G30G02G06
 121330311.544 7  94543144.57845  23088397.969                    23088400.586
      3137.207        2444.668          46.400          31.000
 126845202.448 6  98840453.80644  24137845.227                    24137847.551
       183.488         143.467          40.400          24.600
 111537083.296 8  86912060.18846  21224806.805                    21224810.906
      1736.504        1353.366          52.000          39.700
 107677958.002 8  83904975.27947  20490440.359                    20490445.723
     -1447.793       -1127.930          53.900          45.500
 121245847.589 8  94477313.89445  23072323.570                    23072325.281
     -2707.996       -2110.019          48.000          33.000
 117288125.731 7  91393388.10846  22319191.133                    22319198.426
      3151.730        2456.069          47.600          38.900
 114617474.121 8  89312335.44246  21810987.289                    21810988.129
       279.504         218.093          48.300          38.900
 113452941.987 8  88404949.45846  21589386.508                    21589392.816
     -2424.691       -1889.109          51.200          40.800
 18  2 20  8 20 30.0000000  0  8G05G16G07G09G23G30G02G06
 121236273.889 7  94469868.48344  23070503.453                    23070506.555
      3131.984        2440.575          46.200          29.600
 126839994.703 7  98836395.83143  24136854.117                    24136857.234
       163.469         127.599          43.300          23.500
 111485225.601 8  86871651.60846  21214938.742                    21214942.797
      1720.707        1340.984          52.100          40.700
 107721558.340 9  83938949.56047  20498737.055                    20498742.914
     -1458.996       -1136.699          54.600          45.400
 121327157.225 7  94540672.03945  23087795.820                    23087798.465
     -2712.691       -2113.687          47.500          33.000
 117193724.729 8  91319828.89846  22301226.969                    22301234.504
      3141.598        2448.162          48.300          38.100
 114609364.639 8  89306016.36246  21809444.164                    21809444.770
       261.102         203.672          49.000          39.000
 113525909.172 8  88461806.97846  21603271.570                    21603278.016
     -2439.719       -1900.947          51.000          40.900
 18  2 20  8 21  0.0000000  0  8G05G16G07G09G23G30G02G06
 121142394.218 7  94396715.50445  23052638.000                    23052641.832
      3126.672        2436.437          45.900          31.600
 126835396.451 7  98832812.75944  24135979.195                    24135981.926
       143.109         111.778          43.900          24.700
 111433844.850 8  86831614.67846  21205161.547                    21205165.316
      1704.777        1328.563          51.500          40.900
 107765495.166 8  83973186.04447  20507098.211                    20507103.836
     -1470.070       -1145.433          53.000          45.300
 121408606.339 8  94604138.85245  23103295.336                    23103297.652
     -2717.187       -2117.295          48.200          33.400
 117099628.897 7  91246507.48746  22283321.117                    22283328.352
      3131.434        2440.204          47.300          39.000
 114601810.252 8  89300129.81946  21808006.469                    21808007.375
       242.625         189.258          48.500          38.400
 113599330.092 8  88519018.05646  21617243.375                    21617249.602
     -2454.859       -1912.715          48.400          41.400
 18  2 20  8 21 30.0000000  0  8G05G16G07G09G23G30G02G06
 121048673.872 7  94323686.69245  23034803.586                    23034807.133
      3121.469        2432.325          46.600          32.100
 126831408.281 7  98829705.07444  24135220.398                    24135223.199
       122.844          95.968          44.100          25.600
 111382942.456 8  86791950.49046  21195475.148                    21195479.016
      1688.844        1316.161          52.000          41.800
 107809767.407 8  84007683.88147  20515523.320                    20515528.336
     -1481.203       -1154.079          53.700          45.800
 121490194.014 7  94667713.62745  23118820.633                    23118822.914
     -2721.789       -2120.845          46.700          33.000
 117005840.795 7  91173425.86046  22265474.039                    22265481.891
      3121.199        2432.202          47.800          37.900
 114594811.523 8  89294676.25646  21806674.430                    21806675.734
       224.051         174.844          48.000          38.600
 113673202.422 8  88576580.88046  21631301.078                    21631307.254
     -2469.855       -1924.371          50.100          41.200
 18  2 20  8 22  0.0000000  0  8G05G16G07G09G23G30G02G06
 120955114.838 7  94250783.57145  23017000.578                    23017003.645
      3115.914        2428.053          47.000          31.700
 126828031.188 6  98827073.57344  24134577.352                    24134580.988
       102.316          80.025          41.600          24.700
 111332520.201 8  86752660.43446  21185880.031                    21185884.121
      1672.707        1303.611          51.400          41.400
 107854374.202 9  84042442.41447  20524011.547                    20524017.148
     -1492.457       -1162.831          54.600          45.400
 121571919.620 8  94731395.88045  23134372.633                    23134374.613
     -2726.473       -2124.479          48.000          32.400
 116912363.089 7  91100586.09146  22247685.711                    22247693.473
      3110.738        2424.053          47.900          38.700
 114588369.050 7  89289656.14246  21805448.672                    21805449.629
       205.445         160.328          47.300          38.900
 113747524.148 8  88634493.89146  21645443.867                    21645450.117
     -2484.891       -1936.074          50.300          41.100
 18  2 20  8 22 30.0000000  0  8G05G16G07G09G23G30G02G06
 120861717.775 7  94178006.63945  22999227.625                    22999230.098
      3110.555        2423.866          47.000          31.000
 126825264.968 6  98824918.08343  24134050.992                    24134054.211
        81.980          64.197          40.700          23.600
 111282578.853 8  86713745.10846  21176376.563                    21176380.906
      1656.758        1291.121          50.900          40.700
 107899313.995 9  84077460.42547  20532563.242                    20532568.977
     -1503.504       -1171.431          55.000          45.300
 121653781.904 7  94795184.64045  23149950.508                    23149952.746
     -2730.812       -2127.979          47.600          34.000
 116819197.779 8  91027989.75946  22229956.602                    22229964.527
      3100.348        2415.947          48.400          37.900
 114582482.694 7  89285069.36246  21804327.906                    21804329.480
       187.031         145.914          47.400          38.200
 113822292.449 8  88692754.87446  21659671.844                    21659677.730
     -2499.500       -1947.610          50.400          41.100
 18  2 20  8 23  0.0000000  0  8G05G16G07G09G23G30G02G06
 120768485.046 7  94105357.73645  22981485.836                    22981487.703
      3105.035        2419.536          46.300          30.600
 126823110.934 6  98823239.60444  24133640.609                    24133644.758
        61.621          48.267          40.200          24.300
 111233119.981 8  86675205.73546  21166964.797                    21166968.887
      1640.578        1278.578          50.800          40.900
 107944585.790 9  84112737.13747  20541178.086                    20541183.887
     -1514.559       -1180.034          54.600          45.400
 121735780.137 7  94859079.32245  23165554.617                    23165556.742
     -2735.473       -2131.505          47.900          33.600
 116726347.468 7  90955638.87946  22212288.055                    22212295.398
      3089.789        2407.743          47.800          37.600
 114577153.182 7  89280916.49746  21803313.953                    21803314.840
       168.383         131.442          46.200          38.600
 113897505.172 8  88751362.16446  21673983.969                    21673990.484
     -2514.348       -1959.110          51.300          41.100
 18  2 20  8 23 30.0000000  0  8G05G16G07G09G23G30G02G06
 120675419.231 7  94032838.92445  22963775.930                    22963778.461
      3099.461        2415.203          46.000          30.800
 126821568.824 7  98822037.97544  24133347.125                    24133350.996
        41.227          32.360          42.000          24.700
 111184144.637 8  86637043.13946  21157644.914                    21157648.906
      1624.488        1266.015          50.200          40.900
 107990188.174 8  84148271.45547  20549856.031                    20549861.957
     -1525.570       -1188.603          53.800          45.300
 121817912.944 8  94923078.88045  23181183.625                    23181185.973
     -2740.000       -2135.008          48.700          34.400
 116633814.299 7  90883535.13046  22194679.000                    22194686.773
      3079.242        2399.463          47.100          37.200
 114572380.476 7  89277197.50446  21802405.734                    21802406.902
       149.832         116.978          47.900          37.600
 113973159.678 8  88810313.71046  21688380.563                    21688387.355
     -2529.117       -1970.563          50.900          40.400
 18  2 20  8 24  0.0000000  0  8G05G16G07G09G23G30G02G06
 120582521.552 7  93960451.14945  22946097.891                    22946101.273
      3093.828        2410.808          44.700          31.400
