     2.11           OBSERVATION DATA    G (GPS)             RINEX VERSION / TYPE
teqc  2016Nov7                          20180328 12:23:34UTCPGM / RUN BY / DATE
Linux 2.4.21-27.ELsmp|Opteron|gcc|Linux x86_64|=+           COMMENT
teqc  2016Nov7                          20180328 12:23:33UTCCOMMENT
     2.11           OBSERVATION DATA    M (MIXED)           COMMENT
teqc  2016Nov7                          20180328 12:23:30UTCCOMMENT
teqc  2016Nov7      IGN-RGP             20180220 09:16:10UTCCOMMENT
teqc  2015Jun23     IGN-RGP             20180220 09:06:36UTCCOMMENT
Linux2.4.20-8|i386|gcc|Win32-MinGW32|=                      COMMENT
   0.000      (antenna height)                              COMMENT
 +48.96934423 (latitude)                                    COMMENT
  +2.74931221 (longitude)                                   COMMENT
0175.602      (elevation)                                   COMMENT
BIT 2 OF LLI FLAGS DATA COLLECTED UNDER A/S CONDITION       COMMENT
19787M001 (COGO code)                                       COMMENT
SXJ4                                                        MARKER NAME
19787M001                                                   MARKER NUMBER
Automatic           GIE COOP&TECH                           OBSERVER / AGENCY
5132K77647          TRIMBLE NETR5       4.15                REC # / TYPE / VERS
1441009107          TRM55971.00     NONE                    ANT # / TYPE
  4190293.8430   201223.8300  4788453.8890                  APPROX POSITION XYZ
        1.1000        0.0000        0.0000                  ANTENNA: DELTA H/E/N
     1     1                                                WAVELENGTH FACT L1/2
     9    L1    L2    C1    P1    P2    D1    D2    S1    S2# / TYPES OF OBSERV
    30.0000                                                 INTERVAL
    18                                                      LEAP SECONDS
 SNR is mapped to RINEX snr flag value [0-9]                COMMENT
  L1 & L2: min(max(int(snr_dBHz/6), 0), 9)                  COMMENT
teqc_2016 edited: GLONASS # 25 - 30 excluded                COMMENT
Forced Modulo Decimation to 30 seconds                      COMMENT
teqc_2016 edited: all GLONASS satellites excluded           COMMENT
teqc_2016 edited: all SBAS satellites excluded              COMMENT
teqc_2016 edited: all Galileo satellites excluded           COMMENT
  2018     2    20     8     0    0.0000000     GPS         TIME OF FIRST OBS
                                                            END OF HEADER
 18  2 20  8  0  0.0000000  0  8G05G23G30G07G09G16G02G06
 125095575.484 7  97477147.32444  23804909.727                    23804909.582
      3303.281                          44.500          25.000
 118080011.073 8  92010408.40045  22469878.359                    22469878.961
     -2494.207                          48.800          33.500
 121455413.562 7  94640583.68243  23112192.633                    23112198.762
      3501.605                          42.300          22.200
 114111634.175 8  88918216.54945  21714730.070                    21714733.020
      2350.070                          51.400          35.900
 106201487.662 8  82754456.39847  20209473.016                    20209477.434
      -958.961                          52.500          44.600
 127464717.303 6  99323194.13843  24255735.125                    24255736.188
       989.594                          40.800          19.900
 115333943.873 7  89870628.12145  21947327.836                    21947327.629
       978.770                          46.600          35.800
 111006968.886 8  86498985.25846  21123928.313                    21123933.496
     -1783.223                          49.500          41.100
 18  2 20  8  0 30.0000000  0  8G05G23G30G07G09G16G02G06
 124996524.836 7  97399965.00244  23786061.359                    23786060.863
      3300.188        2571.561          45.300          25.500
 118154932.607 8  92068788.79045  22484135.398                    22484136.215
     -2500.371       -1948.366          48.500          33.300
 121350472.363 6  94558811.37443  23092222.172                    23092229.215
      3494.805        2723.234          40.900          21.500
 114041339.735 8  88863441.67145  21701353.367                    21701356.297
      2336.527        1820.709          51.300          35.600
 106230452.349 8  82777026.27447  20214984.914                    20214988.914
      -971.828        -757.177          53.000          45.100
 127435312.351 6  99300281.22543  24250138.836                    24250142.020
       971.016         756.670          39.700          20.400
 115304844.277 7  89847953.10445  21941789.977                    21941790.320
       961.293         749.231          46.400          34.900
 111060734.089 8  86540880.20446  21134159.680                    21134164.629
     -1800.965       -1403.209          51.100          41.500
 18  2 20  8  1  0.0000000  0  8G05G23G30G07G09G16G02G06
 124897569.671 7  97322857.07944  23767230.414                    23767230.176
      3296.766        2569.045          45.500          26.200
 118230041.535 8  92127315.21245  22498427.930                    22498428.777
     -2506.852       -1953.244          49.200          32.700
 121245734.615 6  94477197.59243  23072292.336                    23072297.230
      3487.902        2717.868          41.900          21.800
 113971454.909 8  88808985.97246  21688054.961                    21688057.465
      2322.594        1810.010          51.600          36.000
 106259803.979 8  82799897.66747  20220570.273                    20220574.762
      -984.918        -767.253          53.200          44.700
 127406471.672 6  99277807.94643  24244651.234                    24244649.703
       951.781         741.977          40.600          19.000
 115276270.414 7  89825687.74445  21936352.859                    21936353.090
       943.578         735.542          46.000          35.000
 111115033.928 8  86583191.75046  21144492.586                    21144497.840
     -1818.961       -1417.105          50.500          40.500
 18  2 20  8  1 30.0000000  0  8G05G23G30G07G09G16G02G06
 124798711.266 7  97245824.57244  23748418.711                    23748418.570
      3293.797        2566.504          45.400          26.500
 118305336.686 8  92185986.73145  22512755.984                    22512756.816
     -2512.820       -1958.062          48.400          33.100
 121141202.921 6  94395744.32943  23052400.703                    23052405.781
      3481.141        2712.523          41.300          22.300
 113901981.953 8  88754851.21346  21674834.570                    21674837.609
      2309.043        1799.289          51.900          36.200
 106289541.539 8  82823069.78947  20226229.195                    20226233.824
      -997.535        -777.266          52.800          45.100
 127378197.229 6  99255775.86843  24239270.047                    24239273.328
       933.191         727.290          40.100          21.300
 115248223.541 7  89803833.01445  21931015.063                    21931015.660
       926.211         721.859          45.800          35.000
 111169866.714 8  86625918.57746  21154927.148                    21154931.910
     -1836.535       -1430.920          51.400          40.800
 18  2 20  8  2  0.0000000  0  8G05G23G30G07G09G16G02G06
 124699951.422 7  97168868.83444  23729624.695                    23729625.203
      3290.477        2563.971          46.200          26.900
 118380816.919 8  92244802.48245  22527119.594                    22527120.434
     -2519.051       -1962.799          48.900          33.000
 121036879.778 6  94314453.62543  23032549.117                    23032553.160
      3474.051        2707.110          41.800          21.500
 113832922.492 8  88701038.66746  21661693.008                    21661695.367
      2295.031        1788.592          51.000          36.800
 106319663.888 8  82846541.75047  20231961.289                    20231965.719
     -1010.473        -787.186          53.400          45.200
 127350490.734 6  99234186.48043  24233998.781                    24234000.973
       914.051         712.525          39.600          20.100
 115220704.333 7  89782389.46645  21925779.016                    21925779.168
       908.504         708.193          45.200          35.500
 111225230.698 8  86669059.33446  21165461.914                    21165467.141
     -1854.363       -1444.646          51.700          41.300
 18  2 20  8  2 30.0000000  0  8G05G23G30G07G09G16G02G06
 124601292.173 7  97091991.50944  23710850.500                    23710851.586
      3286.832        2561.239          46.100          27.900
 118456480.712 8  92303761.25745  22541518.273                    22541518.797
     -2525.359       -1967.646          49.300          33.100
 120932767.545 7  94233327.24443  23012737.000                    23012741.262
      3466.590        2701.469          43.400          22.300
 113764278.266 8  88647549.66746  21648630.203                    21648632.527
      2281.121        1777.670          51.900          36.300
 106350169.650 8  82870312.46447  20237766.414                    20237770.863
     -1023.410        -797.224          52.400          45.200
 127323353.633 6  99213040.55543  24228834.133                    24228833.223
       894.941         697.673          40.100          19.600
 115193714.057 7  89761358.06645  21920642.219                    21920643.148
       890.695         694.346          46.300          34.800
 111281123.798 8  86712612.39146  21176098.719                    21176103.590
     -1872.004       -1458.449          52.000          41.000
 18  2 20  8  3  0.0000000  0  8G05G23G30G07G09G16G02G06
 124502734.843 7  97015193.60044  23692096.773                    23692097.219
      3283.480        2558.624          46.000          27.500
 118532327.138 8  92362862.35645  22555951.164                    22555951.996
     -2531.254       -1972.320          49.300          33.700
 120828868.853 7  94152367.26843  22992965.469                    22992970.188
      3459.691        2695.953          43.000          21.800
 113696051.465 8  88594385.93045  21635647.102                    21635649.703
      2267.215        1766.867          51.600          35.900
 106381057.900 8  82894381.22047  20243644.148                    20243648.527
     -1035.945        -807.089          52.800          44.700
 127296787.418 5  99192339.70443  24223777.648                    24223782.664
       876.004         682.848          35.000          18.600
 115167254.149 7  89740739.94345  21915607.367                    21915608.020
       873.246         680.620          45.700          34.900
 111337544.458 8  86756576.54546  21186834.891                    21186840.113
     -1889.457       -1472.083          52.000          40.400
 18  2 20  8  3 30.0000000  0  8G05G23G30G07G09G16G02G06
 124404281.040 7  96938476.33044  23673360.313                    23673363.176
      3279.941        2555.897          46.600          26.800
 118608355.112 8  92422104.91545  22570418.766                    22570419.906
     -2537.309       -1977.045          49.300          32.900
 120725186.305 7  94071575.69843  22973235.891                    22973239.254
      3452.410        2690.268          42.600          22.600
 113628243.835 8  88541548.81946  21622743.398                    21622746.258
      2253.184        1755.934          52.400          36.700
 106412327.600 8  82918747.21147  20249594.586                    20249598.910
     -1048.656        -817.017          53.000          44.400
 127270793.652 6  99172084.82243  24218832.195                    24218835.984
       856.887         667.943          39.200          20.600
 115141325.292 7  89720535.62245  21910673.836                    21910674.051
       855.320         666.771          47.300          35.500
 111394490.907 8  86800950.39946  21197671.797                    21197676.734
     -1906.953       -1485.735          52.000          40.500
 18  2 20  8  4  0.0000000  0  8G05G23G30G07G09G16G02G06
 124305931.561 7  96861840.37744  23654644.391                    23654647.797
      3276.453        2553.167          44.700          28.500
 118684563.201 8  92481487.81945  22584920.609                    22584921.945
     -2543.273       -1981.690          49.100          33.600
 120621722.404 7  93990954.49743  22953546.641                    22953550.742
      3445.090        2684.589          43.500          22.600
 113560857.213 8  88489039.76646  21609920.211                    21609923.035
      2239.082        1744.970          52.300          36.200
 106443977.534 8  82943409.48947  20255617.313                    20255621.578
     -1061.379        -826.863          52.400          44.400
 127245373.735 5  99152277.08542  24213991.086                    24213994.285
       837.617         653.015          32.200          17.400
 115115928.566 7  89700745.95145  21905841.016                    21905840.969
       837.539         652.932          46.300          35.200
 111451961.230 8  86845732.45646  21208607.844                    21208613.277
     -1924.488       -1499.320          51.200          39.900
 18  2 20  8  4 30.0000000  0  8G05G23G30G07G09G16G02G06
 124207688.448 7  96785287.31544  23635950.055                    23635953.215
      3273.055        2550.399          44.100          27.300
 118760950.613 8  92541010.45545  22599456.828                    22599458.160
     -2549.137       -1986.300          48.700          32.800
 120518479.893 7  93910505.83043  22933900.766                    22933904.738
      3437.797        2678.823          43.900          22.600
 113493893.694 8  88436860.40646  21597177.461                    21597180.348
      2225.113        1733.998          52.000          36.500
 106476006.821 8  82968367.37247  20261712.172                    20261716.508
     -1073.875        -836.678          53.100          44.300
 127220529.611 6  99132918.11543  24209269.438                    24209270.641
       818.590         638.066          40.700          22.300
 115091065.262 7  89681371.93545  21901109.531                    21901109.266
       819.934         639.097          46.900          35.200
 111509953.793 8  86890921.45946  21219643.477                    21219648.398
     -1941.703       -1512.832          51.700          40.700
 18  2 20  8  5  0.0000000  0  8G05G23G30G07G09G16G02G06
 124109553.028 7  96708818.14344  23617275.586                    23617278.734
      3269.496        2547.582          44.000          27.000
 118837515.262 8  92600671.20045  22614026.453                    22614027.582
     -2555.055       -1990.941          49.300          33.500
 120415460.631 7  93830231.10543  22914296.859                    22914300.344
      3430.195        2672.975          44.400          22.500
 113427354.442 8  88385011.64546  21584515.836                    21584518.770
      2210.918        1722.920          51.900          36.500
 106508413.649 8  82993619.43747  20267879.156                    20267883.348
     -1086.484        -846.490          52.700          44.100
 127196262.472 6  99114008.58743  24204648.383                    24204654.043
       799.293         623.019          37.900          21.300
 115066735.847 7  89662413.93545  21896480.039                    21896479.984
       802.098         625.212          46.500          34.500
 111568466.059 8  86936515.41246  21230777.781                    21230783.383
     -1959.102       -1526.339          50.300          40.200
 18  2 20  8  5 30.0000000  0  8G05G23G30G07G09G16G02G06
 124011527.082 7  96632434.28044  23598621.023                    23598625.637
      3265.691        2544.773          43.800          27.900
 118914256.576 8  92660469.60845  22628630.188                    22628631.383
     -2561.074       -1995.480          49.300          33.300
 120312667.524 7  93750132.58143  22894735.773                    22894739.848
      3422.563        2667.120          43.800          22.600
 113361241.586 8  88333495.12846  21571934.938                    21571937.484
      2196.543        1711.862          52.900          37.700
 106541197.227 8  83019165.07747  20274117.633                    20274121.918
     -1099.133        -856.214          51.600          44.000
 127172573.299 6  99095549.61843  24200143.367                    24200142.172
       779.855         608.045          38.600          19.000
 115042941.591 7  89643872.95045  21891952.094                    21891951.582
       784.125         611.323          47.900          35.500
 111627496.473 8  86982513.11846  21242011.234                    21242016.590
     -1976.359       -1539.721          49.800          40.200
 18  2 20  8  6  0.0000000  0  8G05G23G30G07G09G16G02G06
 123913611.391 7  96556136.32444  23579988.406                    23579992.742
      3261.969        2541.812          43.100          28.200
 118991173.240 8  92720404.64745  22643267.047                    22643268.133
     -2566.848       -2000.082          48.900          33.200
 120210102.832 7  93670212.06143  22875218.344                    22875222.594
      3415.066        2661.114          42.700          22.800
 113295556.632 8  88282312.03946  21559435.547                    21559438.566
      2182.305        1700.671          52.700          38.600
 106574356.219 8  83045003.24647  20280427.477                    20280431.875
     -1111.598        -866.025          52.200          44.100
 127149463.995 7  99077542.26543  24195747.250                    24195746.508
       760.688         592.896          44.700          23.500
 115019683.470 7  89625749.72445  21887526.391                    21887525.727
       766.336         597.331          47.700          35.200
 111687042.985 8  87028912.98346  21253342.742                    21253347.980
     -1993.492       -1553.177          49.800          39.800
 18  2 20  8  6 30.0000000  0  8G05G23G30G07G09G16G02G06
 123815808.037 7  96479925.91044  23561377.016                    23561381.320
      3258.258        2538.927          44.400          28.000
 119068263.631 8  92780475.05945  22657936.820                    22657938.137
     -2572.562       -2004.524          48.000          32.800
 120107768.652 7  93590471.17443  22855745.344                    22855748.621
      3407.266        2655.079          43.400          22.900
 113230301.030 8  88231463.51346  21547017.883                    21547020.895
      2168.008        1689.537          52.300          38.500
 106607889.031 8  83071132.69147  20286808.258                    20286813.023
     -1123.937        -875.672          52.900          44.500
 127126935.224 5  99059987.40943  24191455.820                    24191462.113
       741.277         577.876          35.800          20.600
 114996961.569 8  89608044.33145  21883202.555                    21883201.879
       748.387         583.429          48.400          35.900
 111747103.142 8  87075713.07446  21264771.680                    21264777.152
     -2010.551       -1566.437          51.200          39.700
 18  2 20  8  7  0.0000000  0  8G05G23G30G07G09G16G02G06
 123718119.131 7  96403804.67844  23542787.578                    23542791.629
      3254.441        2535.969          43.900          27.500
 119145527.391 7  92840680.55645  22672640.273                    22672640.719
     -2578.250       -2008.954          47.600          32.100
 120005668.549 7  93510912.66243  22836315.383                    22836320.609
      3399.563        2649.072          42.100          21.700
 113165477.344 8  88180951.55546  21534682.000                    21534685.227
      2153.684        1678.355          52.300          38.200
 106641795.596 8  83097553.39547  20293260.641                    20293265.238
     -1136.297        -885.309          53.000          44.100
 127104989.326 7  99042886.78743  24187284.133                    24187283.047
       721.988         562.750          42.600          20.400
 114974778.093 8  89590758.50045  21878981.195                    21878980.707
       730.563         569.480          48.800          35.500
 111807676.108 8  87122912.76846  21276298.664                    21276303.699
     -2027.457       -1579.665          51.300          40.000
 18  2 20  8  7 30.0000000  0  8G05G23G30G07G09G16G02G06
 123620546.086 7  96327773.74344  23524220.727                    23524224.625
      3250.535        2532.835          44.700          28.100
 119222962.827 7  92901019.83145  22687374.563                    22687376.332
     -2583.996       -2013.518          47.000          31.900
 119903804.607 7  93431538.18543  22816932.023                    22816937.031
      3391.457        2642.782          42.700          21.800
 113101087.208 8  88130777.43346  21522429.156                    21522432.145
      2139.109        1666.949          51.900          38.900
 106676074.304 8  83124264.07447  20299783.695                    20299787.656
     -1148.785        -895.071          52.000          43.900
 127083627.664 7  99026241.18543  24183217.242                    24183215.086
       702.438         547.457          42.400          19.000
 114953133.400 8  89573892.49645  21874862.227                    21874861.867
       712.574         555.389          48.500          35.500
 111868759.464 8  87170510.15146  21287921.953                    21287927.313
     -2044.504       -1593.017          49.300          39.700
 18  2 20  8  8  0.0000000  0  8G05G23G30G07G09G16G02G06
 123523090.506 7  96251834.30544  23505674.883                    23505679.063
      3246.375        2529.826          45.100          27.600
 119300569.272 7  92961492.36745  22702142.758                    22702144.191
     -2589.828       -2017.902          47.600          32.700
 119802179.459 6  93352349.75543  22797592.633                    22797598.055
      3383.473        2636.563          40.500          22.200
 113037132.757 8  88080942.81046  21510258.195                    21510262.367
      2124.371        1655.645          51.900          38.900
 106710724.123 8  83151263.92147  20306377.695                    20306381.750
     -1161.203        -904.654          52.700          44.400
 127062851.027 5  99010051.66942  24179261.148                    24179264.238
       682.734         532.316          34.200          17.400
 114932028.640 8  89557447.22846  21870846.117                    21870845.723
       694.344         541.379          49.300          36.200
 111930351.376 8  87218503.82046  21299642.734                    21299648.363
     -2061.664       -1606.177          48.900          39.800
 18  2 20  8  8 30.0000000  0  8G05G23G30G07G09G16G02G06
 123425753.641 7  96175987.38944  23487151.703                    23487156.500
      3242.672        2526.756          44.700          28.900
 119378346.422 7  93022097.91145  22716943.391                    22716944.539
     -2595.289       -2022.287          47.500          31.800
 119700796.112 6  93273349.77343  22778299.859                    22778305.367
      3375.590        2630.332          40.600          23.000
 112973615.761 8  88031449.07146  21498171.641                    21498175.086
      2110.027        1644.325          52.500          38.900
 106745744.509 8  83178552.52947  20313041.859                    20313045.836
     -1173.383        -914.215          53.400          44.100
 127042661.788 7  98994319.80843  24175420.961                    24175423.082
       663.344         517.052          42.600          18.600
 114911465.523 8  89541424.01246  21866933.094                    21866932.961
       676.570         527.343          48.600          36.300
 111992450.367 8  87266892.61046  21311459.813                    21311464.910
     -2078.273       -1619.283          50.600          39.800
 18  2 20  8  9  0.0000000  0  8G05G23G30G07G09G16G02G06
 123328537.742 7  96100234.76344  23468652.508                    23468656.801
      3238.648        2523.566          44.900          28.400
 119456292.251 7  93082834.88945  22731776.688                    22731777.398
     -2600.793       -2026.659          47.300          31.800
 119599656.810 6  93194539.93743  22759054.281                    22759059.953
      3367.453        2623.940          41.800          22.900
 112910537.875 8  87982297.50246  21486168.336                    21486171.465
      2095.484        1632.880          52.100          39.400
 106781133.890 8  83206128.66447  20319776.227                    20319780.281
     -1185.625        -923.812          52.900          44.500
 127023060.633 6  98979046.13242  24171689.063                    24171690.898
       643.805         501.775          39.800          17.400
 114891444.283 8  89525823.03946  21863123.125                    21863123.141
       658.473         513.230          50.200          37.200
 112055054.095 8  87315674.69946  21323372.789                    21323378.094
     -2094.953       -1632.368          49.000          39.800
 18  2 20  8  9 30.0000000  0  8G05G23G30G07G09G16G02G06
 123231444.861 7  96024577.96844  23450176.977                    23450180.441
      3234.273        2520.306          45.100          29.600
 119534405.545 7  93143702.37745  22746640.719                    22746642.426
     -2606.590       -2031.037          47.200          31.400
 119498763.989 6  93115922.14643  22739855.281                    22739860.785
      3359.133        2617.444          41.100          23.600
 112847900.523 8  87933489.18946  21474248.695                    21474252.289
      2080.504        1621.378          51.600          39.000
 106816891.101 8  83233991.41947  20326580.656                    20326584.516
     -1198.094        -933.398          53.500          44.700
 127004048.691 6  98964231.63242  24168071.359                    24168072.930
       623.758         486.424          37.800          16.300
 114871965.491 8  89510644.74046  21859416.758                    21859416.680
       640.148         499.101          49.600          36.400
 112118160.550 8  87364848.54346  21335381.602                    21335387.074
     -2111.984       -1645.449          50.200          39.500
 18  2 20  8 10  0.0000000  0  8G05G23G30G07G09G16G02G06
 123134475.223 7  95949017.20444  23431723.008                    23431727.840
      3230.336        2517.161          46.200          28.900
 119612684.886 7  93204699.24045  22761536.844                    22761537.785
     -2612.027       -2035.280          47.800          32.100
 119398119.711 6  93037498.04443  22720702.500                    22720708.699
      3350.648        2611.005          40.900          23.600
 112785705.219 8  87885025.33346  21462413.445                    21462417.035
      2065.859        1609.924          52.200          39.600
 106853014.571 8  83262139.58047  20333454.727                    20333458.664
     -1210.133        -942.849          53.000          44.900
 126985627.196 6  98949877.22243  24164566.688                    24164568.500
       604.277         471.108          39.400          18.600
 114853029.734 8  89495889.59746  21855813.461                    21855813.594
       622.191         485.043          49.900          37.400
 112181767.243 8  87414412.18146  21347485.727                    21347490.895
     -2128.547       -1658.371          48.700          39.000
 18  2 20  8 10 30.0000000  0  8G05G23G30G07G09G16G02G06
 123037631.088 7  95873554.24144  23413294.172                    23413299.160
      3226.066        2513.854          45.200          29.000
 119691129.610 8  93265824.98145  22776464.523                    22776466.031
     -2617.559       -2039.587          48.100          33.000
 119297726.804 6  92959269.84243  22701598.836                    22701604.461
      3342.234        2604.401          39.400          22.300
 112723953.813 8  87836907.35946  21450662.805                    21450665.832
      2050.988        1598.338          52.800          40.200
 106889503.499 8  83290572.50547  20340398.406                    20340402.586
     -1222.387        -952.334          52.900          44.900
 126967797.617 6  98935984.07543  24161172.969                    24161177.797
       584.270         455.633          39.000          19.300
 114834638.173 8  89481558.50246  21852313.742                    21852313.770
       603.961         470.859          50.000          37.100
 112245872.417 8  87464364.23746  21359683.992                    21359689.770
     -2145.078       -1671.306          48.500          39.400
 18  2 20  8 11  0.0000000  0  8G05G23G30G07G09G16G02G06
 122940913.589 7  95798189.96344  23394889.219                    23394893.879
      3221.707        2510.478          45.400          29.100
 119769738.684 8  93327078.78345  22791423.102                    22791424.441
     -2623.055       -2043.906          48.700          32.800
 119197588.042 6  92881239.62343  22682543.266                    22682548.844
      3333.625        2597.765          41.500          22.500
 112662648.244 8  87789136.79546  21438996.852                    21439000.141
      2036.031        1586.694          52.800          40.100
 106926356.918 8  83319289.44147  20347411.234                    20347415.406
     -1234.508        -961.833          53.200          45.000
 126950561.123 6  98922553.05343  24157892.813                    24157897.480
       564.555         440.206          39.400          20.900
 114816791.805 8  89467652.23346  21848917.328                    21848917.848
       585.797         456.664          49.100          37.800
 112310474.240 8  87514703.30346  21371977.508                    21371982.898
     -2161.672       -1684.225          49.700          39.500
 18  2 20  8 11 30.0000000  0  8G05G23G30G07G09G16G02G06
 122844325.185 7  95722926.27044  23376509.094                    23376513.813
      3217.500        2507.191          44.700          29.100
 119848510.584 8  93388459.45445  22806412.656                    22806413.855
     -2628.398       -2048.046          48.200          33.100
 119097705.422 6  92803409.01944  22663536.508                    22663541.195
      3325.043        2591.112          40.000          25.100
 112601789.769 8  87741714.60446  21427415.945                    21427419.043
      2021.125        1575.139          53.200          40.800
 106963573.217 8  83348289.15647  20354493.281                    20354497.609
     -1246.641        -971.182          53.100          45.200
 126933918.390 6  98909584.70543  24154725.734                    24154729.488
       544.797         424.851          39.300          19.300
 114799490.766 8  89454170.90346  21845624.984                    21845625.266
       567.617         442.539          49.600          37.600
 112375570.123 8  87565427.34346  21384364.922                    21384370.234
     -2178.148       -1696.973          49.100          39.700
 18  2 20  8 12  0.0000000  0  8G05G23G30G07G09G16G02G06
 122747867.568 7  95647764.47444  23358153.734                    23358157.895
      3213.074        2503.703          44.900          28.700
 119927444.394 8  93449966.30145  22821433.367                    22821435.020
     -2633.730       -2052.270          48.800          33.800
 118998081.678 6  92725780.12343  22644578.406                    22644583.371
      3316.484        2584.332          40.400          21.800
 112541380.346 8  87694642.32446  21415920.305                    21415923.359
      2006.156        1563.398          52.400          40.400
 107001151.470 8  83377570.90747  20361644.273                    20361648.602
     -1258.684        -980.629          52.400          45.000
 126917870.713 6  98897080.06643  24151672.547                    24151674.523
       524.934         409.306          40.800          20.100
 114782736.310 8  89441115.47346  21842436.938                    21842437.082
       549.367         428.296          49.100          37.500
 112441158.234 8  87616534.92746  21396845.984                    21396851.016
     -2194.441       -1709.771          48.500          38.800
 18  2 20  8 12 30.0000000  0  8G05G23G30G07G09G16G02G06
 122651541.775 7  95572705.41944  23339823.789                    23339827.480
      3208.664        2500.250          44.900          28.100
 120006538.794 8  93511598.27645  22836484.609                    22836486.238
     -2639.129       -2056.445          48.300          32.500
 118898718.920 6  92648354.59443  22625670.883                    22625675.547
      3307.844        2577.508          40.400          22.200
 112481421.155 8  87647920.87846  21404510.328                    21404513.582
      1991.063        1551.666          52.300          41.100
 107039090.143 8  83407133.50547  20368863.695                    20368867.844
     -1270.555        -989.983          51.300          44.600
 126902419.203 7  98885039.90643  24148733.469                    24148736.305
       505.070         393.811          42.200          22.200
 114766528.733 8  89428486.18946  21839352.797                    21839353.137
       531.098         414.065          49.000          36.600
 112507236.063 8  87668024.12246  21409420.578                    21409425.566
     -2210.730       -1722.487          48.400          39.300
 18  2 20  8 13  0.0000000  0  8G05G23G30G07G09G16G02G06
 122555349.398 7  95497750.32544  23321519.063                    23321522.879
      3204.004        2496.780          43.600          28.400
 120085792.835 8  93573354.65145  22851566.156                    22851567.434
     -2644.613       -2060.582          48.500          33.600
 118799619.923 6  92571134.60943  22606812.906                    22606817.230
      3298.730        2570.673          40.800          23.900
 112421913.897 8  87601551.58846  21393186.477                    21393189.621
      1975.816        1539.919          52.000          40.900
 107077388.354 8  83436976.25947  20376151.773                    20376156.039
     -1282.746        -999.303          53.200          44.600
 126887564.931 6  98873465.16543  24145904.695                    24145910.316
       484.844         378.279          39.400          20.600
 114750868.981 8  89416283.78046  21836373.008                    21836373.105
       512.652         399.831          48.700          37.000
 112573801.826 8  87719893.53146  21422087.430                    21422092.363
     -2227.121       -1735.127          49.100          38.600
 18  2 20  8 13 30.0000000  0  8G05G23G30G07G09G16G02G06
 122459292.903 7  95422901.10644  23303240.633                    23303243.559
      3199.430        2493.231          46.000          29.000
 120165205.599 7  93635234.70145  22866678.094                    22866679.813
     -2649.879       -2064.658          47.900          33.100
 118700787.440 6  92494122.29043  22588005.430                    22588010.219
      3289.754        2563.719          41.800          22.000
 112362860.626 8  87555536.06246  21381949.141                    21381952.035
      1960.699        1528.136          51.400          40.600
 107116045.169 8  83467098.44147  20383507.914                    20383512.023
     -1294.676       -1008.565          51.100          44.600
 126873309.149 6  98862356.83943  24143192.750                    24143195.957
       464.926         362.772          38.400          19.900
 114735758.055 8  89404509.02346  21833496.984                    21833497.703
       494.348         385.605          48.100          36.300
 112640853.552 8  87772141.61046  21434847.070                    21434851.691
     -2243.289       -1747.691          49.100          38.800
 18  2 20  8 14  0.0000000  0  8G05G23G30G07G09G16G02G06
 122363373.431 7  95348158.64944  23284987.094                    23284991.297
      3195.098        2489.750          45.000          28.500
 120244776.407 7  93697237.89645  22881819.563                    22881821.055
     -2654.898       -2068.671          47.000          33.200
 118602224.120 7  92417319.71943  22569249.352                    22569253.629
      3280.938        2556.748          42.000          22.800
 112304263.269 8  87509875.81246  21370798.648                    21370801.711
      1945.660        1516.336          51.800          40.600
 107155059.677 8  83497499.35147  20390932.086                    20390936.605
     -1306.371       -1017.781          52.100          44.600
 126859653.412 7  98851715.98343  24140595.477                    24140595.063
       445.195         347.218          43.400          20.100
 114721196.741 7  89393162.54345  21830726.109                    21830726.398
       476.215         371.369          47.900          35.800
 112708389.304 8  87824766.84246  21447698.820                    21447703.586
     -2259.195       -1760.164          49.200          38.100
 18  2 20  8 14 30.0000000  0  8G05G23G30G07G09G16G02G06
 122267592.352 7  95273524.07644  23266761.242                    23266764.574
      3190.359        2486.105          43.600          29.600
 120324503.470 7  93759362.85045  22896991.719                    22896992.773
     -2660.031       -2072.735          46.600          32.600
 118503931.909 6  92340728.39443  22550544.547                    22550549.840
      3271.953        2549.647          40.900          23.000
 112246122.826 8  87464571.60046  21359734.461                    21359737.445
      1930.488        1504.443          50.600          40.200
 107194430.096 8  83528177.59747  20398424.234                    20398428.230
     -1318.211       -1027.021          51.400          44.000
 126846598.003 7  98841542.88843  24138111.242                    24138111.039
       425.383         331.602          43.400          21.100
 114707185.395 8  89382244.60345  21828060.008                    21828060.160
       457.977         357.069          48.300          35.900
 112776406.309 7  87877767.06246  21460642.109                    21460647.055
     -2275.074       -1772.643          47.800          37.900
 18  2 20  8 15  0.0000000  0  8G05G23G30G07G09G16G02G06
 122171952.017 7  95198999.13744  23248561.727                    23248564.918
      3185.695        2482.425          47.500          29.700
 120404385.452 7  93821608.51345  22912192.234                    22912194.148
     -2665.148       -2076.739          46.500          32.800
 118405912.955 7  92264350.00443  22531893.297                    22531897.496
      3262.695        2542.550          42.900          22.000
 112188440.431 8  87419624.29746  21348757.758                    21348760.883
      1915.195        1492.540          52.800          40.700
 107234154.999 9  83559132.06147  20405983.742                    20405987.551
     -1329.969       -1036.211          54.300          44.500
 126834143.620 6  98831838.15643  24135739.648                    24135741.219
       405.188         315.988          40.000          20.100
 114693723.716 8  89371754.96645  21825498.125                    21825498.680
       439.621         342.791          48.000          35.500
 112844902.162 8  87931140.41846  21473676.313                    21473681.223
     -2290.980       -1785.060          49.900          38.000
 18  2 20  8 15 30.0000000  0  8G05G23G30G07G09G16G02G06
 122076453.342 7  95124584.56844  23230388.375                    23230392.020
      3180.719        2478.726          45.400          29.600
 120484421.531 7  93883974.26645  22927422.578                    22927424.398
     -2670.664       -2080.773          46.500          32.200
 118308170.173 6  92188186.80143  22513292.477                    22513297.449
      3253.262        2535.320          40.500          22.900
 112131218.153 8  87375035.53046  21337868.734                    21337871.742
      1899.527        1480.546          51.200          40.700
 107274233.663 8  83590362.18947  20413610.281                    20413614.301
     -1341.934       -1045.396          52.500          44.000
 126822291.556 6  98822602.82443  24133484.383                    24133487.824
       384.910         300.323          40.500          20.400
 114680813.065 7  89361694.71946  21823041.305                    21823041.637
       421.012         328.426          46.900          36.200
 112913875.022 8  87984885.46046  21486801.438                    21486806.180
     -2307.195       -1797.433          48.300          38.200
 18  2 20  8 16  0.0000000  0  8G05G23G30G07G09G16G02G06
 121981098.133 7  95050281.83245  23212242.305                    23212246.973
      3176.160        2474.921          45.000          30.000
 120564610.189 7  93946458.90845  22942682.008                    22942683.398
     -2675.363       -2084.726          46.300          32.500
 118210705.304 7  92112240.18643  22494745.344                    22494750.383
      3244.285        2528.039          42.500          22.900
 112074456.525 8  87330805.70246  21327067.844                    21327070.555
      1884.535        1468.522          52.800          40.600
 107314664.159 8  83621866.46747  20421303.844                    20421308.031
     -1353.426       -1054.559          53.200          43.700
 126811042.103 6  98813837.04343  24131343.977                    24131347.762
       365.039         284.621          40.900          20.900
 114668453.584 7  89352063.94945  21820689.398                    21820689.930
       402.957         314.094          47.400          35.800
 112983321.966 8  88038999.91846  21500016.773                    21500021.836
     -2322.625       -1809.748          48.700          37.400
 18  2 20  8 16 30.0000000  0  8G05G23G30G07G09G16G02G06
 121885888.633 7  94976092.61944  23194125.477                    23194128.898
      3171.355        2471.107          46.400          29.400
 120644950.726 7  94009061.88745  22957970.664                    22957971.441
     -2680.336       -2088.678          46.400          32.300
 118113521.379 6  92036512.45044  22476251.602                    22476256.848
      3234.844        2520.697          40.500          24.600
 112018157.828 8  87286936.60646  21316354.750                    21316356.898
      1869.059        1456.462          53.100          40.200
 107355445.933 8  83653644.47047  20429064.242                    20429068.410
     -1365.098       -1063.691          52.900          43.600
 126800396.661 7  98805541.88343  24129319.133                    24129320.453
       344.953         268.891          42.300          20.400
 114656645.967 7  89342863.20345  21818442.344                    21818443.379
       384.492         299.737          47.000          35.700
 113053241.340 8  88093482.51346  21513321.359                    21513326.961
     -2338.312       -1822.003          48.300          37.500
 18  2 20  8 17  0.0000000  0  8G05G23G30G07G09G16G02G06
 121790825.324 7  94902017.30045  23176035.094                    23176038.500
      3166.363        2467.319          45.900          30.000
 120725442.004 7  94071782.32945  22973288.039                    22973288.777
     -2685.434       -2092.547          47.000          32.100
 118016620.527 7  91961005.31244  22457812.094                    22457817.215
      3225.336        2513.317          42.500          25.600
 111962323.095 9  87243429.04246  21305729.883                    21305731.906
      1853.480        1444.400          54.500          41.000
 107396577.405 8  83685694.96147  20436891.516                    20436895.703
     -1376.836       -1072.735          53.800          43.900
 126790356.089 6  98797718.03343  24127407.672                    24127407.672
       324.652         253.175          41.200          21.100
 114645390.720 7  89334092.86845  21816300.695                    21816301.262
       366.051         285.386          47.900          35.000
 113123630.576 8  88148331.24146  21526716.078                    21526721.383
     -2354.082       -1834.171          48.100          37.900
 18  2 20  8 17 30.0000000  0  8G05G23G30G07G09G16G02G06
 121695911.071 7  94828058.15545  23157973.703                    23157976.945
      3161.219        2463.408          47.000          30.000
 120806083.476 7  94134619.81145  22988633.117                    22988634.617
     -2690.578       -2096.447          46.300          32.000
 117920005.549 7  91885720.94744  22439427.383                    22439432.379
      3215.699        2505.885          43.600          26.500
 111906954.443 8  87200284.65446  21295193.313                    21295195.406
      1837.840        1432.283          53.800          40.500
 107438057.885 9  83718017.40547  20444784.703                    20444788.992
     -1388.465       -1081.784          54.400          43.100
 126780921.160 6  98790366.10643  24125611.711                    24125612.336
       304.254         237.447          39.400          20.100
 114634688.913 8  89325753.79146  21814264.680                    21814264.605
       347.516         271.038          48.600          36.000
 113194487.793 8  88203544.64346  21540199.828                    21540205.273
     -2369.738       -1846.301          49.700          37.900
 18  2 20  8 18  0.0000000  0  8G05G23G30G07G09G16G02G06
 121601147.704 7  94754216.56544  23139940.695                    23139943.715
      3156.246        2459.436          46.900          29.700
 120886873.199 7  94197572.81245  23004006.719                    23004008.219
     -2695.398       -2100.323          46.900          32.600
 117823678.710 7  91810661.09944  22421096.703                    22421101.680
      3206.105        2498.304          43.400          25.400
 111852053.191 9  87157504.46446  21284745.883                    21284748.164
      1822.387        1420.099          54.400          39.800
 107479885.863 9  83750610.62247  20452744.461                    20452748.805
     -1399.988       -1090.831          54.300          43.100
 126772092.634 5  98783486.74443  24123931.195                    24123934.023
       284.156         221.659          35.700          19.600
 114624540.394 7  89317845.85845  21812333.281                    21812333.352
       329.082         256.581          47.900          35.700
 113265810.405 8  88259120.68746  21553772.102                    21553777.383
     -2385.141       -1858.403          49.200          37.700
 18  2 20  8 18 30.0000000  0  8G05G23G30G07G09G16G02G06
 121506536.601 7  94680493.63744  23121936.797                    23121939.887
      3151.098        2455.450          47.000          29.300
 120967810.379 7  94260640.71145  23019408.797                    23019410.148
     -2700.430       -2104.155          46.700          31.000
 117727642.331 7  91735827.55044  22402821.273                    22402826.980
      3196.266        2490.751          43.000          27.900
 111797620.433 8  87115089.33146  21274387.406                    21274389.820
      1806.602        1407.905          53.600          40.000
 107522060.169 8  83783473.71247  20460769.922                    20460774.438
     -1411.680       -1099.819          53.900          43.300
 126763871.107 6  98777080.41843  24122367.742                    24122371.871
       263.910         205.887          39.400          19.600
 114614945.973 8  89310369.68746  21810507.914                    21810507.395
       310.469         242.203          48.000          36.000
 113337596.087 8  88315057.56246  21567432.555                    21567438.082
     -2400.637       -1870.396          48.800          37.600
 18  2 20  8 19  0.0000000  0  8G05G23G30G07G09G16G02G06
 121412079.509 7  94606890.70244  23103962.570                    23103965.320
      3146.117        2451.532          47.500          29.300
 121048894.020 7  94323822.73745  23034838.766                    23034840.078
     -2705.184       -2107.840          46.700          31.600
 117631898.796 7  91661222.23544  22384602.188                    22384607.566
      3186.582        2483.199          42.800          28.000
 111743657.730 8  87073040.49646  21264118.445                    21264120.922
      1790.941        1395.768          53.700          39.800
 107564579.516 8  83816605.66347  20468860.867                    20468865.570
     -1423.004       -1108.665          52.800          43.700
 126756257.464 7  98771147.70643  24120918.961                    24120923.531
       243.715         190.167          42.500          22.800
 114605905.654 8  89303325.28045  21808786.984                    21808786.922
       292.188         227.911          48.900          35.700
 113409842.463 8  88371353.42346  21581180.438                    21581186.035
     -2415.812       -1882.243          49.200          37.400
 18  2 20  8 19 30.0000000  0  8G05G23G30G07G09G16G02G06
 121317777.720 7  94533408.80445  23086017.336                    23086020.219
      3140.977        2447.399          46.600          30.200
 121130123.046 7  94387118.05545  23050295.719                    23050297.559
     -2709.902       -2111.707          46.300          31.600
 117536450.590 7  91586847.02544  22366438.969                    22366444.785
      3176.863        2475.396          42.600          29.000
 111690166.562 8  87031359.08446  21253939.320                    21253941.809
      1775.281        1383.407          53.400          39.700
 107607442.784 9  83850005.60147  20477017.578                    20477021.988
     -1434.305       -1117.681          54.200          44.100
 126749252.492 7  98765689.26643  24119586.313                    24119590.355
       223.496         174.289          42.200          23.600
 114597419.987 8  89296713.06545  21807172.961                    21807172.461
       273.777         213.406          48.300          35.800
 113482547.267 8  88428006.49946  21595015.789                    21595021.484
     -2431.043       -1894.222          50.000          38.500
 18  2 20  8 20  0.0000000  0  8G05G23G30G07G09G16G02G06
 121223632.929 7  94460049.22745  23068102.117                    23068104.957
      3135.434        2443.329          47.300          30.400
 121211496.853 7  94450526.17945  23065781.242                    23065781.852
     -2714.949       -2115.418          46.600          31.600
 117441300.372 7  91512704.02145  22348332.406                    22348337.949
      3166.613        2467.650          43.100          30.100
 111637148.654 8  86990046.45046  21243849.859                    21243852.996
      1759.234        1371.125          53.300          39.600
 107650649.036 9  83883672.79447  20485239.336                    20485244.039
     -1445.980       -1126.536          54.100          43.900
 126742857.019 7  98760705.75143  24118369.031                    24118371.320
       202.977         158.465          42.100          22.200
 114589489.938 8  89290533.80546  21805663.234                    21805663.293
       255.023         199.001          48.400          36.300
 113555708.359 8  88485015.10746  21608937.906                    21608943.359
     -2446.430       -1906.015          49.400          38.400
 18  2 20  8 20 30.0000000  0  8G05G23G30G07G09G16G02G06
 121129647.093 7  94386813.52444  23050217.070                    23050220.379
      3130.113        2439.130          47.000          29.500
 121293014.026 7  94514046.02545  23081293.305                    23081294.180
     -2719.695       -2119.165          47.000          31.400
 117346450.303 7  91438794.89244  22330283.563                    22330288.707
      3156.621        2459.805          43.600          29.300
 111584605.016 8  86949103.38046  21233851.234                    21233854.426
      1743.488        1358.750          53.500          39.700
 107694196.885 9  83917606.17247  20493526.023                    20493530.582
     -1457.402       -1135.452          54.600          43.200
 126737071.582 7  98756197.58943  24117268.773                    24117269.402
       182.590         142.555          43.000          20.900
 114582115.533 7  89284787.51346  21804260.250                    21804260.199
       236.488         184.517          47.900          36.600
 113629323.235 8  88542377.33246  21622946.930                    21622952.238
     -2461.391       -1917.805          50.500          38.700
 18  2 20  8 21  0.0000000  0  8G05G23G30G07G09G16G02G06
 121035822.787 7  94313703.69445  23032363.484                    23032366.102
      3124.742        2434.904          47.500          30.200
 121374673.191 7  94577676.51245  23096832.281                    23096833.559
     -2724.301       -2122.846          47.200          31.200
 117251902.642 7  91365121.40545  22312290.453                    22312296.512
      3146.531        2451.909          42.900          30.400
 111532536.827 8  86908530.78246  21223943.211                    21223946.469
      1727.703        1346.393          53.000          40.000
 107738084.911 9  83951804.62147  20501877.906                    20501882.297
     -1468.664       -1144.271          54.100          42.600
 126731896.749 6  98752165.20143  24116282.648                    24116283.156
       162.273         126.652          40.500          20.600
 114575296.815 8  89279474.21945  21802962.328                    21802962.352
       218.051         170.081          48.300          35.900
 113703389.320 8  88600091.15046  21637041.219                    21637046.781
     -2476.437       -1929.513          49.900          38.600
 18  2 20  8 21 30.0000000  0  8G05G23G30G07G09G16G02G06
 120942161.488 7  94240720.86144  23014540.508                    23014543.070
      3119.285        2430.649          47.600          29.900
 121456473.539 7  94641417.01245  23112398.930                    23112399.988
     -2729.145       -2126.490          47.100          31.800
 117157659.979 7  91291685.57245  22294357.563                    22294363.586
      3136.219        2443.969          42.900          30.400
 111480945.647 8  86868329.89346  21214126.242                    21214128.723
      1711.570        1333.973          53.400          40.600
 107782312.139 8  83986267.38447  20510293.875                    20510298.344
     -1479.934       -1153.056          53.700          42.700
 126727333.273 6  98748609.24543  24115414.695                    24115414.852
       141.773         110.794          39.900          20.100
 114569034.411 7  89274594.42346  21801770.930                    21801770.992
       199.355         155.622          47.300          36.100
 113777904.368 8  88658154.80246  21651220.828                    21651226.445
     -2491.363       -1941.121          49.200          38.200
 18  2 20  8 22  0.0000000  0  8G05G23G30G07G09G16G02G06
 120848664.845 7  94167866.34745  22996748.156                    22996751.055
      3113.703        2426.400          46.500          30.200
 121538414.125 7  94705266.78145  23127991.445                    23127992.410
     -2733.668       -2130.074          47.400          31.300
 117063724.767 7  91218489.32445  22276481.953                    22276487.668
      3126.094        2435.997          42.600          31.600
 111429832.979 8  86828501.86246  21204399.555                    21204402.289
      1695.738        1321.581          53.800          40.400
 107826877.443 9  84020993.57847  20518774.641                    20518778.922
     -1491.230       -1161.782          54.300          43.000
 126723381.810 6  98745530.21743  24114662.359                    24114663.738
       121.578          94.948          39.900          19.600
 114563328.701 7  89270148.40646  21800685.148                    21800685.684
       180.852         141.204          47.700          36.500
 113852866.070 8  88716566.48946  21665485.539                    21665491.383
     -2506.168       -1952.645          49.200          38.200
 18  2 20  8 22 30.0000000  0  8G05G23G30G07G09G16G02G06
 120755333.716 7  94095140.80645  22978988.250                    22978990.625
      3108.359        2422.138          46.700          30.900
 121620493.845 7  94769224.97245  23143610.727                    23143611.777
     -2738.281       -2133.661          46.900          31.300
 116970099.189 7  91145534.34945  22258665.078                    22258671.297
      3115.613        2427.959          43.800          31.800
 111379199.785 9  86789047.43847  21194764.570                    21194767.258
      1679.773        1309.149          54.300          42.000
 107871779.406 8  84055982.11147  20527319.094                    20527323.246
     -1502.367       -1170.487          53.500          43.600
 126720042.546 6  98742928.18143  24114026.633                    24114030.445
       101.180          79.081          40.400          19.300
 114558179.618 7  89266136.13246  21799705.195                    21799706.070
       162.234         126.758          47.200          37.500
 113928271.791 8  88775324.18046  21679834.953                    21679840.457
     -2520.875       -1964.122          48.800          37.700
 18  2 20  8 23  0.0000000  0  8G05G23G30G07G09G16G02G06
 120662170.351 7  94022545.98345  22961259.664                    22961261.773
      3102.664        2417.726          46.800          30.600
 121702711.781 7  94833290.87345  23159256.438                    23159257.590
     -2742.715       -2137.220          47.500          31.400
 116876785.639 7  91072822.51445  22240908.164                    22240914.969
      3105.414        2419.815          44.100          31.900
 111329047.509 8  86749967.75446  21185221.000                    21185223.664
      1663.781        1296.637          53.700          41.500
 107917016.866 8  84091232.06247  20535927.461                    20535931.965
     -1513.395       -1179.165          53.500          43.000
 126717316.456 6  98740803.97343  24113507.961                    24113512.379
        80.852          63.169          40.400          21.100
 114553587.686 8  89262558.00046  21798831.438                    21798831.961
       143.914         112.327          48.200          37.200
 114004119.169 8  88834426.00846  21694268.000                    21694273.574
     -2535.465       -1975.552          49.300          37.900
 18  2 20  8 23 30.0000000  0  8G05G23G30G07G09G16G02G06
 120569177.454 7  93950083.99345  22943564.063                    22943566.305
      3097.086        2413.284          47.400          30.100
 121785066.753 7  94897463.52645  23174928.414                    23174929.160
     -2747.273       -2140.787          46.600          30.700
 116783786.480 7  91000355.66345  22223211.281                    22223217.633
      3094.898        2411.608          44.300          32.400
 111279377.375 8  86711263.76446  21175768.961                    21175771.781
      1647.770        1284.081          53.500          41.600
 107962588.602 8  84126742.49547  20544599.727                    20544603.914
     -1524.453       -1187.852          53.900          43.600
 126715203.594 6  98739157.59643  24113106.375                    24113111.105
        60.281          47.217          39.000          20.900
 114549553.102 8  89259414.16146  21798064.297                    21798064.387
       125.320          97.812          48.000          37.400
 114080405.725 8  88893870.05046  21708784.602                    21708790.750
     -2550.000       -1986.941          48.300          38.400
 18  2 20  8 24  0.0000000  0  8G05G23G30G07G09G16G02G06
 120476355.799 7  93877755.43545  22925900.180                    22925902.957
      3091.012        2408.808          47.500          30.400
