     2.11           OBSERVATION DATA    G (GPS)             RINEX VERSION / TYPE
teqc  2016Nov7                          20180328 12:23:34UTCPGM / RUN BY / DATE
Linux 2.4.21-27.ELsmp|Opteron|gcc|Linux x86_64|=+           COMMENT
teqc  2016Nov7                          20180328 12:23:33UTCCOMMENT
     2.11           OBSERVATION DATA    M (MIXED)           COMMENT
teqc  2016Nov7                          20180328 12:23:31UTCCOMMENT
teqc  2016Nov7      IGN-RGP             20180220 09:16:04UTCCOMMENT
teqc  2015Jun23     IGN-RGP             20180220 09:07:41UTCCOMMENT
Linux2.4.20-8|i386|gcc|Win32-MinGW32|=                      COMMENT
   0.000      (antenna height)                              COMMENT
 +49.07477154 (latitude)                                    COMMENT
  +2.34336339 (longitude)                                   COMMENT
0197.266      (elevation)                                   COMMENT
BIT 2 OF LLI FLAGS DATA COLLECTED UNDER A/S CONDITION       COMMENT
19692M001 (COGO code)                                       COMMENT
SXJ5                                                        MARKER NAME
19692M001                                                   MARKER NUMBER
Automatic           GIE COOP&TECH                           OBSERVER / AGENCY
5106K73699          TRIMBLE NETR5       4.41                REC # / TYPE / VERS
1441027413          TRM57971.00     NONE                    ANT # / TYPE
  4182784.0690   171168.8390  4796159.0770                  APPROX POSITION XYZ
        1.0000        0.0000        0.0000                  ANTENNA: DELTA H/E/N
     1     1                                                WAVELENGTH FACT L1/2
     9    L1    L2    C1    P1    P2    D1    D2    S1    S2# / TYPES OF OBSERV
    30.0000                                                 INTERVAL
    18                                                      LEAP SECONDS
 SNR is mapped to RINEX snr flag value [0-9]                COMMENT
  L1 & L2: min(max(int(snr_dBHz/6), 0), 9)                  COMMENT
teqc_2016 edited: GLONASS # 25 - 30 excluded                COMMENT
Forced Modulo Decimation to 30 seconds                      COMMENT
teqc_2016 edited: all GLONASS satellites excluded           COMMENT
teqc_2016 edited: all SBAS satellites excluded              COMMENT
teqc_2016 edited: all Galileo satellites excluded           COMMENT
  2018     2    20     8     0    0.0000000     GPS         TIME OF FIRST OBS
                                                            END OF HEADER
 18  2 20  8  0  0.0000000  0  8G07G05G23G09G16G30G06G02
 114420611.889 8  89158963.80446  21773522.148                    21773526.586
      2396.305                          50.500          39.200
 125170002.551 7  97535096.40044  23819063.922                    23819067.086
      3339.066                          43.000          24.700
 118409200.930 8  92266958.62545  22532529.625                    22532531.164
     -2464.590                          48.400          33.800
 106462856.063 8  82958142.03747  20259214.188                    20259219.895
      -932.082                          52.700          46.100
 127792690.734 6  99578775.95043  24318150.031                    24318153.691
      1048.789                          40.800          20.400
 121742591.197 8  94864427.31345  23166854.953                    23166861.969
      3545.105                          48.000          35.300
 111206293.658 8  86654315.57747  21161863.828                    21161869.871
     -1751.187                          50.400          43.000
 115449731.970 7  89960848.19846  21969360.289                    21969361.918
      1014.586                          46.600          36.400
 18  2 20  8  0 30.0000000  0  8G07G05G23G09G16G30G06G02
 114348927.028 8  89103105.46646  21759881.148                    21759885.637
      2382.758        1856.877          49.900          39.100
 125069879.687 7  97457078.57644  23800011.172                    23800014.281
      3335.883        2599.441          42.300          25.300
 118483230.829 7  92324644.22745  22546616.641                    22546618.770
     -2470.719       -1925.138          47.300          34.200
 106491012.353 8  82980082.00747  20264571.602                    20264577.840
      -944.977        -736.132          52.200          45.500
 127761508.483 6  99554478.07443  24312217.773                    24312219.895
      1030.066         802.927          40.400          22.200
 121636338.853 7  94781633.29945  23146635.438                    23146643.055
      3538.434        2757.335          46.900          34.800
 111259095.750 8  86695460.07547  21171911.422                    21171918.184
     -1768.910       -1378.132          51.700          43.200
 115419556.327 7  89937334.70346  21963618.031                    21963619.816
       997.094         777.248          45.400          36.700
 18  2 20  8  1  0.0000000  0  8G07G05G23G09G16G30G06G02
 114277649.383 8  89047564.45746  21746317.172                    21746321.906
      2369.223        1846.271          50.400          38.800
 124969852.503 7  97379135.31044  23780976.633                    23780980.289
      3332.715        2596.942          44.300          26.700
 118557446.096 7  92382474.26245  22560739.852                    22560741.277
     -2476.773       -1929.942          47.000          33.400
 106519555.052 8  83002323.06347  20270003.273                    20270009.293
      -957.758        -746.176          51.700          45.500
 127730887.190 6  99530617.31543  24306389.484                    24306393.527
      1011.711         788.351          38.300          21.100
 121530287.023 7  94698995.52145  23126454.844                    23126461.820
      3531.797        2752.101          47.200          34.600
 111312429.657 8  86737018.97347  21182059.102                    21182067.227
     -1786.543       -1391.930          49.900          42.600
 115389904.646 7  89914229.49346  21957976.055                    21957977.098
       979.734         763.608          46.300          36.300
 18  2 20  8  1 30.0000000  0  8G07G05G23G09G16G30G06G02
 114206782.541 8  88992343.57146  21732832.117                    21732836.395
      2355.418        1835.558          50.800          39.200
 124869923.593 7  97301268.60944  23761960.438                    23761964.488
      3329.344        2594.346          43.600          27.700
 118631846.780 7  92440448.78845  22574898.250                    22574899.406
     -2483.047       -1934.780          47.300          33.000
 106548484.413 8  83024865.42647  20275508.148                    20275514.344
      -970.637        -756.233          51.700          45.700
 127700830.010 6  99507196.24643  24300670.680                    24300673.422
       992.480         773.643          38.900          20.600
 121424439.636 7  94616517.07245  23106312.211                    23106319.578
      3524.887        2746.724          47.200          35.100
 111366295.067 8  86778991.96047  21192310.820                    21192317.262
     -1804.297       -1405.729          49.600          42.700
 115360779.482 7  89891534.54146  21952433.023                    21952434.527
       962.164         749.919          45.500          37.000
 18  2 20  8  2  0.0000000  0  8G07G05G23G09G16G30G06G02
 114136327.356 8  88937443.43046  21719424.656                    21719429.473
      2341.727        1824.822          51.400          39.800
 124770093.868 7  97223479.21344  23742963.594                    23742967.859
      3326.043        2591.700          44.600          27.300
 118706430.947 7  92498566.30145  22589090.352                    22589092.488
     -2489.168       -1939.541          46.700          33.000
 106577798.499 8  83047707.55647  20281086.453                    20281092.809
      -983.477        -766.231          51.000          45.600
 127671338.015 6  99484215.44343  24295058.672                    24295059.613
       973.656         758.885          41.300          19.600
 121318798.387 7  94534199.25445  23086209.188                    23086217.023
      3517.988        2741.318          47.000          34.800
 111420689.280 8  86821377.03847  21202662.055                    21202668.441
     -1821.895       -1419.468          51.900          43.600
 115332180.719 7  89869249.77546  21946990.906                    21946992.371
       944.633         736.210          46.600          37.500
 18  2 20  8  2 30.0000000  0  8G07G05G23G09G16G30G06G02
 114066287.716 8  88882867.10346  21706096.484                    21706100.898
      2327.777        1814.023          51.600          39.900
 124670367.569 7  97145770.40944  23723986.711                    23723990.668
      3322.543        2589.011          44.900          27.700
 118781199.195 7  92556827.24745  22603318.078                    22603320.375
     -2495.270       -1944.287          47.300          33.200
 106607498.026 8  83070850.04047  20286738.242                    20286743.980
      -996.324        -776.207          50.500          45.400
 127642414.626 6  99461677.67143  24289554.891                    24289554.715
       954.828         744.153          37.800          19.000
 121213367.763 7  94452045.55445  23066146.602                    23066154.316
      3510.902        2735.846          47.300          34.800
 111475612.426 8  86864174.30447  21213112.461                    21213119.969
     -1839.437       -1433.161          51.700          42.700
 115304111.780 7  89847377.86846  21941649.664                    21941651.066
       926.852         722.448          46.500          37.500
 18  2 20  8  3  0.0000000  0  8G07G05G23G09G16G30G06G02
 113996662.015 8  88828613.33146  21692847.461                    21692852.262
      2313.969        1803.248          51.600          40.600
 124570742.174 7  97068140.22544  23705028.250                    23705032.742
      3319.238        2586.377          45.400          27.200
 118856146.795 7  92615227.94645  22617580.438                    22617582.461
     -2501.086       -1948.916          47.500          33.100
 106637578.234 8  83094289.16447  20292462.008                    20292468.242
     -1009.039        -786.080          52.300          45.500
 127614057.689 6  99439581.42343  24284157.102                    24284160.719
       935.777         729.421          37.000          20.400
 121108146.713 7  94370055.16145  23046123.633                    23046131.207
      3503.770        2730.364          47.800          35.000
 111531059.211 8  86907379.56347  21223664.203                    21223670.906
     -1857.012       -1446.729          50.700          42.500
 115276570.270 7  89825916.94246  21936408.922                    21936409.953
       909.234         708.739          47.100          37.100
 18  2 20  8  3 30.0000000  0  8G07G05G23G09G16G30G06G02
 113927453.581 8  88774684.70946  21679677.688                    21679682.133
      2299.855        1792.270          51.300          40.800
 124471220.855 7  96990591.14644  23686089.977                    23686094.688
      3315.527        2583.562          44.600          27.300
 118931274.188 7  92673768.74645  22631876.703                    22631878.504
     -2507.301       -1953.692          46.500          33.600
 106668039.673 8  83118025.34147  20298258.891                    20298265.043
     -1021.738        -796.086          51.200          45.300
 127586270.314 6  99417928.95143  24278869.844                    24278874.410
       916.625         714.485          39.000          20.600
 121003139.374 7  94288231.28645  23026141.203                    23026149.023
      3496.547        2724.637          47.500          35.200
 111587029.333 8  86950992.63747  21234315.273                    21234321.355
     -1874.434       -1460.422          50.200          42.700
 115249558.435 7  89804868.74146  21931268.578                    21931269.805
       891.406         694.850          46.500          36.900
 18  2 20  8  4  0.0000000  0  8G07G05G23G09G16G30G06G02
 113858668.664 8  88721086.07746  21666588.297                    21666592.875
      2285.816        1781.354          51.400          40.900
 124371808.874 7  96913127.28144  23667172.867                    23667177.230
      3311.871        2580.786          45.100          27.600
 119006584.363 7  92732451.99145  22646207.359                    22646210.066
     -2513.477       -1958.339          46.300          33.300
 106698885.553 8  83142061.08347  20304129.070                    20304134.852
     -1034.555        -805.943          52.600          45.800
 127559058.411 6  99396724.83743  24273692.773                    24273694.945
       897.355         699.608          39.400          20.900
 120898352.602 7  94206579.27145  23006200.852                    23006208.434
      3489.254        2718.994          47.300          34.100
 111643525.368 8  86995015.53747  21245065.523                    21245072.520
     -1891.914       -1473.945          50.800          42.300
 115223081.789 7  89784237.57946  21926230.070                    21926231.301
       873.582         681.023          46.600          37.400
 18  2 20  8  4 30.0000000  0  8G07G05G23G09G16G30G06G02
 113790304.414 8  88667815.25346  21653579.141                    21653583.605
      2271.754        1770.403          50.800          40.100
 124272503.214 7  96835746.25944  23648275.594                    23648279.563
      3308.355        2578.015          44.900          27.900
 119082071.494 7  92791273.10145  22660572.375                    22660574.703
     -2519.187       -1962.908          46.900          33.200
 106730109.922 8  83166391.74847  20310070.898                    20310076.340
     -1047.125        -815.763          52.400          45.700
 127532418.913 5  99375966.79343  24268622.867                    24268625.289
       878.414         684.699          35.000          19.000
 120793784.188 7  94125097.41445  22986302.383                    22986309.586
      3481.992        2713.305          47.000          34.200
 111700540.679 8  87039443.04846  21255915.281                    21255922.184
     -1909.180       -1487.424          50.500          41.900
 115197136.610 7  89764020.55946  21921293.313                    21921294.313
       855.918         667.223          46.300          36.800
 18  2 20  8  5  0.0000000  0  8G07G05G23G09G16G30G06G02
 113722365.853 8  88614876.12346  21640650.609                    21640655.176
      2257.520        1759.323          51.600          40.700
 124173309.145 7  96758452.17944  23629399.820                    23629403.430
      3304.676        2575.123          45.300          28.300
 119157737.387 7  92850233.51945  22674970.891                    22674973.340
     -2525.137       -1967.530          46.500          32.700
 106761714.860 8  83191018.97047  20316084.469                    20316090.641
     -1059.789        -825.621          52.700          45.500
 127506356.562 6  99355658.50043  24263661.781                    24263665.566
       859.191         669.743          36.100          20.100
 120689439.905 7  94043790.19945  22966446.016                    22966453.008
      3474.410        2707.465          47.200          34.700
 111758076.598 8  87084276.21346  21266864.359                    21266870.648
     -1926.457       -1500.895          50.200          41.600
 115171727.270 7  89744221.06646  21916457.625                    21916458.727
       838.137         653.300          46.800          36.500
 18  2 20  8  5 30.0000000  0  8G07G05G23G09G16G30G06G02
 113654851.976 8  88562267.90446  21627803.547                    21627808.098
      2243.262        1748.243          51.300          40.600
 124074225.232 7  96681243.93944  23610544.594                    23610548.414
      3300.922        2572.214          44.500          27.600
 119233578.338 7  92909330.33745  22689402.867                    22689405.305
     -2531.051       -1972.115          47.400          33.600
 106793696.402 8  83215939.63247  20322171.203                    20322176.781
     -1072.359        -835.418          51.100          45.400
 127480869.983 6  99335798.80043  24258812.398                    24258816.680
       839.980         654.730          39.500          21.300
 120585319.468 7  93962657.42345  22946632.852                    22946639.977
      3466.805        2701.559          47.800          34.800
 111816128.395 8  87129511.37446  21277910.328                    21277917.734
     -1943.715       -1514.314          49.600          41.300
 115146851.872 7  89724837.63046  21911724.086                    21911725.398
       820.238         639.384          46.200          36.600
 18  2 20  8  6  0.0000000  0  8G07G05G23G09G16G30G06G02
 113587763.168 8  88509990.91446  21615036.750                    21615040.965
      2229.145        1737.182          51.900          41.000
 123975251.148 7  96604121.27844  23591710.313                    23591714.582
      3297.223        2569.308          45.700          27.900
 119309591.794 7  92968561.58645  22703867.625                    22703870.664
     -2536.664       -1976.568          47.600          33.500
 106826052.029 8  83241151.81247  20328327.797                    20328333.625
     -1084.711        -845.126          52.300          45.700
 127455959.122 6  99316387.68843  24254072.648                    24254076.523
       820.734         639.800          36.400          20.600
 120481424.047 8  93881699.95445  22926861.852                    22926868.922
      3459.398        2695.709          49.100          35.700
 111874692.844 8  87175145.98946  21289054.922                    21289062.625
     -1960.621       -1527.598          49.600          40.900
 115122510.223 7  89705870.10946  21907092.383                    21907092.883
       802.438         625.511          46.900          36.500
 18  2 20  8  6 30.0000000  0  8G07G05G23G09G16G30G06G02
 113521100.707 8  88458046.14746  21602351.234                    21602355.820
      2215.109        1726.140          51.700          41.100
 123876388.725 7  96527085.61344  23572897.781                    23572901.090
      3293.703        2566.480          45.200          29.100
 119385775.990 7  93027925.87045  22718365.414                    22718367.578
     -2542.180       -1980.907          47.300          33.500
 106858779.991 8  83266654.11747  20334555.469                    20334561.527
     -1096.957        -854.715          51.600          45.400
 127431624.920 6  99297426.00843  24249442.008                    24249446.188
       801.656         624.856          36.100          19.000
 120377755.557 8  93800919.31946  22907134.813                    22907141.805
      3451.949        2689.845          48.900          36.000
 111933767.456 8  87221178.10946  21300297.516                    21300304.246
     -1977.477       -1540.764          48.200          41.200
 115098702.223 7  89687318.42246  21902561.672                    21902562.262
       784.820         611.718          45.700          36.100
 18  2 20  8  7  0.0000000  0  8G07G05G23G09G16G30G06G02
 113454866.640 8  88406435.18946  21589747.289                    21589751.832
      2200.563        1714.947          52.100          40.900
 123777639.582 7  96450138.21644  23554106.180                    23554110.004
      3289.754        2563.452          44.900          28.500
 119462129.992 7  93087422.47345  22732895.063                    22732897.313
     -2547.984       -1985.362          47.800          33.800
 106891879.656 8  83292446.06347  20340854.305                    20340860.500
     -1109.566        -864.422          51.800          45.400
 127407869.259 6  99278915.13043  24244921.375                    24244925.504
       782.281         609.737          37.600          19.300
 120274317.003 8  93720317.88346  22887450.969                    22887458.379
      3444.129        2683.785          48.400          36.400
 111993350.693 8  87267606.59046  21311635.336                    21311642.465
     -1994.582       -1554.018          49.800          41.100
 115075429.596 7  89669183.90345  21898133.289                    21898133.762
       766.898         597.740          47.100          35.700
 18  2 20  8  7 30.0000000  0  8G07G05G23G09G16G30G06G02
 113389066.584 8  88355162.42246  21577226.086                    21577230.211
      2186.008        1703.577          50.900          40.400
 123679009.146 7  96373283.32544  23535337.430                    23535341.051
      3285.699        2560.282          44.800          27.800
 119538656.138 8  93147053.20945  22747457.078                    22747460.230
     -2553.836       -1989.907          48.000          33.000
 106925353.339 8  83318529.45447  20347224.070                    20347230.105
     -1122.090        -874.183          51.700          45.400
 127384697.197 6  99260858.96343  24240512.445                    24240515.813
       762.707         594.476          39.900          21.500
 120171114.505 8  93639900.36346  22867811.984                    22867819.344
      3436.086        2677.563          49.600          36.300
 112053444.158 8  87314432.62746  21323070.422                    21323077.762
     -2011.637       -1567.294          49.100          41.300
 115052696.668 7  89651469.92146  21893807.250                    21893807.582
       748.773         583.659          45.400          36.300
 18  2 20  8  8  0.0000000  0  8G07G05G23G09G16G30G06G02
 113323703.000 8  88304229.77246  21564787.781                    21564792.074
      2171.754        1692.379          51.900          40.600
 123580499.276 7  96296522.37244  23516591.688                    23516595.254
      3281.832        2557.275          45.300          27.900
 119615353.972 7  93206817.73745  22762052.430                    22762054.848
     -2559.211       -1994.199          47.900          33.100
 106959200.399 8  83344903.77547  20353665.227                    20353670.910
     -1134.230        -883.712          52.200          45.100
 127362110.369 6  99243258.79143  24236214.148                    24236217.234
       743.223         579.389          39.600          21.800
 120068151.036 8  93559669.10146  22848219.039                    22848226.094
      3428.309        2671.467          49.000          36.200
 112114046.427 8  87361655.13946  21334603.047                    21334610.184
     -2028.320       -1580.348          49.600          41.400
 115030504.892 7  89634177.63446  21889584.102                    21889585.078
       730.879         569.695          46.400          36.200
 18  2 20  8  8 30.0000000  0  8G07G05G23G09G16G30G06G02
 113258776.956 8  88253638.06846  21552432.813                    21552436.648
      2156.793        1680.823          51.500          40.500
 123482110.472 7  96219855.73944  23497868.914                    23497872.355
      3277.477        2553.982          45.000          27.600
 119692222.470 7  93266715.25345  22776679.531                    22776682.117
     -2565.207       -1998.759          47.800          33.100
 106993419.432 8  83371567.95447  20360176.555                    20360182.629
     -1146.887        -893.502          52.800          45.900
 127340109.799 6  99226115.52143  24232027.414                    24232031.512
       723.258         564.001          36.800          20.600
 119965428.853 8  93479625.86346  22828671.000                    22828678.602
      3419.914        2665.010          48.500          36.900
 112175155.230 8  87409272.35147  21346231.688                    21346239.109
     -2045.496       -1593.646          49.800          42.100
 115008855.211 7  89617307.73245  21885464.375                    21885465.105
       712.496         555.474          46.000          35.400
 18  2 20  8  9  0.0000000  0  8G07G05G23G09G16G30G06G02
 113194286.006 8  88203385.39746  21540160.266                    21540164.609
      2142.477        1669.701          51.700          40.500
 123383840.954 7  96143282.08644  23479169.164                    23479172.684
      3273.637        2551.024          45.000          27.400
 119769255.529 7  93326740.97145  22791338.859                    22791341.391
     -2570.449       -2002.818          46.800          32.700
 107028004.814 8  83398517.60847  20366757.750                    20366764.055
     -1158.910        -902.815          51.900          45.500
 127318692.355 6  99209426.62443  24227951.273                    24227955.402
       704.285         549.026          38.200          20.100
 119862946.089 8  93399769.18446  22809169.398                    22809176.859
      3412.152        2658.947          50.000          37.000
 112236764.104 8  87457279.22946  21357955.148                    21357962.719
     -2061.801       -1606.388          48.700          41.800
 114987743.791 7  89600857.26545  21881446.984                    21881447.785
       694.863         541.677          46.500          35.800
 18  2 20  8  9 30.0000000  0  8G07G05G23G09G16G30G06G02
 113130238.357 8  88153478.14346  21527972.641                    21527976.625
      2127.500        1657.957          50.900          40.200
 123285699.450 7  96066808.17544  23460492.953                    23460497.309
      3269.254        2547.496          45.400          28.100
 119846458.678 7  93386899.24245  22806030.367                    22806032.719
     -2576.375       -2007.451          47.000          32.200
 107062962.146 8  83425757.08347  20373410.211                    20373416.594
     -1171.449        -912.687          50.900          45.300
 127297866.193 6  99193198.45443  24223988.375                    24223992.238
       684.281         533.474          40.400          21.500
 119760711.962 8  93320106.23246  22789714.750                    22789721.836
      3403.602        2652.252          48.000          36.400
 112298877.841 7  87505679.52746  21369774.867                    21369782.340
     -2078.816       -1619.702          47.200          41.400
 114967177.991 7  89584831.95645  21877532.930                    21877534.141
       676.375         527.286          46.800          35.400
 18  2 20  8 10  0.0000000  0  8G07G05G23G09G16G30G06G02
 113066630.363 8  88103913.48146  21515868.086                    21515872.402
      2113.063        1646.742          51.200          39.900
 123187681.069 7  95990430.22745  23441840.813                    23441845.074
      3265.348        2544.482          46.900          30.100
 119923825.294 7  93447184.90045  22820752.891                    22820755.359
     -2581.516       -2011.459          46.700          33.200
 107098284.599 8  83453281.07147  20380132.109                    20380138.043
     -1183.422        -921.933          52.600          45.200
 127277627.051 7  99177427.71543  24220137.648                    24220140.930
       665.016         518.414          42.100          20.900
 119658723.361 8  93240634.60546  22770306.977                    22770313.563
      3395.672        2646.067          48.400          36.600
 112361488.726 8  87554467.21946  21381689.648                    21381696.832
     -2095.215       -1632.375          49.200          41.600
 114947153.172 7  89569228.18845  21873722.617                    21873723.809
       658.594         513.460          47.500          34.900
 18  2 20  8 10 30.0000000  0  8G07G05G23G09G16G30G06G02
 113003464.528 8  88054693.36446  21503848.102                    21503852.254
      2098.219        1635.128          51.500          40.400
 123089788.697 7  95914150.45144  23423212.414                    23423217.023
      3261.105        2541.077          44.900          29.200
 120001355.331 7  93507597.89645  22835506.250                    22835508.758
     -2586.953       -2015.798          47.100          32.600
 107133972.058 8  83481089.47347  20386923.055                    20386929.066
     -1195.559        -931.516          53.700          46.200
 127257977.158 6  99162116.08943  24216398.320                    24216401.223
       645.223         502.998          40.700          19.600
 119556983.839 7  93161357.07046  22750946.602                    22750953.078
      3387.277        2639.435          47.400          36.300
 112424595.736 8  87603641.49746  21393698.766                    21393705.691
     -2111.750       -1645.340          50.000          41.700
 114927671.178 7  89554047.40045  21870015.664                    21870016.301
       640.336         499.209          47.600          35.400
 18  2 20  8 11  0.0000000  0  8G07G05G23G09G16G30G06G02
 112940744.358 8  88005820.51946  21491912.469                    21491917.277
      2083.066        1623.350          50.800          40.400
 122992025.002 7  95837970.95045  23404608.266                    23404612.723
      3256.500        2537.538          44.900          30.700
 120079049.328 7  93568138.65145  22850290.430                    22850293.781
     -2592.680       -2020.211          47.700          32.600
 107170025.062 8  83509182.72347  20393783.695                    20393789.785
     -1207.965        -941.156          51.600          45.700
 127238919.333 6  99147265.88043  24212770.953                    24212774.922
       625.055         487.410          38.900          19.900
 119455497.580 7  93082276.89345  22731634.227                    22731641.750
      3378.586        2632.687          47.800          35.800
 112488198.529 8  87653202.10247  21405801.656                    21405808.609
     -2128.477       -1658.377          48.300          42.100
 114908734.524 7  89539291.55445  21866411.797                    21866412.871
       622.004         484.872          47.500          35.400
 18  2 20  8 11 30.0000000  0  8G07G05G23G09G16G30G06G02
 112878472.099 8  87957296.70546  21480062.766                    21480067.258
      2068.277        1611.771          51.300          40.500
 122894393.427 7  95761894.42344  23386029.742                    23386034.133
      3252.176        2534.187          43.600          29.600
 120156906.709 7  93628806.71345  22865106.141                    22865109.348
     -2597.906       -2024.363          47.600          32.700
 107206442.959 8  83537560.29547  20400713.758                    20400719.641
     -1220.012        -950.537          51.500          45.300
 127220455.204 6  99132878.29543  24209256.914                    24209261.945
       605.723         472.051          40.300          20.400
 119354267.736 7  93003396.51746  22712370.797                    22712378.152
      3370.027        2626.061          47.500          37.000
 112552295.499 8  87703147.76246  21417999.719                    21418006.324
     -2144.730       -1671.096          49.400          41.300
 114890344.368 8  89524961.54945  21862912.484                    21862913.430
       603.859         470.746          48.300          35.700
 18  2 20  8 12  0.0000000  0  8G07G05G23G09G16G30G06G02
 112816647.474 8  87909121.67446  21468297.789                    21468302.188
      2053.355        1600.208          50.500          40.500
 122796893.411 7  95685920.39744  23367475.906                    23367480.105
      3247.813        2530.800          45.600          29.800
 120234924.356 7  93689599.64845  22879952.695                    22879955.613
     -2603.223       -2028.434          47.900          33.100
 107243222.596 8  83566219.73647  20407713.133                    20407718.871
     -1231.949        -959.842          52.500          45.100
 127202583.889 7  99118952.65543  24205856.828                    24205859.836
       585.785         456.756          42.000          20.400
 119253294.736 8  92924716.27146  22693157.008                    22693163.527
      3361.465        2619.433          49.200          37.200
 112616882.647 8  87753475.38947  21430290.047                    21430296.461
     -2161.047       -1683.724          50.800          42.000
 114872499.685 8  89511056.59445  21859516.867                    21859517.551
       585.840         456.649          48.000          35.900
 18  2 20  8 12 30.0000000  0  8G07G05G23G09G16G30G06G02
 112755270.595 8  87861295.53346  21456617.813                    21456622.809
      2038.453        1588.614          51.000          40.300
 122699524.917 7  95610048.85945  23348947.664                    23348952.246
      3243.441        2527.418          45.900          31.000
 120313099.779 7  93750515.52845  22894829.258                    22894831.691
     -2608.516       -2032.476          47.300          31.900
 107280361.298 8  83595158.98447  20414779.977                    20414785.555
     -1243.910        -969.110          52.700          45.500
 127185305.336 7  99105488.79243  24202569.508                    24202572.055
       566.078         441.404          43.200          22.000
 119152579.617 8  92846236.98446  22673991.242                    22673998.031
      3352.875        2612.749          48.600          36.900
 112681956.298 8  87804182.10246  21442673.133                    21442679.438
     -2177.258       -1696.286          49.800          41.700
 114855199.723 8  89497576.09346  21856224.633                    21856225.527
       567.590         442.536          49.000          36.600
 18  2 20  8 13  0.0000000  0  8G07G05G23G09G16G30G06G02
 112694343.625 8  87813819.99446  21445024.063                    21445028.660
      2023.324        1576.827          50.700          40.300
 122602289.971 7  95534281.36845  23330444.531                    23330448.957
      3238.809        2523.853          46.200          31.200
 120391432.437 7  93811553.93745  22909735.719                    22909738.230
     -2613.699       -2036.600          47.200          32.300
 107317858.597 8  83624377.65247  20421915.477                    20421921.145
     -1255.906        -978.484          52.900          44.700
 127168621.075 7  99092488.04943  24199395.438                    24199397.301
       546.168         425.886          42.500          20.900
 119052125.566 8  92767961.12046  22654875.516                    22654882.742
      3344.023        2605.862          49.000          37.000
 112747515.075 8  87855266.84046  21455148.242                    21455155.059
     -2193.453       -1708.936          51.400          41.400
 114838445.798 8  89484521.07046  21853036.688                    21853036.996
       549.313         428.284          48.200          36.700
 18  2 20  8 13 30.0000000  0  8G07G05G23G09G16G30G06G02
 112633868.862 8  87766696.83046  21433516.438                    21433520.551
      2008.254        1565.078          51.100          40.600
 122505191.207 7  95458620.01245  23311967.508                    23311971.727
      3234.379        2520.317          47.100          31.100
 120469921.680 7  93872714.34745  22924671.813                    22924674.422
     -2618.824       -2040.628          46.900          32.500
 107355713.820 8  83653875.22447  20429118.945                    20429124.629
     -1267.801        -987.729          53.000          45.200
 127152532.851 6  99079951.75643  24196333.398                    24196335.000
       526.324         410.381          40.500          19.900
 118951935.572 8  92689891.00546  22635810.203                    22635816.992
      3335.277        2599.013          48.800          37.800
 112813557.337 8  87906728.32746  21467715.555                    21467722.375
     -2209.410       -1721.432          50.000          41.000
 114822239.229 8  89471892.57046  21849952.727                    21849953.176
       531.125         414.090          48.800          36.900
 18  2 20  8 14  0.0000000  0  8G07G05G23G09G16G30G06G02
 112573848.279 8  87719927.55446  21422094.539                    21422099.121
      1993.059        1553.210          51.500          40.900
 122408229.900 7  95383065.72545  23293516.164                    23293520.512
      3229.695        2516.672          47.000          30.900
 120548566.861 7  93933996.28845  22939637.180                    22939640.184
     -2624.187       -2044.740          47.300          33.000
 107393926.099 8  83683651.01547  20436390.852                    20436396.359
     -1279.809        -997.072          53.000          45.300
 127137041.931 6  99067880.93843  24193384.945                    24193387.402
       506.328         394.790          37.900          19.900
 118852012.466 7  92612028.85346  22616795.141                    22616802.270
      3326.180        2591.979          47.900          37.500
 112880081.210 8  87958565.06746  21480374.992                    21480381.906
     -2225.574       -1733.985          50.700          41.100
 114806580.814 8  89459691.19746  21846973.164                    21846973.434
       512.734         399.766          49.100          37.400
 18  2 20  8 14 30.0000000  0  8G07G05G23G09G16G30G06G02
 112514284.708 8  87673514.40146  21410760.008                    21410764.566
      1977.777        1541.334          51.300          41.300
 122311409.192 7  95307621.02645  23275092.273                    23275095.922
      3224.887        2512.996          46.300          31.400
 120627367.990 7  93995399.74045  22954632.828                    22954635.078
     -2629.312       -2048.737          47.300          32.800
 107432495.363 8  83713704.98047  20443730.258                    20443735.805
     -1291.605       -1006.289          51.900          45.300
 127122150.593 6  99056277.32343  24190549.563                    24190553.699
       486.145         379.244          37.400          18.600
 118752359.844 8  92534377.48546  22597831.750                    22597839.207
      3317.152        2584.938          48.600          37.800
 112947085.606 8  88010776.23646  21493124.977                    21493132.367
     -2241.543       -1746.405          48.800          41.100
 114791472.681 8  89447918.61446  21844098.102                    21844098.965
       494.438         385.490          48.900          37.700
 18  2 20  8 15  0.0000000  0  8G07G05G23G09G16G30G06G02
 112455177.769 8  87627457.06546  21399512.313                    21399516.672
      1962.477        1529.488          51.300          40.900
 122214729.867 7  95232286.49045  23256693.797                    23256698.402
      3220.133        2509.350          44.900          31.600
 120706322.146 7  94056922.43245  22969657.797                    22969659.633
     -2634.434       -2052.668          47.300          32.600
 107471418.725 8  83744034.86347  20451137.125                    20451142.621
     -1303.383       -1015.453          53.100          45.600
 127107857.963 6  99045140.28643  24187830.719                    24187834.641
       466.238         363.714          39.400          20.100
 118652978.473 7  92456937.45746  22578919.875                    22578927.117
      3308.102        2577.902          47.000          37.500
 113014566.717 8  88063358.87746  21505966.352                    21505973.898
     -2257.484       -1758.742          48.800          41.200
 114776913.047 8  89436573.44846  21841327.688                    21841328.125
       476.059         371.259          48.400          37.400
 18  2 20  8 15 30.0000000  0  8G07G05G23G09G16G30G06G02
 112396526.038 8  87581754.43346  21388351.406                    21388355.863
      1947.648        1517.797          52.000          41.600
 122118189.332 7  95157060.11045  23238323.172                    23238327.188
      3215.898        2505.874          43.600          31.000
 120785425.015 7  94118560.99945  22984710.461                    22984712.367
     -2639.027       -2056.376          46.300          33.000
 107510691.875 8  83774637.31247  20458610.484                    20458616.359
     -1314.664       -1024.357          52.700          45.000
 127094162.040 6  99034468.08343  24185224.711                    24185228.469
       446.699         348.326          40.800          21.100
 118553867.694 7  92379708.28046  22560059.500                    22560067.234
      3299.344        2570.985          45.100          37.100
 113082519.096 7  88116308.72746  21518897.891                    21518904.461
     -2272.672       -1770.792          47.800          41.100
 114762899.731 8  89425653.97346  21838660.852                    21838661.449
       458.238         357.215          48.000          37.400
 18  2 20  8 16  0.0000000  0  8G07G05G23G09G16G30G06G02
 112338330.850 8  87536407.54746  21377277.453                    21377281.656
      1932.035        1505.744          51.200          40.500
 122021790.232 7  95081943.91845  23219978.758                    23219983.121
      3210.777        2502.011          47.200          30.500
 120864675.857 7  94180314.88645  22999791.008                    22999793.922
     -2644.230       -2060.367          46.200          32.100
 107550313.667 8  83805511.41447  20466150.445                    20466156.117
     -1326.617       -1033.559          52.500          45.200
 127081063.770 6  99024261.61543  24182732.148                    24182735.691
       426.488         332.662          40.400          20.400
 118455030.034 7  92302691.93346  22541251.836                    22541259.113
      3289.902        2563.693          47.300          37.200
 113150940.667 8  88169624.19746  21531917.797                    21531925.031
     -2288.676       -1783.108          48.800          40.600
 114749433.696 8  89415160.95346  21836098.586                    21836099.148
       439.590         342.826          48.800          37.500
 18  2 20  8 16 30.0000000  0  8G07G05G23G09G16G30G06G02
 112280601.851 8  87491423.91846  21366291.766                    21366296.082
      1916.426        1493.516          51.000          40.900
 121925542.119 7  95006945.37845  23201663.703                    23201667.809
      3205.660        2497.968          46.400          31.100
 120944081.332 7  94242189.25445  23014901.125                    23014904.086
     -2649.539       -2064.499          46.300          32.800
 107590290.890 8  83836662.49147  20473757.609                    20473763.781
     -1338.516       -1042.887          53.200          45.400
 127068571.964 6  99014527.70243  24180356.445                    24180358.574
       406.250         316.783          41.200          21.100
 118356475.955 7  92225896.56046  22522497.219                    22522504.418
      3280.309        2556.198          46.300          37.300
 113219837.145 8  88223309.73746  21545028.133                    21545035.316
     -2304.480       -1795.520          49.100          41.000
 114736522.973 7  89405100.63946  21833641.828                    21833642.414
       421.020         328.298          47.900          37.700
 18  2 20  8 17  0.0000000  0  8G07G05G23G09G16G30G06G02
 112223337.093 8  87446802.03546  21355394.352                    21355398.691
      1901.137        1481.564          51.600          41.400
 121829442.470 7  94932062.53444  23183376.602                    23183380.305
      3200.961        2494.225          46.500          29.900
 121023637.325 7  94304180.90645  23030040.383                    23030042.770
     -2654.336       -2068.254          47.100          32.400
 107630619.012 8  83868086.99847  20481431.883                    20481437.832
     -1350.031       -1051.864          53.400          45.400
 127056684.462 6  99005264.66143  24178093.383                    24178096.109
       386.301         301.194          40.100          20.400
 118258204.584 7  92149321.48546  22503796.922                    22503804.336
      3270.992        2548.935          46.800          37.100
 113289202.981 8  88277361.01446  21558228.500                    21558235.141
     -2319.941       -1807.567          50.800          40.900
 114724165.102 8  89395471.12746  21831290.016                    21831291.098
       402.750         314.036          48.100          37.600
 18  2 20  8 17 30.0000000  0  8G07G05G23G09G16G30G06G02
 112166536.400 8  87402541.76946  21344585.742                    21344590.199
      1885.547        1469.554          50.800          40.800
 121733491.910 7  94857295.85345  23165117.664                    23165122.012
      3195.734        2490.380          45.600          31.300
 121103340.851 7  94366287.52745  23045206.859                    23045210.004
     -2659.234       -2072.006          46.200          32.700
 107671294.940 8  83899782.51247  20489172.383                    20489178.027
     -1361.703       -1060.820          52.800          45.600
 127045399.858 6  98996471.47443  24175945.656                    24175948.977
       365.953         285.569          38.000          19.300
 118160216.393 7  92072967.06146  22485150.211                    22485157.551
      3261.457        2541.628          45.600          37.600
 113359033.933 8  88331774.72246  21571516.852                    21571523.438
     -2335.480       -1819.563          49.300          41.500
 114712358.824 7  89386271.43046  21829043.008                    21829044.219
       384.332         299.790          47.800          37.500
 18  2 20  8 18  0.0000000  0  8G07G05G23G09G16G30G06G02
 112110199.091 8  87358642.60046  21333865.242                    21333869.816
      1870.070        1457.433          52.000          41.100
 121637690.150 7  94782645.12945  23146887.320                    23146891.703
      3190.742        2486.427          46.900          30.800
 121183188.087 7  94428506.10845  23060402.320                    23060404.098
     -2664.082       -2075.791          45.500          31.700
 107712315.154 8  83931746.30647  20496978.117                    20496984.285
     -1373.082       -1069.806          53.000          45.000
 127034716.813 6  98988147.02343  24173912.930                    24173917.047
       345.980         269.888          38.300          21.100
 118062511.692 7  91996833.53446  22466557.180                    22466565.219
      3251.906        2534.155          47.800          37.200
 113429325.427 8  88386547.28646  21584892.961                    21584899.996
     -2350.797       -1831.560          50.400          41.300
 114701101.953 7  89377499.83546  21826901.266                    21826902.527
       365.930         285.429          46.800          37.600
 18  2 20  8 18 30.0000000  0  8G07G05G23G09G16G30G06G02
 112054333.797 8  87315111.22246  21323234.453                    21323238.582
      1854.273        1445.110          52.000          41.100
 121542046.079 7  94708117.28745  23128686.695                    23128690.715
      3185.527        2482.274          47.200          30.900
 121263185.596 7  94490841.80645  23075624.813                    23075627.438
     -2669.066       -2079.729          45.200          30.800
 107753685.969 8  83963983.29647  20504851.016                    20504856.996
     -1384.859       -1078.969          51.600          45.100
 127024643.557 6  98980297.75243  24171995.055                    24171999.594
       325.504         253.978          38.500          20.600
 117965100.269 8  91920928.54046  22448021.242                    22448028.461
      3242.160        2526.463          48.400          38.600
 113500082.678 8  88441682.79046  21598357.523                    21598364.344
     -2366.270       -1843.674          50.200          40.500
 114690402.839 7  89369162.86346  21824865.203                    21824866.285
       347.324         270.893          47.100          37.500
 18  2 20  8 19  0.0000000  0  8G07G05G23G09G16G30G06G02
 111998939.879 8  87271947.15846  21312693.273                    21312697.719
      1838.590        1432.824          52.100          40.900
 121446559.340 7  94633712.03145  23110516.180                    23110520.340
      3180.258        2478.139          47.300          30.200
 121343330.310 7  94553292.20545  23090875.719                    23090878.320
     -2673.988       -2083.574          46.300          31.700
 107795403.958 8  83996490.80447  20512789.609                    20512795.652
     -1396.363       -1087.963          53.000          45.500
 127015178.700 6  98972922.55343  24170194.883                    24170199.070
       305.379         238.148          38.900          21.100
 117867982.399 8  91845252.28446  22429540.125                    22429547.168
      3232.324        2518.797          48.400          37.500
 113571301.128 8  88497177.65946  21611910.117                    21611916.645
     -2381.559       -1855.641          51.300          41.100
 114680259.279 7  89361258.78746  21822935.125                    21822935.715
       328.980         256.459          47.200          38.300
 18  2 20  8 19 30.0000000  0  8G07G05G23G09G16G30G06G02
 111944015.366 8  87229148.84646  21302241.352                    21302245.488
      1823.133        1420.828          52.100          41.500
 121351227.638 7  94559427.60145  23092375.266                    23092379.367
      3175.246        2474.295          46.600          30.500
 121423617.524 7  94615853.64045  23106153.742                    23106156.191
     -2678.395       -2087.037          45.700          31.200
 107837464.397 8  84029265.16747  20520793.141                    20520800.090
     -1407.609       -1096.664          53.500          45.100
 127006319.683 6  98966019.38943  24168508.570                    24168513.699
       285.379         222.607          40.100          21.300
 117771157.003 7  91769803.94346  22411115.516                    22411122.043
      3222.785        2511.384          47.400          38.400
 113642974.995 8  88553027.40546  21625549.492                    21625556.227
     -2396.586       -1867.232          50.200          41.100
 114670668.367 7  89353785.35346  21821109.664                    21821110.602
       310.629         242.305          46.800          37.500
 18  2 20  8 20  0.0000000  0  8G07G05G23G09G16G30G06G02
 111889561.452 8  87186717.23546  21291879.469                    21291883.691
      1807.285        1408.438          53.200          41.800
 121256052.146 7  94485264.88445  23074264.609                    23074268.250
      3169.750        2470.085          45.900          31.100
 121504046.166 7  94678525.28645  23121458.898                    23121461.402
     -2683.355       -2090.855          44.900          31.200
 107879865.835 8  84062305.24947  20528861.844                    20528868.398
     -1419.145       -1105.643          51.500          45.200
 126998066.714 5  98959588.49043  24166938.766                    24166943.453
       264.699         206.764          34.800          20.400
 117674626.261 8  91694585.20646  22392746.234                    22392752.785
      3212.699        2503.548          48.100          38.600
 113715101.646 8  88609229.96446  21639274.492                    21639281.047
     -2411.879       -1879.129          48.700          40.200
 114661630.538 7  89346742.88246  21819389.977                    21819391.102
       291.930         227.771          46.900          37.600
 18  2 20  8 20 30.0000000  0  8G07G05G23G09G16G30G06G02
 111835581.419 8  87144654.89746  21281607.563                    21281611.344
      1791.508        1396.122          52.500          41.600
 121161037.147 7  94411227.22145  23056182.789                    23056187.168
      3164.547        2465.902          46.300          31.400
 121584617.106 7  94741307.78945  23136790.977                    23136793.188
     -2688.000       -2094.528          44.500          30.400
 107922609.180 8  84095611.73247  20536995.867                    20537001.941
     -1430.449       -1114.493          53.600          45.600
 126990422.642 6  98953632.07343  24165484.523                    24165488.465
       244.535         190.897          38.100          19.900
 117578394.694 8  91619599.58946  22374433.891                    22374440.656
      3202.711        2495.747          48.200          39.300
 113787680.831 8  88665785.14046  21653086.063                    21653092.457
     -2426.914       -1890.851          49.700          39.700
 114653148.034 7  89340133.13646  21817776.203                    21817776.828
       273.535         213.357          46.800          37.600
 18  2 20  8 21  0.0000000  0  8G07G05G23G09G16G30G06G02
 111782077.620 8  87102963.63846  21271426.055                    21271430.281
      1775.629        1383.806          52.100          41.600
 121066186.285 7  94337317.46345  23038133.563                    23038137.230
      3159.129        2461.678          45.900          31.500
 121665330.020 7  94804200.93345  23152150.195                    23152152.258
     -2692.695       -2098.126          44.700          30.900
 107965694.043 8  84129184.35147  20545194.406                    20545200.992
     -1441.645       -1123.277          52.900          44.900
 126983389.155 6  98948151.44943  24164145.086                    24164149.273
       224.516         175.099          38.100          19.900
 117482465.545 8  91544849.62346  22356179.156                    22356185.852
      3192.738        2487.937          49.100          39.900
 113860711.015 8  88722691.76446  21666982.992                    21666989.641
     -2441.742       -1902.436          49.500          39.600
 114645222.028 7  89333957.02146  21816267.508                    21816268.586
       255.055         198.983          47.000          37.900
 18  2 20  8 21 30.0000000  0  8G07G05G23G09G16G30G06G02
 111729048.444 8  87061642.21046  21261335.023                    21261339.281
      1759.664        1371.348          52.300          41.400
 120971497.870 7  94263534.29145  23020115.164                    23020119.090
      3153.539        2457.345          44.400          31.800
 121746180.874 7  94867201.58944  23167534.891                    23167537.762
     -2697.250       -2101.789          44.300          29.600
 108009116.329 8  84163019.89347  20553457.758                    20553463.852
     -1452.910       -1132.092          52.800          45.400
 126976963.938 6  98943144.79043  24162922.977                    24162926.211
       204.039         159.199          40.000          19.600
 117386838.352 8  91470334.95246  22337981.602                    22337988.762
      3182.543        2479.979          48.700          39.600
 113934186.930 8  88779945.70646  21680964.641                    21680971.570
     -2456.656       -1914.091          49.800          40.400
 114637850.053 7  89328212.62646  21814864.805                    21814865.426
       236.543         184.479          47.500          38.100
 18  2 20  8 22  0.0000000  0  8G07G05G23G09G16G30G06G02
 111676497.993 8  87020693.83246  21251335.000                    21251338.371
      1743.691        1358.898          52.300          41.000
 120876976.205 7  94189881.04345  23002128.047                    23002132.332
      3147.926        2452.959          44.000          31.200
 121827171.481 7  94930311.09644  23182947.750                    23182950.152
     -2702.016       -2105.436          44.100          29.300
 108052877.474 8  84197119.46847  20561785.484                    20561791.199
     -1464.312       -1140.928          52.500          45.100
 126971150.315 6  98938614.66543  24161816.180                    24161820.738
       183.621         143.297          39.200          20.400
 117291518.157 8  91396059.49546  22319842.563                    22319849.840
      3172.090        2471.936          48.500          40.500
 114008108.819 8  88837547.15746  21695032.016                    21695039.141
     -2471.520       -1925.669          49.100          40.700
 114631035.033 8  89322902.21546  21813568.016                    21813568.570
       217.926         169.981          48.500          37.700
 18  2 20  8 22 30.0000000  0  8G07G05G23G09G16G30G06G02
 111624428.901 8  86980120.53246  21241426.289                    21241430.156
      1727.730        1346.473          52.400          41.100
 120782623.670 7  94116359.59945  22984173.547                    22984177.762
      3142.383        2448.659          44.700          31.200
 121908302.201 7  94993529.80944  23198386.578                    23198388.609
     -2706.633       -2108.953          43.400          29.100
 108096977.702 8  84231483.27747  20570177.250                    20570183.465
     -1475.469       -1149.608          53.200          45.300
 126965949.960 6  98934562.47943  24160827.047                    24160830.563
       163.180         127.449          37.800          19.000
 117196508.752 8  91322026.21546  22301762.953                    22301770.438
      3162.012        2463.961          49.000          40.200
 114082475.680 8  88895495.34146  21709183.703                    21709190.367
     -2486.195       -1937.089          49.700          40.900
 114624778.538 8  89318027.00846  21812377.656                    21812377.766
       199.383         155.579          48.000          37.900
 18  2 20  8 23  0.0000000  0  8G07G05G23G09G16G30G06G02
 111572840.142 8  86939921.52146  21231609.047                    21231613.359
      1711.680        1333.954          51.900          40.900
 120688440.124 7  94042969.82845  22966250.969                    22966255.531
      3136.660        2444.199          46.000          31.500
 121989569.697 7  95056855.08444  23213851.344                    23213853.148
     -2711.016       -2112.509          43.800          28.800
 108141413.361 8  84266108.45347  20578633.016                    20578639.160
     -1486.711       -1158.340          53.800          45.500
 126961361.525 6  98930987.09443  24159953.781                    24159957.434
       143.027         111.535          39.400          20.100
 117101810.169 8  91248235.14546  22283742.641                    22283750.004
      3151.527        2455.802          49.600          39.900
 114157282.670 8  88953786.47946  21723418.836                    21723425.934
     -2500.734       -1948.514          48.400          41.500
 114619078.705 8  89313585.56546  21811293.094                    21811293.055
       180.789         141.087          48.500          37.600
 18  2 20  8 23 30.0000000  0  8G07G05G23G09G16G30G06G02
 111521732.294 8  86900097.24246  21221883.680                    21221887.473
      1695.469        1321.438          52.300          40.400
 120594427.580 7  93969713.31145  22948360.906                    22948365.125
      3130.824        2439.749          46.100          30.900
 122070972.136 7  95120285.52344  23229341.172                    23229343.332
     -2715.785       -2116.024          43.900          28.400
 108186182.518 8  84300993.49047  20587152.719                    20587158.168
     -1497.980       -1166.998          53.500          45.500
 126957384.369 6  98927888.00043  24159197.094                    24159200.512
       122.289          95.668          39.500          20.900
 117007424.031 8  91174687.53446  22265781.070                    22265788.957
      3140.914        2447.655          49.200          39.600
 114232526.700 8  89012418.15446  21737738.023                    21737744.738
     -2515.496       -1959.841          50.300          41.800
 114613934.933 7  89309577.42746  21810313.852                    21810314.367
       162.059         126.636          47.700          38.000
 18  2 20  8 24  0.0000000  0  8G07G05G23G09G16G30G06G02
 111471108.332 8  86860650.00946  21212250.000                    21212253.887
      1679.512        1308.884          52.100          40.800
