     2.11           OBSERVATION DATA    G (GPS)             RINEX VERSION / TYPE
teqc  2016Nov7                          20180328 12:23:34UTCPGM / RUN BY / DATE
Linux 2.4.21-27.ELsmp|Opteron|gcc|Linux x86_64|=+           COMMENT
teqc  2016Nov7                          20180328 12:23:33UTCCOMMENT
     2.11           OBSERVATION DATA    M (MIXED)           COMMENT
teqc  2016Nov7                          20180328 12:23:32UTCCOMMENT
teqc  2016Nov7      IGN-RGP             20180220 09:16:08UTCCOMMENT
teqc  2015Jun23     IGN-RGP             20180220 09:07:43UTCCOMMENT
Linux2.4.20-8|i386|gcc|Win32-MinGW32|=                      COMMENT
   0.000      (antenna height)                              COMMENT
 +49.65372884 (latitude)                                    COMMENT
  +1.21568009 (longitude)                                   COMMENT
0219.400      (elevation)                                   COMMENT
BIT 2 OF LLI FLAGS DATA COLLECTED UNDER A/S CONDITION       COMMENT
19691M001 (COGO code)                                       COMMENT
SXJ6                                                        MARKER NAME
19691M001                                                   MARKER NUMBER
Automatic           GIE COOP&TECH                           OBSERVER / AGENCY
5133K77888          TRIMBLE NETR5       4.42                REC # / TYPE / VERS
1441127519          TRM57971.00     NONE                    ANT # / TYPE
  4136503.5040    87779.9330  4838110.7610                  APPROX POSITION XYZ
        0.5000        0.0000        0.0000                  ANTENNA: DELTA H/E/N
     1     1                                                WAVELENGTH FACT L1/2
     9    L1    L2    C1    S1    S2    P1    P2    D1    D2# / TYPES OF OBSERV
    30.0000                                                 INTERVAL
    18                                                      LEAP SECONDS
 SNR is mapped to RINEX snr flag value [0-9]                COMMENT
  L1 & L2: min(max(int(snr_dBHz/6), 0), 9)                  COMMENT
teqc_2016 edited: GLONASS # 25 - 30 excluded                COMMENT
Forced Modulo Decimation to 30 seconds                      COMMENT
teqc_2016 edited: all GLONASS satellites excluded           COMMENT
teqc_2016 edited: all SBAS satellites excluded              COMMENT
teqc_2016 edited: all Galileo satellites excluded           COMMENT
  2018     2    20     8     0    0.0000000     GPS         TIME OF FIRST OBS
                                                            END OF HEADER
 18  2 20  8  0  0.0000000  0  8G02G05G23G07G16G09G06G30
 114865907.143 7  89505869.91846  21858248.445          45.800          37.600
                  21858249.871         933.461
 124428566.275 7  96957365.08744  23677981.719          45.300          28.500
                  23677984.617        3282.414
 118386104.731 7  92248945.66845  22528127.617          47.300          34.500
                  22528129.523       -2540.867
 114509066.230 8  89227877.01446  21790354.695          51.400          39.000
                  21790358.441        2383.879
 127726643.371 6  99527317.58543  24305583.625          37.200          19.000
                  24305586.938        1069.590
 106287163.174 8  82821241.37547  20225782.211          51.700          46.000
                  20225787.445       -1006.152
 110965929.129 8  86466919.39946  21116101.695          49.400          41.500
                  21116107.727       -1842.703
 121815352.605 7  94921109.16645  23180696.078          45.500          31.600
                  23180702.871        3516.758
 18  2 20  8  0 30.0000000  0  8G02G05G23G07G16G09G06G30
 114838166.495 7  89484253.81946  21852970.164          45.200          37.600
                  21852970.813         915.984         713.915
 124330145.651 7  96880673.70244  23659252.766          44.300          27.600
                  23659255.488        3278.809        2555.053
 118462424.778 7  92308415.79945  22542651.047          47.000          35.000
                  22542653.152       -2547.148       -1984.717
 114437752.510 8  89172307.90646  21776784.414          50.000          38.600
                  21776787.836        2370.375        1847.228
 127694832.350 6  99502529.76443  24299529.695          36.200          19.600
                  24299532.566        1051.063         819.212
 106317545.784 8  82844916.13047  20231563.984          52.200          45.600
                  20231569.086       -1019.285        -794.114
 111021473.672 8  86510200.85046  21126671.406          49.700          41.100
                  21126678.258       -1860.293       -1449.371
 121709948.617 7  94838976.21245  23160638.844          44.300          30.900
                  23160645.316        3510.121        2735.299
 18  2 20  8  1  0.0000000  0  8G02G05G23G07G16G09G06G30
 114810953.642 7  89463048.98646  21847791.156          46.400          37.700
                  21847792.336         898.289         700.196
 124231831.322 7  96804065.11144  23640544.469          43.600          28.500
                  23640547.344        3275.371        2552.282
 118538934.833 7  92368034.00445  22557209.813          47.100          35.300
                  22557211.656       -2553.437       -1989.656
 114366844.697 8  89117055.07246  21763290.859          50.300          38.100
                  21763293.512        2356.844        1836.644
 127663580.899 6  99478178.05643  24293583.320          37.300          19.000
                  24293586.883        1032.344         804.673
 106348323.924 8  82868899.08647  20237420.969          52.400          45.700
                  20237426.164       -1032.512        -804.382
 111077547.891 8  86553895.03146  21137341.578          48.700          40.900
                  21137348.527       -1877.930       -1463.109
 121604741.874 7  94756996.95345  23140618.406          45.700          30.600
                  23140624.691        3503.570        2730.141
 18  2 20  8  1 30.0000000  0  8G02G05G23G07G16G09G06G30
 114784269.878 7  89442256.43246  21842713.492          45.700          38.200
                  21842714.254         880.578         686.434
 124133624.606 7  96727540.38144  23621856.047          44.700          28.700
                  23621859.270        3271.641        2549.438
 118615633.695 7  92427799.33045  22571805.742          47.900          35.300
                  22571807.266       -2559.887       -1994.561
 114296345.194 8  89062120.39646  21749875.031          51.000          38.100
                  21749878.965        2342.988        1825.998
 127632891.177 5  99454263.95743  24287742.898          35.800          19.000
                  24287745.926        1013.508         790.016
 106379496.553 8  82893189.44447  20243352.758          52.300          45.300
                  20243357.898       -1045.727        -814.638
 111134150.122 8  86598000.66146  21148112.930          48.700          41.200
                  21148119.512       -1895.672       -1476.827
 121499735.065 7  94675173.48945  23120636.133          45.500          31.400
                  23120642.852        3496.738        2724.900
 18  2 20  8  2  0.0000000  0  8G02G05G23G07G16G09G06G30
 114758115.685 7  89421876.53546  21837736.727          45.800          38.300
                  21837737.723         862.871         672.643
 124035527.047 7  96651100.72244  23603188.742          45.000          29.000
                  23603191.738        3267.949        2546.577
 118692519.980 7  92487710.69945  22586436.219          47.600          34.900
                  22586437.941       -2565.984       -1999.392
 114226255.435 8  89007505.03846  21736537.492          50.700          37.700
                  21736541.445        2329.453        1815.341
 127602764.806 6  99430788.87343  24282010.203          38.600          18.600
                  24282012.605         994.773         775.395
 106411062.301 8  82917786.12147  20249359.320          52.300          45.600
                  20249364.660       -1058.875        -824.831
 111191278.369 8  86642516.17746  21158983.727          48.900          41.800
                  21158990.391       -1913.137       -1490.451
 121394930.572 7  94593507.67245  23100693.047          45.700          30.300
                  23100698.652        3490.070        2719.617
 18  2 20  8  2 30.0000000  0  8G02G05G23G07G16G09G06G30
 114732492.268 7  89401910.23046  21832861.078          46.400          38.000
                  21832861.730         845.301         658.855
 123937540.716 7  96574747.74244  23584542.563          45.100          28.800
                  23584545.840        3264.371        2543.673
 118769592.088 7  92547766.85945  22601103.305          47.200          34.900
                  22601104.691       -2572.195       -2004.219
 114156577.301 8  88953210.38146  21723278.563          52.100          37.500
                  21723280.863        2315.680        1804.618
 127573203.129 6  99407753.83943  24276384.117          37.400          19.000
                  24276386.898         975.875         760.672
 106443019.693 8  82942687.98247  20255440.828          51.200          45.800
                  20255445.637       -1071.762        -834.989
 111248930.586 7  86687439.98246  21169954.539          47.600          41.400
                  21169961.359       -1930.402       -1504.049
 121290330.630 7  94512001.23145  23080787.055          45.200          30.200
                  23080793.371        3483.262        2714.265
 18  2 20  8  3  0.0000000  0  8G02G05G23G07G16G09G06G30
 114707401.160 7  89382358.70446  21828086.023          46.600          38.400
                  21828087.289         827.512         645.042
 123839667.054 7  96498482.54544  23565917.375          45.200          28.600
                  23565921.367        3260.543        2540.740
 118846849.131 8  92607967.14045  22615804.391          48.700          34.900
                  22615805.758       -2578.344       -2008.983
 114087313.074 8  88899238.26346  21710097.813          50.200          38.100
                  21710100.895        2302.016        1793.869
 127544208.073 6  99385160.27443  24270867.469          38.000          19.300
                  24270869.867         956.918         746.015
 106475367.862 8  82967894.33947  20261596.547          51.300          45.000
                  20261601.895       -1084.742        -845.097
 111307105.234 8  86732770.87247  21181025.305          49.100          42.200
                  21181031.457       -1947.875       -1517.585
 121185938.210 7  94430656.51645  23060922.383          45.400          30.900
                  23060928.965        3476.254        2708.857
 18  2 20  8  3 30.0000000  0  8G02G05G23G07G16G09G06G30
 114682842.992 7  89363222.45646  21823413.164          47.200          38.100
                  21823413.910         809.648         631.182
 123741907.618 7  96422306.36645  23547314.367          44.800          30.100
                  23547318.297        3256.648        2537.765
 118924289.962 7  92668310.61245  22630541.328          47.900          34.700
                  22630542.762       -2584.426       -2013.726
 114018464.626 8  88845590.15246  21696996.023          50.300          38.500
                  21697000.156        2287.930        1783.026
 127515781.121 6  99363009.49043  24265457.773          37.100          18.600
                  24265461.078         937.930         731.242
 106508105.735 8  82993404.36647  20267826.383          51.300          45.000
                  20267831.543       -1097.773        -855.217
 111365800.573 8  86778507.48847  21192194.375          49.100          42.200
                  21192201.152       -1965.187       -1531.072
 121081755.792 7  94349475.46045  23041096.813          44.300          30.900
                  23041103.281        3469.203        2703.380
 18  2 20  8  4  0.0000000  0  8G02G05G23G07G16G09G06G30
 114658818.725 7  89344502.24246  21818841.359          47.600          38.300
                  21818842.250         791.906         617.303
 123644263.146 7  96346219.77044  23528733.625          45.900          29.700
                  23528737.051        3252.902        2534.755
 119001912.968 7  92728796.05645  22645312.195          47.900          34.300
                  22645313.500       -2590.430       -2018.443
 113950033.628 8  88792267.30546  21683974.445          51.100          37.500
                  21683977.375        2274.063        1772.199
 127487923.629 6  99341302.34843  24260156.133          39.200          19.000
                  24260159.094         919.141         716.460
 106541231.908 8  83019216.96147  20274130.266          51.200          45.000
                  20274135.316       -1110.648        -865.268
 111425014.559 8  86824648.24746  21203462.750          49.100          41.700
                  21203469.145       -1982.430       -1544.506
 120977785.873 7  94268459.93645  23021311.633          45.100          31.000
                  23021319.125        3462.133        2697.837
 18  2 20  8  4 30.0000000  0  8G02G05G23G07G16G09G06G30
 114635329.629 7  89326199.04446  21814371.133          47.300          38.200
                  21814372.059         774.152         603.411
 123546735.663 7  96270224.33744  23510174.523          45.500          29.700
                  23510177.715        3248.945        2531.687
 119079717.288 8  92789422.78045  22660118.094          48.100          34.100
                  22660119.117       -2596.406       -2023.134
 113882022.352 8  88739271.52046  21671032.391          51.100          38.900
                  21671035.605        2260.090        1761.245
 127460637.859 6  99320040.76643  24254964.102          37.800          19.900
                  24254967.234         900.039         701.516
 106574745.467 8  83045331.42147  20280507.172          51.900          45.100
                  20280512.758       -1123.445        -875.321
 111484745.538 8  86871191.86347  21214829.188          49.200          42.200
                  21214835.469       -1999.527       -1557.905
 120874031.180 7  94187612.17345  23001568.250          45.700          31.600
                  23001574.566        3454.910        2692.217
 18  2 20  8  5  0.0000000  0  8G02G05G23G07G16G09G06G30
 114612376.662 8  89308313.60546  21810003.805          48.400          38.100
                  21810004.441         756.199         589.452
 123449326.959 7  96194321.44645  23491638.492          45.800          30.500
                  23491641.852        3244.883        2528.596
 119157701.244 8  92850189.47545  22674957.820          48.400          33.500
                  22674959.441       -2602.340       -2027.785
 113814432.401 8  88686604.03946  21658170.328          52.100          39.100
                  21658173.828        2245.984        1750.287
 127433925.019 6  99299225.54243  24249880.852          38.300          20.600
                  24249883.414         881.102         686.663
 106608644.984 8  83071746.63147  20286957.867          51.100          45.200
                  20286963.336       -1136.387        -885.333
 111544991.448 7  86918136.72246  21226293.320          47.500          41.900
                  21226300.082       -2016.699       -1571.262
 120770494.107 7  94106933.90445  22981866.148          44.700          31.400
                  22981872.223        3447.617        2686.541
 18  2 20  8  5 30.0000000  0  8G02G05G23G07G16G09G06G30
 114589960.594 7  89290846.52946  21805738.055          47.600          37.800
                  21805738.703         738.266         575.506
 123352038.361 7  96118512.15044  23473125.156          45.500          28.900
                  23473128.449        3241.035        2525.499
 119235863.856 8  92911095.38045  22689831.578          48.100          34.500
                  22689832.641       -2608.371       -2032.404
 113747265.623 8  88634266.30346  21645389.070          51.700          39.600
                  21645392.117        2231.875        1739.283
 127407786.450 6  99278857.83943  24244906.578          38.900          19.300
                  24244909.750         861.723         671.720
 106642929.243 8  83098461.62647  20293482.078          52.100          45.200
                  20293487.746       -1149.195        -895.286
 111605750.339 8  86965481.30046  21237855.609          49.000          41.700
                  21237862.270       -2033.805       -1584.552
 120667177.142 7  94026427.23745  22962205.617          46.300          32.300
                  22962212.500        3440.141        2680.783
 18  2 20  8  6  0.0000000  0  8G02G05G23G07G16G09G06G30
 114568082.649 7  89273798.76846  21801575.172          47.300          37.600
                  21801575.703         720.391         561.453
 123254871.004 7  96042797.31844  23454634.703          45.900          29.100
                  23454637.512        3236.996        2522.217
 119314203.963 8  92972139.59245  22704739.250          48.000          33.900
                  22704740.777       -2614.113       -2037.071
 113680523.825 8  88582259.72246  21632688.695          52.500          39.600
                  21632691.855        2217.727        1728.138
 127382223.758 6  99258938.89643  24240042.336          40.000          20.100
                  24240045.246         842.500         656.666
 106677597.107 8  83125475.53747  20300079.453          51.100          45.500
                  20300084.684       -1161.848        -905.307
 111667020.292 8  87013224.11146  21249514.719          48.800          41.500
                  21249521.578       -2050.664       -1597.874
 120564082.836 7  93946094.01245  22942586.813          44.900          31.000
                  22942593.168        3432.973        2674.908
 18  2 20  8  6 30.0000000  0  8G02G05G23G07G16G09G06G30
 114546743.133 7  89257170.56446  21797514.578          47.600          38.100
                  21797514.906         702.391         547.536
 123157827.091 7  95967178.67044  23436167.906          45.600          29.100
                  23436170.781        3232.898        2519.112
 119392720.129 8  93033321.00545  22719680.523          48.300          33.700
                  22719681.570       -2619.973       -2041.548
 113614208.734 8  88530585.64346  21620068.781          52.900          40.200
                  21620073.016        2203.516        1717.130
 127357238.273 6  99239469.71643  24235287.242          40.400          20.600
                  24235290.957         823.410         641.775
 106712647.124 8  83152787.23147  20306749.180          52.300          45.200
                  20306754.375       -1174.512        -915.142
 111728799.179 7  87061363.49946  21261271.023          47.800          40.700
                  21261277.387       -2067.602       -1610.981
 120461213.672 7  93865936.24745  22923012.055          45.100          31.900
                  22923019.641        3425.172        2669.102
 18  2 20  8  7  0.0000000  0  8G02G05G23G07G16G09G06G30
 114525943.606 7  89240963.14446  21793555.813          47.300          37.800
                  21793556.578         684.348         533.478
 123060908.189 7  95891657.44444  23417724.969          45.100          29.400
                  23417728.191        3228.492        2515.809
 119471411.292 8  93094638.76345  22734655.195          48.200          34.300
                  22734656.508       -2625.906       -2046.098
 113548322.349 8  88479245.60546  21607531.234          52.100          40.100
                  21607534.453        2189.047        1705.953
 127332831.915 6  99220451.79443  24230643.703          38.600          20.900
                  24230647.254         803.789         626.601
 106748078.624 8  83180396.17447  20313491.828          52.700          45.300
                  20313497.027       -1187.477        -925.077
 111791085.537 7  87109898.31146  21273123.836          47.500          40.300
                  21273129.906       -2084.648       -1624.172
 120358572.497 7  93785956.12345  22903479.391          45.500          31.200
                  22903485.520        3417.570        2663.133
 18  2 20  8  7 30.0000000  0  8G02G05G23G07G16G09G06G30
 114505684.528 7  89225176.83946  21789700.906          47.900          37.700
                  21789701.867         666.293         519.432
 122964115.808 7  95816234.78844  23399305.805          45.100          28.800
                  23399309.055        3224.324        2512.496
 119550275.813 8  93156091.62245  22749661.906          48.000          33.900
                  22749663.688       -2631.695       -2050.607
 113482866.476 8  88428241.02746  21595075.391          51.900          39.400
                  21595078.527        2174.648        1694.723
 127309005.754 6  99201885.97743  24226109.773          40.200          20.600
                  24226112.594         784.441         611.575
 106783889.926 8  83208301.08247  20320306.188          53.100          45.500
                  20320311.676       -1200.035        -934.932
 111853876.962 7  87158826.69246  21285072.492          47.200          40.100
                  21285078.758       -2101.324       -1637.265
 120256161.593 7  93706155.43045  22883991.664          45.700          33.100
                  22883998.934        3409.867        2657.114
 18  2 20  8  8  0.0000000  0  8G02G05G23G07G16G09G06G30
 114485967.072 8  89209812.59046  21785948.641          48.100          37.900
                  21785949.723         648.230         505.314
 122867451.539 7  95740911.97244  23380910.984          44.400          28.100
                  23380914.344        3220.051        2509.135
 119629313.054 7  93217679.05845  22764702.492          47.200          34.000
                  22764704.695       -2637.512       -2055.103
 113417843.421 8  88377573.71846  21582701.711          51.300          40.000
                  21582705.820        2160.211        1683.451
 127285761.356 6  99183773.44743  24221686.586          38.600          20.400
                  24221689.621         765.219         596.376
 106820080.104 8  83236501.21347  20327192.844          52.500          44.900
                  20327198.277       -1212.590        -944.756
 111917171.696 7  87208147.24346  21297116.813          47.400          39.900
                  21297123.098       -2118.211       -1650.340
 120153983.675 7  93626536.27945  22864547.414          46.300          31.000
                  22864553.555        3402.078        2651.017
 18  2 20  8  8 30.0000000  0  8G02G05G23G07G16G09G06G30
 114466792.502 7  89194871.36046  21782300.086          47.900          37.700
                  21782300.461         630.105         491.231
 122770916.313 7  95665689.71144  23362541.219          44.700          29.600
                  23362544.449        3215.578        2505.765
 119708522.224 8  93279400.46045  22779775.500          48.200          33.400
                  22779776.992       -2643.223       -2059.533
 113353254.589 8  88327244.77346  21570410.727          50.400          39.200
                  21570414.762        2145.703        1672.168
 127263100.242 6  99166115.41043  24217373.766          38.100          19.900
                  24217377.117         745.598         581.274
 106856648.131 8  83264995.77847  20334151.578          51.100          45.000
                  20334157.012       -1225.254        -954.555
 111980967.870 7  87257858.53446  21309256.961          47.500          40.100
                  21309263.203       -2134.883       -1663.313
 120052041.432 7  93547100.77145  22845148.930          46.400          33.000
                  22845155.734        3394.102        2644.863
 18  2 20  8  9  0.0000000  0  8G02G05G23G07G16G09G06G30
 114448161.584 7  89180353.75746  21778754.211          47.500          37.700
                  21778755.273         611.918         477.069
 122674512.840 7  95590570.12545  23344196.172          45.300          30.600
                  23344199.875        3211.172        2502.292
 119787901.735 7  93341254.59245  22794881.305          47.800          33.000
                  22794882.266       -2648.840       -2063.942
 113289102.186 8  88277255.89946  21558202.883          51.500          39.200
                  21558205.711        2131.133        1660.781
 127241023.816 6  99148912.99743  24213172.375          37.100          19.300
                  24213175.973         725.945         566.077
 106893592.857 8  83293783.86347  20341182.266          52.600          45.000
                  20341187.297       -1237.754        -964.334
 112045263.631 8  87307959.10646  21321491.836          48.500          40.000
                  21321498.824       -2151.492       -1676.281
 119950337.574 7  93467851.05045  22825795.547          45.900          32.600
                  22825801.805        3386.066        2638.606
 18  2 20  8  9 30.0000000  0  8G02G05G23G07G16G09G06G30
 114430074.247 8  89166259.72746  21775312.945          48.800          37.700
                  21775313.574         593.773         462.975
 122578242.595 7  95515554.35745  23325876.242          44.300          30.200
                  23325879.633        3206.742        2498.848
 119867449.761 8  93403240.05845  22810018.758          48.100          33.200
                  22810019.832       -2654.406       -2068.291
 113225387.192 8  88227607.83446  21546078.477          50.800          39.200
                  21546081.594        2116.457        1649.427
 127219532.995 6  99132166.90743  24209083.820          40.100          20.400
                  24209086.852         706.563         550.828
 106930912.512 8  83322864.11447  20348283.539          51.000          44.800
                  20348288.648       -1250.270        -974.042
 112110056.324 7  87358446.88346  21333821.680          47.500          40.200
                  21333828.465       -2168.043       -1689.153
 119848873.981 7  93388788.49545  22806487.352          46.400          32.600
                  22806493.762        3378.129        2632.389
 18  2 20  8 10  0.0000000  0  8G02G05G23G07G16G09G06G30
 114412531.675 8  89152590.18346  21771974.477          48.500          37.900
                  21771975.363         575.699         448.801
 122482106.438 7  95440643.06645  23307582.414          45.900          31.200
                  23307585.984        3202.203        2495.327
 119947165.426 8  93465356.13545  22825188.172          48.300          32.700
                  22825189.676       -2659.984       -2072.663
 113162111.682 8  88178302.26546  21534037.609          51.300          38.900
                  21534041.445        2101.824        1637.968
 127198629.420 6  99115878.38343  24205105.727          37.700          19.300
                  24205108.992         687.000         535.504
 106968606.052 8  83352235.69347  20355456.352          52.900          44.700
                  20355462.008       -1262.617        -983.743
 112175344.055 8  87409320.40246  21346245.406          48.500          40.300
                  21346252.250       -2184.504       -1701.999
 119747653.452 7  93309915.38245  22787225.617          47.000          33.600
                  22787232.598        3369.871        2626.004
 18  2 20  8 10 30.0000000  0  8G02G05G23G07G16G09G06G30
 114395534.652 8  89139345.74846  21768739.617          48.500          37.500
                  21768740.855         557.492         434.593
 122386106.196 7  95365837.68145  23289314.352          45.500          31.800
                  23289317.688        3197.746        2491.768
 120027047.643 8  93527601.98445  22840389.141          48.100          31.900
                  22840390.887       -2665.527       -2076.975
 113099277.277 8  88129340.40846  21522080.758          51.500          39.200
                  21522084.039        2087.121        1626.506
 127178314.272 6  99100048.38143  24201240.516          37.600          19.900
                  24201242.988         667.363         520.251
 107006672.265 8  83381897.67747  20362700.070          51.100          44.900
                  20362705.617       -1275.066        -993.416
 112241124.848 7  87460578.13146  21358763.336          47.000          40.200
                  21358770.070       -2200.973       -1714.780
 119646678.478 7  93231233.60945  22768010.773          46.800          33.800
                  22768017.633        3361.621        2619.603
 18  2 20  8 11  0.0000000  0  8G02G05G23G07G16G09G06G30
 114379084.269 8  89126527.25946  21765609.641          48.400          37.800
                  21765610.449         539.172         420.413
 122290243.198 7  95291139.23245  23271071.711          46.200          30.800
                  23271075.238        3193.059        2488.189
 120107095.421 8  93589976.86345  22855621.586          48.000          32.800
                  22855623.141       -2671.078       -2081.229
 113036886.121 8  88080723.92246  21510208.336          51.900          38.800
                  21510210.996        2072.238        1614.959
 127158589.057 6  99084678.10043  24197485.656          38.700          19.900
                  24197489.449         647.738         504.914
 107045110.245 8  83411849.33947  20370014.336          51.600          44.500
                  20370019.996       -1287.508       -1003.050
 112307396.870 8  87512218.63846  21371374.320          48.200          41.100
                  21371381.406       -2217.332       -1727.506
 119545951.895 7  93152745.38645  22748843.133          47.500          33.700
                  22748849.930        3353.285        2613.132
 18  2 20  8 11 30.0000000  0  8G02G05G23G07G16G09G06G30
 114363180.608 8  89114134.79146  21762583.336          48.600          37.700
                  21762584.180         521.000         406.217
 122194519.826 7  95216549.59745  23252856.297          44.600          31.400
                  23252860.293        3188.480        2484.569
 120187307.169 7  93652479.48745  22870885.680          47.600          32.400
                  22870887.129       -2676.359       -2085.461
 112974939.401 8  88032453.77946  21498420.344          51.300          39.200
                  21498422.840        2057.590        1603.425
 127139454.549 6  99069768.05943  24193845.102          38.300          19.600
                  24193848.078         628.105         489.572
 107083918.273 8  83442089.34647  20377399.813          51.700          45.100
                  20377404.941       -1299.668       -1012.623
 112374157.557 8  87564239.93646  21384078.680          49.100          41.500
                  21384085.215       -2233.355       -1740.147
 119445475.787 7  93074452.34545  22729723.047          46.900          33.600
                  22729730.180        3345.059        2606.607
 18  2 20  8 12  0.0000000  0  8G02G05G23G07G16G09G06G30
 114347824.981 8  89102169.35646  21759661.016          48.400          38.100
                  21759661.883         502.586         391.940
 122098937.802 7  95142070.09445  23234668.180          44.600          30.400
                  23234671.672        3183.563        2480.838
 120267682.010 7  93715109.21045  22886180.703          46.600          32.400
                  22886182.098       -2681.930       -2089.713
 112913439.326 8  87984531.64946  21486717.094          52.400          39.600
                  21486720.754        2042.461        1591.772
 127120912.149 6  99055319.40043  24190317.133          37.800          18.600
                  24190319.375         607.996         474.159
 107123095.474 8  83472617.02447  20384854.805          52.200          45.200
                  20384860.125       -1312.176       -1022.227
 112441405.117 7  87616640.61646  21396875.625          47.800          41.100
                  21396882.590       -2249.707       -1752.792
 119345252.963 7  92996356.65945  22710651.055          47.500          34.200
                  22710657.766        3336.430        2599.976
 18  2 20  8 12 30.0000000  0  8G02G05G23G07G16G09G06G30
 114333017.902 8  89090631.36846  21756843.531          48.600          37.800
                  21756844.488         484.516         377.707
 122003498.443 7  95067701.77345  23216506.336          44.500          30.200
                  23216509.602        3179.145        2477.146
 120348218.766 7  93777865.09845  22901506.289          47.700          32.000
                  22901507.375       -2687.086       -2093.875
 112852387.386 8  87936958.74446  21475099.500          52.200          39.900
                  21475103.066        2027.648        1580.124
 127102963.224 6  99041333.23042  24186900.328          36.400          17.800
                  24186904.602         588.473         458.742
 107162640.493 8  83503431.31247  20392380.102          53.000          45.600
                  20392385.227       -1324.184       -1031.751
 112509137.304 8  87669418.93046  21409764.844          48.800          41.000
                  21409771.395       -2265.684       -1765.349
 119245285.852 7  92918460.24345  22691628.289          46.700          34.800
                  22691635.105        3328.066        2593.312
 18  2 20  8 13  0.0000000  0  8G02G05G23G07G16G09G06G30
 114318760.006 8  89079521.30946  21754130.391          48.900          38.600
                  21754131.277         466.180         363.425
 121908203.115 7  94993445.66945  23198371.781          45.000          30.500
                  23198375.746        3174.125        2473.362
 120428916.153 7  93840746.15945  22916862.195          46.400          31.400
                  22916864.129       -2692.488       -2098.035
 112791784.943 8  87889736.09346  21463566.961          52.600          40.000
                  21463569.945        2012.582        1568.436
 127085608.613 6  99027810.17343  24183597.945          37.300          19.600
                  24183601.953         568.621         443.288
 107202552.069 8  83534531.24247  20399975.031          53.400          45.600
                  20399980.023       -1336.477       -1041.265
 112577351.949 8  87722573.17646  21422745.688          49.300          41.600
                  21422752.398       -2281.805       -1777.857
 119145576.948 7  92840765.02645  22672653.914          46.800          33.600
                  22672660.645        3319.395        2586.565
 18  2 20  8 13 30.0000000  0  8G02G05G23G07G16G09G06G30
 114305051.873 8  89068839.62346  21751521.648          48.400          38.300
                  21751522.078         447.559         349.121
 121813053.708 7  94919303.28645  23180265.836          44.300          30.800
                  23180269.648        3169.016        2469.539
 120509772.772 7  93903751.27945  22932248.883          46.800          31.000
                  22932250.281       -2698.047       -2102.178
 112731633.833 8  87842865.10946  21452120.313          52.300          40.100
                  21452123.496        1997.262        1556.651
 127068849.566 6  99014751.11643  24180409.266          36.200          19.600
                  24180412.914         548.469         427.795
 107242828.824 8  83565915.70947  20407639.477          52.800          45.200
                  20407644.785       -1348.859       -1050.749
 112646046.720 8  87776101.55546  21435817.414          48.700          41.400
                  21435824.316       -2297.973       -1790.321
 119046128.597 7  92763272.81845  22653730.477          47.600          35.300
                  22653736.836        3310.371        2579.762
 18  2 20  8 14  0.0000000  0  8G02G05G23G07G16G09G06G30
 114291894.384 8  89058587.02146  21749017.906          48.600          38.100
                  21749018.598         429.418         334.840
 121718051.613 7  94845275.66845  23162187.227          45.600          31.700
                  23162191.129        3164.285        2465.732
 120590788.010 7  93966880.02745  22947665.469          46.600          31.600
                  22947666.695       -2703.102       -2106.255
 112671936.101 8  87796347.42246  21440760.336          51.200          40.100
                  21440763.941        1982.313        1544.875
 127052687.567 6  99002157.38543  24177333.961          36.600          19.000
                  24177336.641         528.742         412.275
 107283469.930 8  83597584.09247  20415373.367          51.700          44.400
                  20415378.539       -1360.770       -1060.183
 112715219.821 8  87830002.63246  21448980.719          49.600          41.100
                  21448987.621       -2313.684       -1802.694
 118946943.708 7  92685985.92445  22634855.453          47.400          34.700
                  22634862.000        3301.738        2572.887
 18  2 20  8 14 30.0000000  0  8G02G05G23G07G16G09G06G30
 114279288.445 8  89048764.19946  21746619.305          48.000          38.200
                  21746620.012         411.113         320.540
 121623198.797 7  94771364.38645  23144137.438          45.600          31.600
                  23144141.469        3159.215        2461.825
 120671960.667 7  94030131.41845  22963112.516          45.500          31.000
                  22963114.332       -2708.398       -2110.331
 112612693.440 8  87750184.34146  21429486.414          51.700          39.900
                  21429490.449        1967.137        1533.057
 127037123.601 6  98990029.64343  24174372.305          39.200          18.600
                  24174375.375         508.883         396.762
 107324474.093 8  83629535.36947  20423176.609          52.100          44.700
                  20423181.461       -1372.801       -1069.580
 112784869.085 8  87884274.76846  21462234.719          49.100          41.300
                  21462241.598       -2329.422       -1814.995
 118848024.783 7  92608906.25445  22616032.078          46.000          34.500
                  22616038.258        3292.832        2565.974
 18  2 20  8 15  0.0000000  0  8G02G05G23G07G16G09G06G30
 114267234.521 8  89039371.52946  21744325.633          48.500          38.300
                  21744326.223         392.531         306.171
 121528498.269 7  94697571.75545  23126116.656          46.100          31.800
                  23126120.156        3154.055        2457.844
 120753290.000 7  94093504.88845  22978588.930          46.200          30.200
                  22978590.105       -2713.645       -2114.381
 112553907.816 8  87704377.36146  21418300.117          51.700          39.600
                  21418303.730        1951.844        1521.156
 127022159.281 6  98978369.13843  24171524.398          39.800          18.300
                  24171527.145         488.777         381.165
 107365840.595 8  83661768.99447  20431048.047          52.500          44.400
                  20431053.008       -1384.965       -1078.978
 112854992.783 8  87938916.56146  21475578.984          49.200          41.100
                  21475585.676       -2345.352       -1827.320
 118749374.780 7  92532036.15545  22597259.438          46.100          34.400
                  22597265.496        3283.777        2558.953
 18  2 20  8 15 30.0000000  0  8G02G05G23G07G16G09G06G30
 114255733.001 7  89030409.29246  21742137.031          47.200          38.400
                  21742137.918         374.160         291.824
 121433950.026 7  94623897.79945  23108125.031          46.800          33.300
                  23108128.797        3149.086        2453.892
 120834774.240 7  94156999.09045  22994094.938          45.400          31.100
                  22994096.016       -2718.719       -2118.391
 112495580.383 8  87658927.42446  21407200.906          50.500          39.700
                  21407204.234        1936.625        1509.258
 127007795.084 6  98967176.27143  24168791.555          40.200          19.300
                  24168793.449         468.789         365.607
 107407567.707 8  83694283.61947  20438988.336          53.000          44.300
                  20438993.672       -1396.883       -1088.314
 112925588.133 8  87993925.87846  21489012.945          49.800          40.600
                  21489019.414       -2360.973       -1839.532
 118650995.726 7  92455377.16845  22578538.078          46.400          33.700
                  22578545.063        3274.738        2551.914
 18  2 20  8 16  0.0000000  0  8G02G05G23G07G16G09G06G30
 114244783.922 8  89021877.52246  21740053.500          48.100          38.600
                  21740054.195         355.754         277.443
 121339555.798 7  94550343.85845  23090162.180          46.400          33.400
                  23090165.668        3143.852        2449.835
 120916411.761 7  94220612.71545  23009629.430          45.700          30.900
                  23009631.609       -2723.883       -2122.398
 112437711.702 8  87613834.96546  21396188.320          51.400          39.500
                  21396192.508        1921.227        1497.286
 126994031.250 6  98956451.24043  24166171.281          40.000          20.900
                  24166175.047         448.789         349.911
 107449653.343 8  83727077.61747  20446996.789          52.600          44.100
                  20447002.078       -1408.906       -1097.645
 112996652.173 8  88049300.41146  21502535.797          49.200          40.600
                  21502542.648       -2376.703       -1851.708
 118552889.299 7  92378930.62845  22559869.070          45.300          34.000
                  22559875.938        3265.602        2544.758
 18  2 20  8 16 30.0000000  0  8G02G05G23G07G16G09G06G30
 114234387.988 8  89013776.77946  21738075.148          48.600          38.400
                  21738075.816         337.367         263.067
 121245317.823 7  94476911.67645  23072229.484          46.800          33.600
                  23072232.711        3138.754        2445.733
 120998201.782 7  94284345.16844  23025193.773          44.300          29.800
                  23025195.789       -2728.844       -2126.349
 112380304.106 8  87569101.76546  21385264.125          50.700          40.000
                  21385268.242        1905.926        1485.297
 126980869.325 6  98946195.20043  24163666.789          40.700          19.300
                  24163670.746         428.727         334.306
 107492096.926 8  83760150.52847  20455073.555          52.500          45.000
                  20455078.703       -1420.723       -1106.925
 113068183.228 8  88105038.84846  21516147.836          49.300          40.200
                  21516154.316       -2392.105       -1863.805
 118455058.610 7  92302698.93545  22541252.273          46.000          34.300
                  22541259.168        3256.414        2537.566
 18  2 20  8 17  0.0000000  0  8G02G05G23G07G16G09G06G30
 114224545.836 8  89006107.55946  21736201.844          48.500          38.800
                  21736202.703         318.781         248.663
 121151236.739 7  94403601.74645  23054326.297          47.200          34.000
                  23054329.953        3133.469        2441.684
 121080143.284 7  94348195.65545  23040786.570          45.000          30.500
                  23040788.492       -2733.730       -2130.221
 112323358.859 8  87524728.85546  21374428.484          50.100          40.000
                  21374432.313        1890.488        1473.276
 126968310.291 6  98936409.01743  24161277.117          37.300          19.600
                  24161280.219         408.586         318.620
 107534897.023 8  83793501.24247  20463218.258          52.100          44.400
                  20463223.441       -1432.566       -1116.151
 113140178.919 8  88161139.34546  21529848.141          48.800          39.700
                  21529854.867       -2407.559       -1875.825
 118357505.991 7  92226683.91345  22522689.281          46.600          34.400
                  22522695.742        3247.055        2530.311
 18  2 20  8 17 30.0000000  0  8G02G05G23G07G16G09G06G30
 114215258.168 8  88998870.40446  21734434.891          49.100          37.800
                  21734435.410         300.473         234.322
 121057315.096 7  94330416.06045  23036453.945          45.700          34.200
                  23036457.219        3128.125        2437.537
 121162235.317 7  94412163.43845  23056408.453          45.800          30.900
                  23056409.742       -2738.766       -2134.093
 112266877.787 8  87480717.64046  21363679.938          51.000          40.100
                  21363684.109        1875.051        1461.243
 126956354.844 6  98927093.12143  24159001.930          39.200          19.000
                  24159005.121         388.449         302.999
 107578052.411 8  83827128.80447  20471430.422          51.600          44.500
                  20471435.945       -1444.293       -1125.315
 113212636.989 8  88217600.14546  21543636.148          48.200          39.000
                  21543643.012       -2422.906       -1887.768
 118260233.953 7  92150887.56245  22504178.938          45.000          34.300
                  22504184.969        3237.777        2523.050
 18  2 20  8 18  0.0000000  0  8G02G05G23G07G16G09G06G30
 114206524.903 7  88992065.24346  21732773.172          47.900          38.200
                  21732773.762         281.852         219.861
 120963554.794 7  94257356.10545  23018611.375          47.400          33.700
                  23018614.871        3122.613        2433.293
 121244476.015 7  94476247.08445  23072058.156          45.500          30.800
                  23072059.898       -2743.879       -2137.973
 112210862.472 8  87437069.34546  21353020.680          51.300          39.800
                  21353024.168        1859.395        1449.093
 126945003.855 6  98918248.22643  24156842.094          36.900          18.600
                  24156844.902         368.262         287.245
 107621561.750 8  83861032.17147  20479709.859          53.200          44.600
                  20479715.230       -1456.152       -1134.530
 113285555.017 8  88274419.35646  21557512.219          48.800          39.000
                  21557518.938       -2438.227       -1899.733
 118163244.890 7  92075311.67945  22485722.484          46.100          34.700
                  22485728.852        3228.180        2515.622
 18  2 20  8 18 30.0000000  0  8G02G05G23G07G16G09G06G30
 114198346.924 8  88985692.77246  21731216.820          48.400          37.800
                  21731217.184         263.352         205.450
 120869957.248 8  94184422.95545  23000800.180          48.000          34.100
                  23000804.207        3117.199        2429.042
 121326864.564 7  94540445.90944  23087736.023          45.400          29.600
                  23087737.988       -2748.680       -2141.801
 112155314.078 8  87393784.89546  21342450.266          51.900          39.900
                  21342453.508        1843.840        1436.934
 126934258.121 6  98909874.93143  24154797.531          40.900          19.600
                  24154799.371         348.102         271.503
 107665423.802 8  83895210.39647  20488056.258          52.800          44.500
                  20488061.754       -1467.980       -1143.687
 113358930.765 8  88331595.21446  21571475.125          49.700          39.000
                  21571481.641       -2453.496       -1911.594
 118066541.257 7  91999958.22845  22467320.188          47.200          35.000
                  22467326.879        3218.598        2508.171
 18  2 20  8 19  0.0000000  0  8G02G05G23G07G16G09G06G30
 114190724.395 8  88979753.12846  21729766.055          48.100          37.700
                  21729766.434         244.828         190.995
 120776524.420 7  94111618.13645  22983020.953          46.300          34.600
                  22983024.152        3111.652        2424.755
 121409400.104 7  94604759.29144  23103442.102          44.900          28.600
                  23103444.160       -2753.703       -2145.623
 112100234.397 8  87350865.68146  21331968.719          51.300          39.800
                  21331972.855        1828.121        1424.737
 126924118.706 6  98901974.10743  24152868.406          40.500          21.100
                  24152870.934         327.750         255.719
 107709637.478 8  83929662.59247  20496470.547          52.300          44.700
                  20496475.332       -1479.699       -1152.807
 113432761.962 8  88389126.00246  21585524.656          49.000          38.900
                  21585531.414       -2468.660       -1923.389
 117970125.638 7  91924829.18945  22448973.039          45.400          34.300
                  22448979.262        3208.977        2500.658
 18  2 20  8 19 30.0000000  0  8G02G05G23G07G16G09G06G30
 114183657.704 8  88974246.60046  21728421.344          49.100          37.300
                  21728422.215         226.270         176.538
 120683257.445 8  94038942.57645  22965272.867          48.000          34.700
                  22965276.188        3106.059        2420.375
 121492081.316 7  94669186.17844  23119175.992          44.300          29.100
                  23119177.445       -2758.516       -2149.408
 112045624.865 8  87308312.80446  21321577.031          51.200          40.200
                  21321580.887        1812.469        1412.483
 126914586.362 6  98894546.31343  24151053.539          40.100          20.600
                  24151056.590         307.816         239.930
 107754201.355 8  83964387.68047  20504950.719          53.400          44.500
                  20504956.066       -1491.312       -1161.916
 113507046.267 8  88447009.84346  21599660.625          49.700          39.500
                  21599667.121       -2483.734       -1935.157
 117874000.442 7  91849926.45245  22430680.930          46.600          34.100
                  22430687.438        3199.297        2493.064
 18  2 20  8 20  0.0000000  0  8G02G05G23G07G16G09G06G30
 114177147.959 8  88969174.06046  21727182.734          48.500          37.300
                  21727183.051         207.484         162.016
 120590158.134 7  93966397.65545  22947556.453          47.900          34.000
                  22947560.023        3100.223        2415.970
 121574907.755 7  94733726.22244  23134937.219          45.000          29.700
                  23134939.246       -2763.504       -2153.205
 111991487.490 8  87266127.85446  21311275.352          51.300          39.400
                  21311277.953        1796.500        1400.167
 126905662.271 6  98887592.43943  24149356.492          40.700          20.600
                  24149359.539         287.043         224.119
 107799114.658 8  83999385.05147  20513497.086          52.800          44.600
                  20513502.402       -1503.250       -1171.029
 113581781.703 8  88505245.22546  21613882.406          49.200          39.400
                  21613888.703       -2498.973       -1946.906
 117778168.533 7  91775252.24845  22412444.813          47.300          34.800
                  22412451.047        3189.191        2485.369
 18  2 20  8 20 30.0000000  0  8G02G05G23G07G16G09G06G30
 114171194.909 7  88964535.30546  21726049.758          47.900          37.300
                  21726050.109         188.984         147.573
 120497228.240 8  93893984.75445  22929872.797          48.200          35.500
                  22929875.875        3094.656        2411.558
 121657877.697 7  94798378.10144  23150726.180          45.400          27.800
                  23150727.176       -2768.098       -2156.893
 111937823.076 8  87224311.44446  21301062.852          51.400          40.000
                  21301065.723        1780.852        1387.876
 126897346.714 6  98881112.77143  24147772.672          39.700          21.100
                  24147776.301         266.809         208.278
 107844375.660 8  84034653.35147  20522109.758          52.900          44.500
                  20522115.648       -1514.629       -1180.011
 113656965.498 8  88563829.98346  21628190.273          48.600          39.400
                  21628196.152       -2513.641       -1958.490
 117682631.904 7  91700808.12445  22394264.867          47.200          35.100
                  22394271.199        3179.504        2477.689
 18  2 20  8 21  0.0000000  0  8G02G05G23G07G16G09G06G30
 114165798.540 7  88960330.33246  21725022.922          46.400          37.400
                  21725023.516         170.469         133.120
 120404470.284 7  93821705.82545  22912221.313          45.800          35.200
                  22912224.887        3088.891        2407.073
 121740989.657 7  94863140.63444  23166541.609          44.700          28.900
                  23166543.414       -2772.926       -2160.587
 111884632.828 8  87182864.50246  21290941.508          51.400          39.700
                  21290944.457        1764.922        1375.538
 126889640.320 6  98875107.80443  24146307.484          38.700          20.400
                  24146310.121         246.691         192.462
 107889982.864 8  84070191.41547  20530788.930          52.800          44.500
                  20530794.652       -1526.113       -1188.988
 113732594.998 8  88622762.03846  21642581.305          49.700          39.100
                  21642587.582       -2528.559       -1970.038
 117587392.762 7  91626595.82845  22376141.469          46.000          34.800
                  22376147.852        3169.523        2469.918
 18  2 20  8 21 30.0000000  0  8G02G05G23G07G16G09G06G30
 114160959.153 7  88956559.36946  21724102.383          47.200          36.900
                  21724102.793         152.137         118.694
 120311885.356 8  93749561.72745  22894603.289          48.100          35.100
                  22894606.852        3083.328        2402.594
 121824242.412 7  94928012.85244  23182384.656          44.700          29.300
                  23182386.035       -2777.441       -2164.186
 111831918.008 8  87141788.04646  21280910.000          51.600          39.700
                  21280913.375        1749.238        1363.214
 126882543.734 6  98869578.00643  24144956.063          39.100          19.900
                  24144959.094         226.652         176.680
 107935934.892 8  84105998.18347  20539533.406          52.700          44.300
                  20539538.434       -1537.406       -1197.886
 113808667.699 8  88682039.44046  21657057.719          49.200          39.600
                  21657064.625       -2543.059       -1981.469
 117492453.431 8  91552617.12645  22358075.305          48.000          35.700
                  22358081.594        3159.695        2462.168
 18  2 20  8 22  0.0000000  0  8G02G05G23G07G16G09G06G30
 114156677.573 7  88953223.05746  21723287.109          47.200          37.100
                  21723287.898         133.359         104.219
 120219475.630 7  93677554.14945  22877018.242          47.200          35.800
                  22877021.617        3077.391        2398.066
 121907635.486 7  94992994.45244  23198253.656          44.600          29.000
                  23198255.164       -2782.223       -2167.803
 111779680.699 8  87101083.65646  21270969.523          52.000          39.400
                  21270973.199        1733.242        1350.833
 126876058.167 6  98864524.30443  24143722.094          39.800          21.100
                  24143725.160         205.910         160.780
 107982231.016 8  84142073.07347  20548343.414          53.700          44.000
                  20548348.266       -1548.926       -1206.787
 113885181.769 8  88741660.75946  21671617.797          49.900          40.200
                  21671624.320       -2557.828       -1992.882
 117397816.919 7  91478874.39945  22340066.477          47.100          35.400
                  22340073.000        3149.492        2454.288
 18  2 20  8 22 30.0000000  0  8G02G05G23G07G16G09G06G30
 114152953.792 7  88950321.39446  21722578.344          47.000          37.300
                  21722579.094         114.836          89.725
 120127242.016 8  93605683.80945  22859466.648          48.100          35.700
                  22859470.395        3071.594        2393.462
 121991167.798 7  95058084.50744  23214149.523          45.200          28.100
                  23214150.918       -2786.777       -2171.405
 111727922.053 8  87060752.25846  21261119.789          51.700          39.400
                  21261123.160        1717.293        1338.364
 126870183.834 6  98859946.89243  24142605.117          39.200          20.900
                  24142607.063         185.758         144.895
 108028869.872 8  84178415.03547  20557218.273          52.700          44.700
                  20557223.512       -1560.266       -1215.679
 113962134.655 8  88801624.04246  21686261.313          49.300          39.200
                  21686267.902       -2572.289       -2004.240
 117303485.487 7  91405369.41345  22322115.977          47.300          35.400
                  22322122.008        3139.328        2446.332
 18  2 20  8 23  0.0000000  0  8G02G05G23G07G16G09G06G30
 114149788.357 7  88947854.80746  21721976.359          47.300          37.400
                  21721977.039          96.141          75.162
 120035186.717 7  93533952.40645  22841949.203          46.400          35.400
                  22841952.871        3065.410        2388.723
 122074838.337 7  95123282.30444  23230071.672          45.600          28.600
                  23230071.992       -2791.340       -2175.033
 111676643.554 8  87020794.99146  21251362.344          50.800          40.000
                  21251365.715        1701.145        1325.809
 126864921.925 6  98855846.67243  24141603.258          39.400          20.100
                  24141606.449         164.941         128.937
 108075850.237 8  84215023.09947  20566158.453          52.400          44.400
                  20566163.605       -1571.758       -1224.601
 114039523.975 8  88861927.39646  21700988.289          49.100          39.500
                  21700994.781       -2586.863       -2015.613
 117209461.655 7  91332104.09446  22304223.766          46.400          36.800
                  22304230.168        3128.875        2438.247
 18  2 20  8 23 30.0000000  0  8G02G05G23G07G16G09G06G30
 114147181.300 7  88945823.33046  21721479.898          47.200          37.800
                  21721480.555          77.547          60.682
 119943312.402 7  93462362.03645  22824466.227          46.800          35.900
                  22824469.348        3059.441        2384.054
 122158645.820 7  95188586.80744  23246019.758          45.000          29.300
                  23246021.098       -2795.949       -2178.546
 111625846.444 8  86981212.82746  21241695.852          51.600          40.000
                  21241699.891        1685.051        1313.330
 126860272.456 6  98852223.67243  24140718.563          39.400          21.300
                  24140721.527         144.695         113.043
 108123170.716 8  84251896.18447  20575163.172          51.900          44.100
                  20575168.336       -1583.164       -1233.387
 114117347.220 8  88922568.86946  21715797.211          48.700          40.000
                  21715803.738       -2601.457       -2026.820
 117115747.680 7  91259080.26046  22286390.313          45.300          36.100
                  22286397.043        3118.516        2430.195
 18  2 20  8 24  0.0000000  0  8G02G05G23G07G16G09G06G30
 114145133.254 7  88944227.43346  21721090.344          47.600          37.200
                  21721091.020          59.148          46.212
 119851620.217 7  93390913.58846  22807017.375          47.800          36.000
                  22807021.176        3053.387        2379.348
