     2.11           OBSERVATION DATA    G (GPS)             RINEX VERSION / TYPE
teqc  2016Nov7                          20180403 09:55:33UTCPGM / RUN BY / DATE
Linux 2.4.21-27.ELsmp|Opteron|gcc|Linux x86_64|=+           COMMENT
teqc  2016Nov7                          20180403 09:55:32UTCCOMMENT
     2.11           OBSERVATION DATA    M (MIXED)           COMMENT
teqc  2016Nov7                          20180403 09:55:30UTCCOMMENT
teqc  2016Nov7      IGN-RGP             20180220 09:11:04UTCCOMMENT
TPP 3.10.3                              20-FEB-18 07:59     COMMENT
                                                            COMMENT
                                                            COMMENT
                                                            COMMENT
CHE2                                                        MARKER NAME
19989M002                                                   MARKER NUMBER
Automatic           SAT-INFO                                OBSERVER / AGENCY
5502R50014          TRIMBLE NETR9       4.81                REC # / TYPE / VERS
60073464            TRM41249.00     TZGD                    ANT # / TYPE
  4215066.5540   212263.8100  4766322.2090                  APPROX POSITION XYZ
        0.0000        0.0000        0.0000                  ANTENNA: DELTA H/E/N
     1     1                                                WAVELENGTH FACT L1/2
     9    C1    L1    S1    P2    L2    S2    C5    L5    S5# / TYPES OF OBSERV
    30.0000                                                 INTERVAL
     0                                                      RCV CLOCK OFFS APPL
    18                                                      LEAP SECONDS
Forced Modulo Decimation to 30 seconds                      COMMENT
teqc_2016 edited: all GLONASS satellites excluded           COMMENT
teqc_2016 edited: all SBAS satellites excluded              COMMENT
teqc_2016 edited: all Galileo satellites excluded           COMMENT
  2018     2    20     8     0    0.0000000     GPS         TIME OF FIRST OBS
                                                            END OF HEADER
 18  2 20  8  0  0.0000000  0  8G02G05G06G07G09G16G23G30
  21960635.874   115403909.127 6        46.000    21960638.734    89925122.390 8
        36.000
  23827761.222   125215719.740 6        43.750    23827767.322    97570692.375 7
        27.250
  21112619.500   110947560.287 7        49.000    21112627.720    86452643.953 8
        40.750
  21691323.196   113988687.580 7        51.000    21691328.836    88822355.455 8
        37.500
  20212301.826   106216373.854 8        53.750    20212309.086    82766009.495 9
        45.250
  24265732.440   127517271.316 4        38.500    24265736.960    99364107.456 6
        19.750
  22473516.992   118099133.447 7        49.000    22473520.452    92025304.052 8
        33.250
  23082382.508   121298750.973 7        47.500    23082389.408    94518509.512 7
        32.000
 18  2 20  8  0 30.0000000  0  8G02G05G06G07G09G16G23G30
  21954976.854   115374169.331 6        46.500    21954979.434    89901948.521 8
        36.000
  23808918.702   125116705.418 5        41.500    23808923.562    97493538.420 6
        25.000
  21122717.640   111000626.084 7        49.750    21122725.760    86493993.907 8
        40.500
  21678051.756   113918945.873 7        51.000    21678056.596    88768011.270 8
        38.250
  20217831.766   106245433.375 8        54.250    20217838.926    82788653.277 9
        45.250
  24260255.100   127488485.265 5        39.500    24260259.380    99341676.696 6
        20.250
  22487745.570   118173904.036 7        48.250    22487748.790    92083566.834 7
        32.500
  23062470.188   121194106.939 7        47.500    23062479.528    94436968.768 8
        34.000
 18  2 20  8  1  0.0000000  0  8G02G05G06G07G09G16G23G30
  21949416.854   115344954.011 6        47.000    21949419.994    89879183.332 8
        36.500
  23790095.322   125017783.695 6        44.750    23790100.322    97416456.502 7
        27.750
  21132917.940   111054228.374 7        49.000    21132926.180    86535761.923 8
        40.750
  21664858.776   113849615.912 7        50.000    21664864.076    88713987.940 8
        38.250
  20223434.666   106274876.482 8        55.000    20223441.866    82811595.952 9
        45.750
  24254882.720   127460263.457 3        37.000    24254887.780    99319685.690 5
        17.750
  22502009.070   118248859.484 7        48.250    22502012.610    92141973.661 7
        33.000
  23042595.388   121089669.205 7        47.250    23042603.048    94355588.744 7
        32.250
 18  2 20  8  1 30.0000000  0  8G02G05G06G07G09G16G23G30
  21943957.714   115316264.620 7        47.250    21943960.994    89856827.953 8
        37.500
  23771288.522   124918955.827 6        42.500    23771293.902    97339447.792 6
        24.750
  21143220.080   111108365.723 7        48.750    21143228.060    86577946.854 8
        41.000
  21651744.356   113780700.105 7        51.250    21651749.736    88660287.319 8
        38.000
  20229110.066   106304702.290 8        54.500    20229117.686    82834836.835 9
        45.500
  24249619.560   127432607.879 3        35.750    24249624.760    99298135.870 5
        17.750
  22516307.530   118323998.743 7        48.500    22516310.570    92200523.718 7
        33.000
  23022761.408   120985440.477 7        47.500    23022770.308    94274371.559 8
        33.250
 18  2 20  8  2  0.0000000  0  8G02G05G06G07G09G16G23G30
  21938598.254   115288101.771 6        45.750    21938601.634    89834882.863 8
        36.000
  23752501.282   124820223.606 6        45.750    23752505.762    97262513.576 7
        29.000
  21153623.480   111163036.253 7        49.500    21153631.900    86620547.257 8
        40.750
  21638709.256   113712199.961 7        51.000    21638714.856    88606910.592 8
        38.000
  20234858.426   106334909.624 8        52.750    20234865.286    82858375.015 9
        45.750
  24244465.140   127405520.312 3        36.750    24244469.900    99277028.671 5
        16.750
  22530640.630   118399320.693 7        47.750    22530644.650    92259216.124 8
        33.250
  23002967.728   120881423.280 7        47.750    23002976.848    94193319.247 8
        33.250
 18  2 20  8  2 30.0000000  0  8G02G05G06G07G09G16G23G30
  21933339.954   115260466.323 6        46.000    21933342.374    89813348.747 8
        36.500
  23733730.202   124721588.587 6        43.000    23733735.302    97185655.089 6
        24.500
  21164127.900   111218237.537 7        50.000    21164136.060    86663561.236 8
        40.500
  21625753.336   113644116.822 7        51.500    21625758.936    88553858.814 8
        38.250
  20240678.986   106365496.626 8        53.000    20240685.986    82882209.031 9
        45.750
  24239419.180   127379001.540 3        36.250    24239423.820    99256364.751 6
        18.500
  22545008.570   118474823.340 7        47.500    22545011.810    92318049.339 7
        32.250
  22983214.068   120777619.411 7        47.750    22983221.648    94112433.164 7
        32.250
 18  2 20  8  3  0.0000000  0  8G02G05G06G07G09G16G23G30
  21928181.574   115233360.117 6        46.500    21928184.594    89792227.024 8
        37.000
  23714981.202   124623052.473 6        45.250    23714986.482    97108873.744 7
        28.000
  21174733.420   111273968.331 7        49.750    21174741.260    86706987.804 8
        40.500
  21612877.436   113576453.227 7        51.000    21612883.156    88501133.947 8
        38.500
  20246571.746   106396462.766 8        54.500    20246579.186    82906338.482 9
        45.500
  24234482.360   127353053.765 4        38.000    24234486.920    99236145.672 6
        20.750
  22559410.450   118550506.193 7        47.250    22559413.990    92377022.968 7
        31.250
  22963502.348   120674032.081 7        47.250    22963511.328    94031715.771 7
        33.000
 18  2 20  8  3 30.0000000  0  8G02G05G06G07G09G16G23G30
  21923124.354   115206783.776 6        46.000    21923126.894    89771518.175 8
        36.500
  23696247.442   124524616.831 5        41.250    23696252.542    97032170.623 6
        25.500
  21185438.840   111330226.906 7        50.000    21185446.760    86750825.631 8
        40.000
  21600081.496   113509210.899 7        52.000    21600087.296    88448737.353 8
        38.500
  20252536.466   106427807.008 8        54.250    20252543.626    82930762.563 9
        45.250
  24229653.160   127327678.210 4        38.750    24229659.240    99216372.543 6
        21.500
  22573846.450   118626368.076 7        48.250    22573850.370    92436136.112 7
        32.250
  22943831.688   120570663.670 7        47.500    22943841.188    93951169.027 8
        33.500
 18  2 20  8  4  0.0000000  0  8G02G05G06G07G09G16G23G30
  21918167.554   115180738.441 6        46.000    21918170.714    89751223.101 8
        36.000
  23677536.384   124426282.447 6        45.000    23677541.964    96955546.422 7
        27.500
  21196244.740   111387011.354 7        50.250    21196252.540    86795073.231 8
        40.000
  21587366.476   113442391.563 7        51.500    21587371.776    88396670.351 8
        38.250
  20258572.646   106459528.074 8        54.500    20258579.866    82955480.278 9
        45.250
  24224933.340   127302876.290 4        38.500    24224939.340    99197046.359 6
        21.000
  22588316.410   118702407.594 7        48.250    22588320.030    92495387.659 7
        31.500
  22924203.608   120467516.720 7        47.500    22924210.828    93870794.776 7
        33.000
 18  2 20  8  4 30.0000000  0  8G02G05G06G07G09G16G23G30
  21913312.854   115155225.233 6        46.750    21913315.974    89731342.673 8
        36.000
  23658841.824   124328051.202 6        43.500    23658847.924    96879002.597 6
        24.750
  21207150.260   111444319.888 7        49.750    21207158.280    86839729.208 8
        40.000
  21574732.098   113375997.193 7        51.750    21574737.178    88344934.499 8
        38.500
  20264680.286   106491624.924 8        54.500    20264687.566    82980490.803 9
        45.250
  24220322.900   127278649.917 4        38.250    24220328.660    99178168.697 6
        19.000
  22602819.750   118778623.754 7        48.250    22602823.070    92554776.858 7
        32.750
  22904617.728   120364593.823 6        46.500    22904628.148    93790595.161 8
        34.750
 18  2 20  8  5  0.0000000  0  8G02G05G06G07G09G16G23G30
  21908559.234   115130245.185 6        46.750    21908562.214    89711877.686 8
        36.250
  23640170.944   124229924.870 6        45.000    23640175.844    96802540.535 7
        27.250
  21218155.260   111502150.502 7        49.750    21218163.060    86884792.003 8
        40.000
  21562178.718   113310029.427 7        51.500    21562183.938    88293531.059 8
        38.500
  20270859.666   106524096.298 8        53.750    20270866.926    83005793.168 9
        45.500
  24215822.000   127255000.447 3        36.000    24215828.180    99159740.491 5
        17.250
  22617356.470   118855015.085 7        47.500    22617360.130    92614302.550 7
        32.000
  22885075.488   120261897.350 7        47.500    22885084.108    93710571.954 8
        33.500
 18  2 20  8  5 30.0000000  0  8G02G05G06G07G09G16G23G30
  21903907.674   115105799.239 7        48.750    21903910.074    89692828.884 8
        36.250
  23621516.764   124131905.008 6        43.000    23621522.624    96726161.354 6
        25.750
  21229258.740   111560501.376 7        50.000    21229266.660    86930260.194 8
        40.500
  21549706.618   113244490.106 7        51.250    21549712.098    88242461.473 8
        38.500
  20277109.846   106556941.065 8        54.250    20277116.926    83031386.479 9
        45.500
  24211432.300   127231929.047 4        38.000    24211435.700    99141762.826 5
        16.750
  22631926.650   118931580.670 7        47.500    22631929.770    92673964.015 7
        32.250
  22865576.488   120159429.850 6        47.000    22865584.988    93630727.173 7
        33.000
 18  2 20  8  6  0.0000000  0  8G02G05G06G07G09G16G23G30
  21899357.394   115081888.790 7        47.500    21899360.334    89674197.360 8
        36.500
  23602886.344   124033992.701 6        44.000    23602890.604    96649866.128 6
        25.250
  21240461.020   111619370.800 7        50.500    21240469.000    86976132.452 8
        40.500
  21537317.098   113179381.073 7        51.500    21537322.778    88191727.174 8
        38.250
  20283430.826   106590158.308 8        55.000    20283437.926    83057270.046 9
        45.000
  24207152.420   127209437.432 5        39.250    24207156.640    99124236.853 6
        18.500
  22646529.710   119008319.612 7        48.750    22646533.430    92733760.574 7
        31.750
  22846121.548   120057194.049 7        47.750    22846130.928    93551062.943 8
        34.000
 18  2 20  8  6 30.0000000  0  8G02G05G06G07G09G16G23G30
  21894909.334   115058514.035 7        48.250    21894912.194    89655983.251 8
        37.000
  23584274.624   123936190.217 6        45.250    23584280.124    96573656.358 7
        27.000
  21251761.940   111678756.516 7        51.000    21251769.680    87022406.995 8
        39.500
  21525009.198   113114703.886 7        51.500    21525014.838    88141329.378 8
        38.250
  20289822.266   106623746.524 8        54.500    20289829.306    83083442.676 9
        45.000
  24202983.340   127187526.727 5        41.000    24202986.820    99107163.601 6
        19.750
  22661165.210   119085230.385 7        47.750    22661168.530    92793691.012 7
        32.500
  22826711.288   119955192.092 7        47.500    22826719.488    93471580.928 8
        33.500
 18  2 20  8  7  0.0000000  0  8G02G05G06G07G09G16G23G30
  21890563.754   115035676.363 7        48.000    21890566.534    89638187.656 8
        36.750
  23565684.464   123838498.642 6        44.750    23565690.384    96497533.093 7
        28.750
  21263160.540   111738656.802 7        49.000    21263168.880    87069082.529 8
        40.250
  21512783.958   113050460.203 7        52.000    21512789.738    88091269.371 8
        39.000
  20296284.186   106657704.805 8        53.250    20296291.586    83109903.670 9
        45.000
  24198924.500   127166198.406 5        40.500    24198929.660    99090544.108 6
        19.750
  22675833.230   119162311.813 6        47.000    22675837.330    92853754.436 7
        31.000
  22807346.288   119853426.707 7        49.000    22807354.968    93392283.237 8
        34.750
 18  2 20  8  7 30.0000000  0  8G02G05G06G07G09G16G23G30
  21886320.334   115013376.512 7        47.500    21886322.594    89620811.139 8
        36.500
  23547116.124   123740919.925 6        46.000    23547120.164    96421497.704 7
        26.500
  21274656.740   111799069.605 7        50.500    21274665.020    87116157.409 8
        40.500
  21500641.738   112986651.988 8        52.500    21500647.638    88041548.689 8
        38.250
  20302816.406   106692031.860 8        54.500    20302823.926    83136652.019 9
        45.000
  24194976.880   127145453.807 5        40.250    24194982.200    99074379.485 6
        20.750
  22690533.350   119239562.550 7        47.500    22690536.850    92913949.795 7
        31.500
  22788025.928   119751900.310 7        48.000    22788035.608    93313171.800 8
        33.750
 18  2 20  8  8  0.0000000  0  8G02G05G06G07G09G16G23G30
  21882179.096   114991615.461 7        47.250    21882181.956    89603854.459 8
        36.500
  23528568.464   123643455.324 6        45.250    23528574.624    96345551.278 7
        27.750
  21286249.858   111859992.965 7        49.500    21286258.218    87163630.147 8
        40.000
  21488582.438   112923281.211 7        51.000    21488588.318    87992168.866 8
        38.750
  20309418.926   106726726.516 8        53.000    20309425.986    83163686.800 9
        45.500
  24191140.040   127125294.048 3        37.000    24191146.880    99058670.585 6
        20.000
  22705266.290   119316981.785 7        47.750    22705270.150    92974276.449 7
        32.000
  22768752.710   119650615.352 7        48.750    22768760.130    93234248.465 8
        34.750
 18  2 20  8  8 30.0000000  0  8G02G05G06G07G09G16G23G30
  21878140.876   114970394.786 7        47.750    21878143.556    89587318.862 8
        36.750
  23510044.264   123546106.028 6        46.000    23510050.444    96269694.677 7
        29.000
  21297940.298   111921425.310 7        50.000    21297948.818    87211499.510 8
        39.500
  21476607.538   112860349.491 7        51.250    21476613.038    87943131.173 8
        38.750
  20316090.866   106761788.073 8        53.750    20316097.746    83191007.489 9
        45.000
  24187415.240   127105720.836 4        39.000    24187421.680    99043418.772 6
        18.250
  22720030.470   119394569.112 7        47.500    22720034.030    93034734.080 7
        32.000
  22749524.590   119549574.812 7        47.500    22749533.770    93155515.597 8
        33.750
 18  2 20  8  9  0.0000000  0  8G02G05G06G07G09G16G23G30
  21874205.696   114949714.682 7        47.750    21874208.276    89571204.485 8
        36.750
  23491541.424   123448874.201 6        43.250    23491545.784    96193929.613 7
        27.000
  21309727.118   111983364.174 7        50.500    21309735.538    87259763.542 8
        40.500
  21464715.458   112797858.396 8        52.250    21464721.118    87894436.803 8
        38.750
  20322832.446   106797214.890 8        54.000    20322839.066    83218612.797 9
        44.500
  24183802.660   127086735.068 3        36.000    24183808.740    99028624.702 6
        19.500
  22734826.410   119472322.407 7        47.250    22734830.450    93095321.032 7
        31.250
  22730344.450   119448780.644 6        47.000    22730352.110    93076974.719 8
        33.750
 18  2 20  8  9 30.0000000  0  8G02G05G06G07G09G16G23G30
  21870372.976   114929575.826 7        49.250    21870376.096    89555511.857 8
        36.250
  23473061.624   123351761.918 6        46.000    23473066.244    96118257.700 7
        28.250
  21321609.598   112045807.577 7        49.750    21321617.658    87308420.711 8
        40.000
  21452907.898   112735809.378 8        52.250    21452913.758    87846086.913 8
        38.500
  20329642.946   106833005.914 8        54.000    20329650.146    83246501.892 9
        44.500
  24180301.780   127068337.882 5        39.500    24180307.960    99014289.226 6
        19.500
  22749653.570   119550240.531 7        47.500    22749657.110    93156036.431 7
        31.000
  22711211.030   119348235.485 6        46.500    22711219.390    92998627.824 8
        33.250
 18  2 20  8 10  0.0000000  0  8G02G05G06G07G09G16G23G30
  21866644.416   114909979.289 7        48.000    21866646.876    89540241.824 8
        36.500
  23454604.184   123254769.946 6        44.000    23454610.724    96042679.573 7
        28.250
  21333587.798   112108753.545 7        49.750    21333595.958    87357469.488 8
        40.500
  21441185.078   112674204.453 8        52.250    21441190.758    87798083.079 8
        38.750
  20336523.106   106869160.041 8        54.500    20336530.426    83274673.929 9
        44.500
  24176914.020   127050530.948 5        41.000    24176918.380    99000413.705 6
        19.750
  22764512.630   119628322.638 7        47.250    22764516.050    93216879.607 7
        31.750
  22692126.050   119247941.814 7        47.250    22692134.530    92920476.936 8
        33.500
 18  2 20  8 10 30.0000000  0  8G02G05G06G07G09G16G23G30
  21863018.656   114890925.781 7        48.500    21863021.316    89525394.917 8
        36.000
  23436170.924   123157899.999 6        46.000    23436176.724    95967196.473 7
        28.750
  21345661.478   112172199.974 7        49.250    21345669.558    87406908.229 8
        40.000
  21429546.938   112613044.973 8        52.500    21429552.798    87750426.346 8
        38.750
  20343471.666   106905675.968 8        52.500    20343478.946    83303127.896 9
        44.750
  24173637.460   127033315.154 5        39.500    24173642.000    98986998.828 6
        19.250
  22779401.830   119706567.515 7        47.250    22779405.650    93277849.620 7
        31.500
  22673089.330   119147902.088 7        47.500    22673097.110    92842523.908 8
        33.750
 18  2 20  8 11  0.0000000  0  8G02G05G06G07G09G16G23G30
  21859496.376   114872416.671 7        48.500    21859499.276    89510972.223 8
        36.250
  23417760.064   123061153.535 6        44.000    23417765.664    95891809.614 7
        28.000
  21357830.038   112236145.295 7        50.000    21357837.538    87456735.711 8
        39.500
  21417993.838   112552333.181 8        52.750    21417999.338    87703118.457 8
        38.250
  20350489.286   106942553.098 8        54.500    20350496.906    83331863.314 9
        44.750
  24170473.980   127016692.148 4        38.000    24170478.720    98974045.786 6
        19.250
  22794322.108   119784974.531 7        47.500    22794325.968    93338945.971 7
        31.000
  22654101.010   119048119.290 6        46.250    22654110.270    92764771.091 8
        35.000
 18  2 20  8 11 30.0000000  0  8G02G05G06G07G09G16G23G30
  21856077.656   114854451.835 7        48.750    21856080.376    89496973.642 8
        36.500
  23399374.384   122964532.866 6        45.750    23399379.204    95816520.799 7
        28.000
  21370092.438   112300586.781 7        49.750    21370100.558    87506949.850 8
        40.250
  21406526.078   112492070.068 7        52.000    21406531.938    87656160.202 8
        38.750
  20357575.086   106979789.578 8        53.750    20357582.686    83360878.743 9
        45.000
  24167423.880   127000662.264 5        41.000    24167428.020    98961554.958 6
        19.250
  22809273.328   119863541.930 7        47.500    22809276.448    93400167.281 7
        30.750
  22635161.690   118948595.272 7        48.000    22635171.050    92687219.916 8
        34.750
 18  2 20  8 12  0.0000000  0  8G02G05G06G07G09G16G23G30
  21852763.276   114837032.465 7        49.250    21852765.836    89483400.094 8
        36.250
  23381012.186   122868039.395 6        45.750    23381017.546    95741331.088 7
        27.000
  21382449.538   112365522.429 7        50.000    21382457.978    87557549.044 8
        39.500
  21395144.098   112432257.441 8        52.250    21395150.018    87609552.965 8
        39.000
  20364729.126   107017384.338 8        54.000    20364736.426    83390173.355 9
        45.250
  24164486.320   126985226.719 4        38.500    24164491.600    98949527.287 6
        19.250
  22824254.368   119942268.673 7        47.500    22824258.548    93461512.776 7
        31.250
  22616273.350   118849332.536 7        47.750    22616281.310    92609872.336 8
        34.000
 18  2 20  8 12 30.0000000  0  8G02G05G06G07G09G16G23G30
  21849552.256   114820159.205 7        49.000    21849554.596    89470252.090 8
        36.750
  23362675.126   122771674.641 6        46.500    23362680.786    95666241.675 7
        28.500
  21394899.718   112430950.070 7        50.250    21394908.218    87608531.590 8
        39.750
  21383848.158   112372896.836 8        52.250    21383853.958    87563297.950 8
        38.750
  20371951.026   107055336.231 8        54.500    20371958.486    83419746.252 9
        44.500
  24161663.040   126970386.785 5        41.250    24161667.240    98937963.694 6
        20.500
  22839265.808   120021153.849 7        47.750    22839269.448    93522981.704 7
        31.000
  22597434.010   118750333.633 6        47.000    22597443.690    92532730.336 8
        34.500
 18  2 20  8 13  0.0000000  0  8G02G05G06G07G09G16G23G30
  21846445.696   114803833.108 7        49.500    21846448.316    89457530.445 8
        36.250
  23344361.386   122675440.183 6        46.500    23344367.426    95591253.786 7
        29.250
  21407443.638   112496867.966 7        48.750    21407452.018    87659896.139 8
        39.500
  21372638.298   112313989.993 8        52.500    21372643.878    87517396.524 8
        39.000
  20379241.126   107093644.438 8        54.500    20379248.126    83449596.797 9
        45.000
  24158953.040   126956143.684 5        41.000    24158957.160    98926865.198 6
        20.750
  22854307.208   120100196.541 6        46.500    22854310.868    93584573.389 7
        30.500
  22578646.370   118651601.333 7        48.250    22578654.450    92455796.104 8
        34.500
 18  2 20  8 13 30.0000000  0  8G02G05G06G07G09G16G23G30
  21843442.656   114788054.446 7        49.500    21843445.496    89445235.372 8
        36.250
  23326073.886   122579337.747 6        46.500    23326079.606    95516368.775 7
        29.500
  21420080.138   112563273.495 7        49.500    21420088.718    87711640.671 8
        40.250
  21361515.518   112255538.200 7        51.750    21361521.238    87471849.692 8
        39.000
  20386598.264   107132307.266 8        53.750    20386605.084    83479723.674 9
        44.750
  24156355.440   126942498.099 5        41.250    24156360.620    98916232.279 6
        21.000
  22869378.028   120179395.106 6        45.750    22869381.548    93646286.530 7
        29.750
  22559909.290   118553137.636 7        47.750    22559917.430    92379071.127 8
        34.500
 18  2 20  8 14  0.0000000  0  8G02G05G06G07G09G16G23G30
  21840544.456   114772824.192 7        49.000    21840547.596    89433367.629 8
        36.250
  23307811.006   122483368.668 6        46.750    23307816.726    95441587.672 7
        28.000
  21432809.238   112630164.959 7        50.250    21432817.398    87763763.853 8
        39.750
  21350479.178   112197543.555 7        51.500    21350484.798    87426659.070 8
        39.250
  20394023.264   107171324.039 8        54.500    20394030.304    83510126.346 9
        44.750
  24153872.200   126929451.473 5        39.250    24153878.080    98906066.076 6
        19.750
  22884478.488   120258749.056 6        46.500    22884482.348    93708120.758 7
        31.000
  22541223.970   118454945.464 7        48.250    22541232.670    92302557.776 8
        35.250
 18  2 20  8 14 30.0000000  0  8G02G05G06G07G09G16G23G30
  21837750.736   114758143.208 7        49.250    21837754.196    89421927.901 8
        36.250
  23289574.926   122387534.832 6        46.750    23289579.666    95366911.960 7
        28.750
  21445630.298   112697540.042 7        49.500    21445638.458    87816263.879 8
        39.750
  21339530.558   112140007.533 8        52.250    21339536.538    87381825.826 8
        39.000
  20401514.604   107210693.417 8        53.500    20401521.944    83540803.781 9
        44.750
  24151504.060   126917004.580 5        39.750    24151508.700    98896367.209 6
        20.250
  22899608.788   120338257.157 6        46.500    22899612.708    93770075.094 7
        31.000
  22522590.450   118357027.159 7        48.250    22522598.730    92226257.789 8
        35.000
 18  2 20  8 15  0.0000000  0  8G02G05G06G07G09G16G23G30
  21835061.496   114744011.164 7        49.000    21835064.976    89410915.906 8
        36.000
  23271364.126   122291838.416 6        46.250    23271369.706    95292343.322 7
        27.500
  21458542.838   112765396.224 7        50.000    21458551.598    87869138.793 8
        39.750
  21328669.498   112082931.187 7        51.750    21328675.258    87337350.770 8
        39.500
  20409073.444   107250413.933 8        53.750    20409080.604    83571754.821 9
        45.000
  24149249.980   126905158.137 4        38.750    24149255.160    98887136.227 6
        18.500
  22914767.388   120417917.940 6        45.750    22914771.648    93832148.407 7
        30.750
  22504009.770   118259384.811 7        47.750    22504018.730    92150172.851 8
        35.000
 18  2 20  8 15 30.0000000  0  8G02G05G06G07G09G16G23G30
  21832477.196   114730429.512 7        48.750    21832479.956    89400332.788 8
        36.250
  23253180.366   122196280.483 6        46.000    23253185.986    95217882.577 7
        28.000
  21471546.858   112833731.793 7        50.250    21471555.218    87922387.264 8
        39.250
  21317895.958   112026316.598 7        52.000    21317901.538    87293235.525 8
        39.000
  20416698.804   107290484.953 8        54.500    20416706.004    83602978.986 9
        44.500
  24147110.020   126893913.520 4        38.500    24147115.700    98878374.210 6
        20.000
  22929955.828   120497730.717 6        45.750    22929959.068    93894340.155 7
        30.750
  22485482.050   118162021.421 7        49.000    22485491.070    92074305.283 8
        36.000
 18  2 20  8 16  0.0000000  0  8G02G05G06G07G09G16G23G30
  21829997.656   114717398.490 7        47.750    21830000.316    89390178.739 8
        35.750
  23235022.626   122100862.855 6        46.000    23235029.146    95143531.197 7
        28.000
  21484641.778   112902543.929 7        48.500    21484650.178    87976007.067 8
        39.250
  21307210.578   111970164.424 8        52.250    21307216.718    87249480.606 8
        39.000
  20424390.084   107330904.599 8        53.500    20424397.304    83634474.808 9
        44.750
  24145085.420   126883271.043 4        38.500    24145090.760    98870081.398 6
        20.000
  22945172.168   120577694.080 6        45.500    22945175.988    93956649.248 7
        29.500
  22467008.172   118064938.800 7        48.750    22467016.592    91998656.499 8
        35.000
 18  2 20  8 16 30.0000000  0  8G02G05G06G07G09G16G23G30
  21827622.736   114704918.627 7        48.500    21827625.276    89380454.162 8
        35.500
  23216892.126   122005587.611 6        45.250    23216899.046    95069290.751 7
        28.000
  21497826.378   112971830.754 7        49.000    21497834.678    88029996.772 8
        39.500
  21296613.638   111914476.687 7        52.000    21296618.918    87206087.597 8
        39.500
  20432147.944   107371672.148 8        53.250    20432155.164    83666241.723 9
        44.500
  24143174.940   126873231.884 5        39.250    24143179.880    98862258.670 6
        20.250
  22960417.348   120657807.151 6        46.000    22960420.968    94019074.979 7
        29.500
  22448587.772   117968139.770 7        48.250    22448597.572    91923228.692 8
        36.000
 18  2 20  8 17  0.0000000  0  8G02G05G06G07G09G16G23G30
  21825352.556   114692990.716 7        48.000    21825355.456    89371159.670 8
        36.250
  23198789.526   121910455.463 6        45.250    23198795.166    94995161.823 7
        28.750
  21511101.078   113041590.018 7        49.500    21511109.898    88084354.620 8
        39.500
  21286105.218   111859254.661 7        52.000    21286110.658    87163057.476 8
        39.750
  20439971.844   107412786.326 8        54.500    20439978.964    83698278.741 9
        44.500
  24141379.900   126863797.035 5        41.250    24141384.480    98854906.844 6
        21.000
  22975690.888   120738069.055 6        46.250    22975694.188    94081616.699 7
        29.750
  22430221.972   117871626.729 7        48.000    22430230.392    91848023.758 8
        35.000
 18  2 20  8 17 30.0000000  0  8G02G05G06G07G09G16G23G30
  21823187.836   114681615.361 7        48.750    21823190.736    89362295.763 8
        36.000
  23180714.846   121815468.852 6        45.250    23180718.746    94921146.292 7
        28.000
  21524465.118   113111819.345 7        49.250    21524473.258    88139078.750 8
        40.000
  21275685.580   111804499.969 8        52.500    21275690.720    87120391.503 8
        39.000
  20447861.124   107454245.907 8        54.750    20447868.044    83730584.898 9
        44.500
  24139698.860   126854966.994 5        39.750    24139703.620    98848026.280 6
        20.000
  22990991.788   120818478.791 6        45.250    22990995.388    94144273.592 7
        30.000
  22411911.312   117775402.030 7        49.000    22411919.352    91773043.487 8
        36.500
 18  2 20  8 18  0.0000000  0  8G02G05G06G07G09G16G23G30
  21821128.416   114670792.639 7        48.500    21821131.756    89353862.457 8
        36.500
  23162667.986   121720629.790 6        44.250    23162671.466    94847245.730 7
        28.500
  21537918.418   113182516.396 7        50.250    21537926.698    88194167.330 8
        39.750
  21265355.120   111750214.142 8        52.250    21265360.820    87078090.876 8
        39.500
  20455816.284   107496049.659 8        54.750    20455823.164    83763159.246 9
        44.500
  24138133.480   126846742.601 5        39.500    24138138.920    98841617.683 6
        20.000
  23006321.068   120899034.625 6        46.000    23006324.548    94207044.373 7
        30.500
  22393655.452   117679468.057 7        48.000    22393664.252    91698289.756 8
        36.500
 18  2 20  8 18 30.0000000  0  8G02G05G06G07G09G16G23G30
  21819174.256   114660523.393 7        48.500    21819177.856    89345860.450 8
        37.000
  23144649.066   121625939.644 7        47.500    23144654.086    94773461.220 7
        29.500
  21551460.158   113253678.912 7        48.750    21551468.718    88249618.621 8
        39.500
  21255114.800   111696398.261 8        52.750    21255119.980    87036156.447 8
        39.500
  20463836.804   107538196.392 8        54.500    20463843.924    83796000.845 9
        44.500
  24136684.040   126839124.494 4        39.000    24136689.160    98835681.459 6
        19.750
  23021677.888   120979735.842 6        45.500    23021682.148    94269928.379 7
        29.750
  22375455.752   117583827.215 7        50.250    22375463.812    91623764.435 8
        36.000
 18  2 20  8 19  0.0000000  0  8G02G05G06G07G09G16G23G30
  21817325.776   114650807.755 7        48.250    21817328.496    89338289.816 8
        36.000
  23126658.866   121531400.253 7        48.250    23126664.566    94699794.162 7
        30.250
  21565090.158   113325304.527 7        50.500    21565098.398    88305430.766 8
        40.000
  21244963.320   111643053.918 8        52.750    21244968.840    86994589.448 8
        39.250
  20471922.044   107580684.935 8        54.500    20471929.144    83829108.803 9
        44.250
  24135349.140   126832113.483 4        39.000    24135355.020    98830218.329 6
        19.250
  23037062.808   121060581.491 6        45.750    23037066.788    94332924.962 7
        29.500
  22357311.852   117488481.964 7        49.500    22357319.972    91549469.447 8
        36.000
 18  2 20  8 19 30.0000000  0  8G02G05G06G07G09G16G23G30
  21815582.356   114641646.313 7        47.500    21815585.176    89331151.020 8
        37.000
  23108697.846   121437012.908 7        49.250    23108703.686    94626245.563 7
        31.250
  21578807.478   113397391.099 7        50.000    21578816.378    88361602.105 8
        40.000
  21234902.540   111590182.641 8        52.750    21234907.720    86953391.069 8
        40.000
  20480072.004   107623514.179 8        54.500    20480079.364    83862482.233 9
        44.250
  24134131.000   126825710.477 4        38.000    24134136.660    98825228.972 6
        20.000
  23052474.448   121141570.560 6        45.000    23052478.248    94396033.273 7
        29.250
  22339225.392   117393434.766 7        49.000    22339234.172    91475406.727 8
        36.000
 18  2 20  8 20  0.0000000  0  8G02G05G06G07G09G16G23G30
  21813944.596   114633040.005 7        47.500    21813947.236    89324444.799 8
        36.250
  23090764.626   121342779.239 7        48.250    23090771.366    94552816.699 7
        30.750
  21592612.796   113469936.420 7        49.500    21592621.016    88418130.901 8
        38.750
  21224931.480   111537786.096 8        52.500    21224936.900    86912562.607 8
        39.500
  20488286.784   107666683.152 8        55.000    20488293.824    83896120.384 9
        44.500
  24133030.140   126819916.241 5        40.250    24133034.280    98820713.950 6
        20.000
  23067913.068   121222702.399 6        45.750    23067916.468    94459252.879 7
        28.750
  22321195.432   117298688.224 7        50.000    22321203.032    91401578.271 8
        35.500
 18  2 20  8 20 30.0000000  0  8G02G05G06G07G09G16G23G30
  21812412.496   114624988.951 6        47.000    21812415.596    89318171.233 8
        36.000
  23072861.008   121248701.345 6        46.250    23072867.508    94479509.243 7
        29.250
  21606504.556   113542938.048 7        50.250    21606512.976    88475015.267 8
        39.000
  21215051.160   111485865.326 8        52.250    21215056.800    86872104.887 8
        40.000
  20496565.804   107710190.550 8        55.000    20496572.944    83930022.248 9
        44.000
  24132042.520   126814731.316 4        38.500    24132047.940    98816673.773 6
        20.250
  23083378.648   121303975.755 6        45.500    23083383.128    94522582.724 7
        29.750
  22303223.172   117204244.650 7        49.000    22303231.792    91327985.876 8
        37.000
 18  2 20  8 21  0.0000000  0  8G02G05G06G07G09G16G23G30
  21810985.836   114617492.782 6        47.000    21810989.016    89312330.060 8
        36.000
  23054989.228   121154781.273 6        44.500    23054994.728    94406324.788 7
        28.750
  21620482.596   113616392.981 7        49.000    21620490.956    88532252.860 8
        39.250
  21205262.000   111434421.051 8        52.500    21205267.480    86832018.451 8
        40.000
  20504909.144   107754034.538 8        54.250    20504916.724    83964186.391 9
        44.000
  24131172.220   126810155.877 5        39.750    24131176.640    98813108.457 6
        19.000
  23098871.286   121385388.769 6        45.250    23098875.066    94586021.402 7
        29.000
  22285309.512   117110105.784 7        50.000    22285317.672    91254630.939 8
        36.250
 18  2 20  8 21 30.0000000  0  8G02G05G06G07G09G16G23G30
  21809665.176   114610552.418 7        47.250    21809668.636    89306921.976 8
        36.750
  23037148.088   121061020.762 6        44.500    23037151.228    94333264.678 7
        28.750
  21634546.276   113690299.280 7        49.250    21634554.496    88589842.153 8
        38.500
  21195563.420   111383455.061 8        53.000    21195568.640    86792304.707 8
        39.250
  20513316.364   107798214.406 8        54.250    20513323.764    83998612.256 9
        43.750
  24130416.720   126806190.935 5        39.250    24130422.960    98810018.873 6
        19.250
  23114390.466   121466940.900 6        45.000    23114393.786    94649568.490 7
        29.250
  22267453.272   117016274.488 7        48.500    22267461.532    91181515.645 8
        37.000
 18  2 20  8 22  0.0000000  0  8G02G05G06G07G09G16G23G30
  21808450.376   114604168.107 7        47.250    21808453.596    89301947.180 8
        36.750
  23019337.328   120967421.446 6        46.500    23019339.648    94260330.165 7
        30.000
  21648695.836   113764654.506 7        50.250    21648704.316    88647781.274 8
        39.000
  21185956.000   111332968.742 7        52.000    21185961.640    86752964.728 8
        39.500
  20521786.804   107842728.887 8        54.500    20521794.244    84033298.850 9
        43.750
  24129778.260   126802837.011 4        38.750    24129783.060    98807405.424 6
        19.000
  23129935.126   121548631.147 6        46.250    23129939.426    94713223.180 7
        29.500
  22249657.352   116922753.055 7        48.750    22249665.772    91108641.813 8
        36.500
 18  2 20  8 22 30.0000000  0  8G02G05G06G07G09G16G23G30
  21807341.076   114598340.545 6        47.000    21807344.116    89297406.209 8
        36.500
  23001556.688   120873984.856 7        47.750    23001559.988    94187522.438 7
        30.250
  21662930.416   113839456.782 7        49.500    21662938.596    88706068.734 8
        38.250
  21176440.400   111282963.738 7        52.000    21176446.000    86713999.808 8
        39.750
  20530321.464   107887577.354 8        54.000    20530328.784    84068245.695 9
        43.500
  24129256.300   126800094.852 3        36.000    24129261.760    98805268.658 6
        18.500
  23145506.986   121630459.080 6        46.250    23145509.986    94776985.170 7
        29.000
  22231919.992   116829544.412 7        49.000    22231928.372    91036011.720 8
        36.000
 18  2 20  8 23  0.0000000  0  8G02G05G06G07G09G16G23G30
  21806338.516   114593069.616 6        47.000    21806341.116    89293298.987 8
        37.000
  22983806.868   120780712.459 7        48.000    22983811.948    94114842.640 7
        29.750
  21677249.316   113914702.978 7        49.000    21677257.076    88764702.107 8
        38.500
  21167016.600   111233440.748 8        52.250    21167022.220    86675410.478 8
        39.750
  20538918.724   107932757.887 8        53.500    20538925.764    84103451.297 9
        43.500
  24128851.540   126797964.831 4        38.500    24128856.680    98803608.928 6
        19.000
  23161104.226   121712423.124 6        45.500    23161108.646    94840853.223 7
        30.000
  22214242.792   116736650.222 7        49.000    22214251.272    90963626.654 8
        36.250
 18  2 20  8 23 30.0000000  0  8G02G05G06G07G09G16G23G30
  21805441.216   114588355.411 6        46.250    21805443.696    89289625.578 8
        36.250
  22966088.188   120687606.967 6        43.750    22966095.848    94042292.916 7
        29.500
  21691652.156   113990390.676 7        49.000    21691660.596    88823679.515 8
        38.000
  21157684.560   111184401.017 7        52.000    21157690.520    86637197.717 8
        39.750
  20547579.684   107978269.295 8        53.250    20547587.004    84138914.728 9
        44.000
  24128562.340   126796446.908 4        37.500    24128567.960    98802426.119 6
        19.500
  23176727.066   121794522.107 6        46.000    23176730.366    94904826.420 7
        28.750
  22196625.632   116644072.870 7        49.250    22196635.012    90891488.465 8
        37.250
 18  2 20  8 24  0.0000000  0  8G02G05G06G07G09G16G23G30
  21804650.716   114584198.953 6        46.750    21804653.116    89286386.774 8
        36.500
  22948403.848   120594669.752 6        44.000    22948410.768    93969874.348 7
        28.500
  21706138.676   114066517.945 7        49.250    21706146.856    88882999.444 8
        38.250
  21148444.780   111135846.418 8        52.250    21148450.820    86599362.975 8
        40.000
  20556302.704   108024110.885 8        53.250    20556310.004    84174635.441 9
        43.750
  24128391.140   126795542.049 4        39.000    24128396.000    98801721.022 6
        19.250
  23192375.366   121876755.385 6        46.500    23192379.846    94968904.256 7
        30.500
  22179070.154   116551815.149 7        49.250    22179077.774    90819599.348 8
        36.000
 18  2 20  8 24 30.0000000  0  8G02G05G06G07G09G16G23G30
  21803965.596   114580599.409 7        47.500    21803968.276    89283581.926 8
        36.750
  22930751.528   120501902.133 6        45.750    22930758.268    93897587.926 7
        29.250
  21720708.076   114143081.825 7        49.000    21720716.396    88942659.592 8
        37.750
  21139297.520   111087777.847 7        51.250    21139303.240    86561906.964 8
        39.750
  20565088.764   108070280.993 8        53.000    20565095.984    84210612.137 9
        44.000
  24128334.900   126795250.508 5        39.250    24128340.060    98801493.865 6
        19.250
  23208049.146   121959121.786 6        46.000    23208052.346    95033085.828 7
        28.750
  22161575.114   116459879.021 7        49.750    22161584.014    90747960.821 8
        37.500
 18  2 20  8 25  0.0000000  0  8G02G05G06G07G09G16G23G30
  21803387.036   114577557.818 7        47.750    21803389.816    89281211.841 8
        36.750
  22913131.168   120409305.793 6        46.750    22913138.328    93825434.906 7
        31.250
  21735360.556   114220080.276 7        48.750    21735368.756    89002658.354 8
        37.750
  21130243.400   111040196.262 7        51.750    21130248.920    86524830.418 8
        40.000
  20573937.304   108116778.863 8        54.000    20573944.604    84246844.235 9
        43.750
  24128397.200   126795573.403 4        39.000    24128401.880    98801745.450 6
        21.250
  23223748.466   122041620.759 6        46.500    23223752.666    95097370.707 7
        29.500
  22144141.994   116368267.170 6        46.750    22144150.934    90676574.996 8
        36.750
 18  2 20  8 25 30.0000000  0  8G02G05G06G07G09G16G23G30
  21802914.396   114575073.340 7        48.250    21802917.376    89279275.880 8
        36.250
  22895543.488   120316883.446 7        47.250    22895551.228    93753417.480 7
        31.750
  21750094.916   114297509.997 7        48.500    21750103.096    89062993.189 8
        38.000
  21121281.620   110993102.647 7        51.750    21121287.180    86488134.117 8
        40.750
  20582847.364   108163602.496 8        54.250    20582854.604    84283330.170 9
        44.000
  24128574.320   126796509.979 3        37.000    24128580.260    98802475.243 5
        17.750
  23239472.086   122124250.222 6        45.500    23239475.606    95161757.242 7
        27.500
  22126770.674   116276981.208 7        49.750    22126778.794    90605443.096 8
        37.500
 18  2 20  8 26  0.0000000  0  8G02G05G06G07G09G16G23G30
  21802547.656   114573147.214 6        47.000    21802550.536    89277775.009 8
        36.750
  22877988.288   120224635.933 6        46.250    22877996.048    93681536.299 7
        31.500
  21764911.196   114375369.217 7        47.500    21764918.956    89123662.687 8
        38.000
  21112413.280   110946498.733 7        50.750    21112418.980    86451819.391 8
        39.750
  20591819.344   108210751.365 8        53.000    20591826.644    84320069.541 9
        44.250
  24128869.700   126798061.045 4        37.750    24128875.880    98803683.888 6
        20.250
  23255220.906   122207010.026 6        45.500    23255225.066    95226245.360 7
        28.250
  22109462.174   116186024.033 7        50.000    22109470.254    90534567.398 8
        36.750
 18  2 20  8 26 30.0000000  0  8G02G05G06G07G09G16G23G30
  21802287.576   114571779.363 7        48.500    21802290.036    89276709.151 8
        37.000
  22860468.568   120132566.245 6        45.750    22860475.348    93609793.704 7
        31.000
  21779808.196   114453655.275 7        47.500    21779816.496    89184664.792 8
        37.500
  21103638.040   110900385.734 7        51.750    21103643.940    86415887.200 8
        40.250
  20600853.464   108258224.170 8        53.500    20600860.244    84357061.329 9
        44.000
  24129281.820   126800226.853 4        38.500    24129288.140    98805371.522 6
        20.750
  23270993.886   122289899.135 6        44.500    23270998.606    95290834.207 7
        28.000
  22092216.294   116095397.982 7        50.000    22092224.894    90463949.721 8
        37.250
 18  2 20  8 27  0.0000000  0  8G02G05G06G07G09G16G23G30
  21802132.896   114570969.720 7        48.000    21802136.136    89276078.251 8
        36.750
  22842983.168   120040675.639 7        47.250    22842989.368    93538190.648 7
        32.000
  21794786.016   114532365.593 6        46.500    21794794.536    89245997.485 8
        38.000
  21094956.780   110854764.543 7        50.750    21094962.640    86380338.231 8
        40.500
  20609948.744   108306019.651 8        52.750    20609955.684    84394304.550 9
        44.250
  24129811.000   126803008.112 5        40.250    24129816.100    98807538.715 6
        19.500
  23286791.986   122372916.296 6        44.000    23286796.166    95355522.850 7
        27.500
  22075034.114   116005105.182 7        49.750    22075042.514    90393591.717 8
        37.500
 18  2 20  8 27 30.0000000  0  8G02G05G06G07G09G16G23G30
  21802085.416   114570718.461 7        48.000    21802088.216    89275882.453 8
        36.500
  22825531.188   119948965.561 7        47.750    22825537.248    93466728.231 7
        31.750
  21809844.796   114611497.835 7        48.000    21809852.996    89307658.945 8
        37.000
  21086369.480   110809636.384 7        51.250    21086374.700    86345173.444 8
        40.250
  20619104.924   108354136.792 8        53.250    20619112.304    84431798.418 9
        44.250
  24130458.260   126806404.788 5        39.750    24130462.580    98810185.506 6
        19.750
  23302613.426   122456060.939 6        45.750    23302617.826    95420310.835 7
        28.500
  22057916.014   115915148.195 7        50.000    22057924.814    90323495.394 8
        37.750
 18  2 20  8 28  0.0000000  0  8G02G05G06G07G09G16G23G30
  21802143.636   114571025.560 7        47.750    21802146.756    89276121.753 8
        36.750
  22808113.208   119857438.241 6        46.750    22808119.728    93395408.231 7
        32.250
  21824982.776   114691049.251 6        46.500    21824991.516    89369647.016 8
        37.000
  21077875.820   110765002.294 7        50.500    21077881.340    86310393.642 8
        40.000
  20628322.284   108402574.183 7        52.000    20628329.584    84469541.831 9
        44.000
  24131221.340   126810416.808 4        38.250    24131226.920    98813311.749 6
        20.000
  23318459.826   122539331.763 6        44.000    23318464.086    95485197.140 7
        28.500
  22040861.774   115825529.122 7        49.750    22040870.334    90253662.377 8
        37.750
 18  2 20  8 28 30.0000000  0  8G02G05G06G07G09G16G23G30
  21802308.196   114571891.164 7        48.500    21802311.776    89276796.244 8
        37.500
  22790731.608   119766095.687 6        46.000    22790737.408    93324232.244 7
        31.500
  21840200.236   114771017.290 7        48.000    21840208.536    89431959.752 8
        37.500
  21069476.300   110720863.653 7        50.500    21069481.680    86275999.908 8
        40.000
  20637600.504   108451330.683 8        53.250    20637607.584    84507533.895 9
        43.750
  24132101.920   126815044.731 3        36.500    24132108.020    98816917.911 6
        19.500
  23334329.846   122622727.962 6        45.500    23334333.726    95550181.146 7
        28.500
  22023872.574   115736250.226 7        50.750    22023881.374    90184094.429 8
        37.500
 18  2 20  8 29  0.0000000  0  8G02G05G06G07G09G16G23G30
  21802579.716   114573315.502 7        47.500    21802582.476    89277906.107 8
        37.500
  22773385.470   119674939.130 7        47.250    22773390.890    93253201.153 7
        31.750
  21855496.456   114851399.556 7        47.500    21855504.896    89494595.269 8
        38.000
  21061171.540   110677221.159 7        50.000    21061176.960    86241992.778 8
        40.500
  20646938.784   108500405.218 7        51.500    20646946.124    84545773.786 9
        43.500
  24133100.020   126820288.697 4        38.500    24133106.180    98821004.106 6
        19.250
  23350223.386   122706248.671 6        45.750    23350227.366    95615262.177 7
        27.750
  22006948.554   115647313.954 7        50.250    22006957.574    90114793.476 8
        38.500
 18  2 20  8 29 30.0000000  0  8G02G05G06G07G09G16G23G30
  21802956.876   114575298.300 7        48.000    21802960.016    89279451.153 8
        37.000
  22756074.430   119583971.211 7        47.500    22756079.890    93182317.049 7
        31.500
  21870871.096   114932193.503 7        48.000    21870879.756    89557551.575 8
        37.500
  21052961.000   110634076.133 7        50.250    21052966.640    86208373.291 8
        40.000
  20656337.624   108549796.671 7        51.500    20656345.004    84584260.618 9
        43.250
  24134215.020   126826149.178 5        40.500    24134221.240    98825570.717 6
        20.000
  23366140.246   122789892.750 6        43.750    23366144.786    95680439.304 7
        28.000
  21990090.694   115558722.661 7        50.000    21990099.214    90045761.331 8
        38.250
 18  2 20  8 30  0.0000000  0  8G02G05G06G07G09G16G23G30
  21803440.816   114577839.496 7        48.750    21803443.296    89281431.295 8
        36.750
  22738799.910   119493193.500 6        46.500    22738805.390    93111581.191 7
        31.250
  21886323.854   115013396.279 7        47.500    21886331.974    89620826.445 8
        37.500
  21044845.900   110591429.450 7        50.500    21044851.300    86175142.120 8
        40.500
  20665796.584   108599503.647 7        51.000    20665804.104    84622993.315 9
        43.750
  24135447.700   126832625.952 5        40.750    24135453.800    98830617.518 6
        20.500
  23382080.706   122873659.500 6        44.500    23382084.486    95745712.084 7
        28.500
  21973298.294   115470478.387 7        50.500    21973307.014    89976999.583 8
        38.250
 18  2 20  8 30 30.0000000  0  8G02G05G06G07G09G16G23G30
  21804030.476   114580939.024 7        47.500    21804032.736    89283846.516 8
        37.250
  22721562.050   119402607.459 6        46.500    22721567.970    93040994.666 7
        31.250
  21901853.654   115095005.362 6        47.000    21901861.214    89684417.909 8
        37.250
  21036825.260   110549281.929 7        50.000    21036830.640    86142299.912 8
        40.000
  20675315.584   108649524.834 7        51.250    20675322.944    84661970.845 9
        43.750
  24136797.280   126839718.867 5        40.500    24136803.140    98836144.502 6
        19.500
  23398044.184   122957547.565 6        43.250    23398048.164    95811079.340 7
        27.750
  21956572.174   115382583.276 7        49.000    21956580.614    89908509.923 8
        38.250
 18  2 20  8 31  0.0000000  0  8G02G05G06G07G09G16G23G30
  21804726.096   114584596.991 6        47.000    21804729.016    89286696.859 8
        35.750
  22704360.990   119312215.163 7        47.750    22704367.050    92970559.120 7
        31.750
  21917460.294   115177018.362 7        47.750    21917468.414    89748324.125 8
        36.750
  21028899.880   110507635.305 7        51.000    21028905.420    86109848.004 8
        40.000
  20684893.644   108699859.340 7        52.000    20684900.884    84701192.524 9
        43.500
  24138265.380   126847428.830 5        40.750    24138269.620    98842152.245 6
        18.500
  23414030.184   123041556.412 6        44.500    23414033.644    95876540.746 7
        27.000
  21939913.154   115295039.947 7        50.000    21939921.594    89840294.371 8
        38.750
 18  2 20  8 31 30.0000000  0  8G02G05G06G07G09G16G23G30
  21805528.636   114588812.930 7        47.250    21805531.216    89289982.000 8
        37.000
  22687197.030   119222018.738 6        45.500    22687203.330    92900276.194 7
        32.250
  21933142.374   115259432.169 6        46.500    21933150.514    89812542.645 8
        36.750
  21021070.540   110466489.746 7        50.500    21021076.340    86077786.544 8
        39.750
  20694531.042   108750505.520 7        51.750    20694538.882    84740657.061 9
        43.750
  24139848.320   126855755.044 5        39.500    24139853.900    98848640.233 6
        18.250
  23430039.804   123125684.401 6        45.000    23430044.184    95942094.962 7
        27.500
  21923321.794   115207850.080 7        48.250    21923329.934    89772354.248 8
        39.000
 18  2 20  8 32  0.0000000  0  8G02G05G06G07G09G16G23G30
  21806436.956   114593587.122 6        47.000    21806439.896    89293702.142 8
        36.500
  22670070.950   119132019.881 7        47.750    22670076.870    92830147.231 7
        31.500
  21948901.614   115342244.462 7        48.250    21948910.034    89877071.707 8
        36.750
  21013336.340   110425846.640 7        49.750    21013342.160    86046116.605 8
        40.500
  20704228.022   108801462.450 7        51.500    20704235.342    84780363.754 9
        43.250
  24141550.220   126864697.588 5        40.250    24141556.080    98855608.418 6
        20.250
  23446070.784   123209931.009 6        43.750    23446074.764    96007741.645 7
        26.500
  21906797.594   115121016.295 7        50.000    21906806.154    89704691.580 8
        38.250
 18  2 20  8 32 30.0000000  0  8G02G05G06G07G09G16G23G30
  21807451.256   114598919.364 7        47.750    21807454.696    89297857.126 8
        36.500
  22652982.910   119042220.445 6        45.250    22652988.510    92760173.657 7
        31.500
  21964735.694   115425452.547 7        47.250    21964744.694    89941909.153 8
        37.000
  21005698.160   110385707.279 7        50.750    21005703.980    86014839.185 8
        40.250
  20713983.982   108852729.050 8        52.750    20713991.382    84820311.743 9
        43.250
  24143369.520   126874256.676 5        39.750    24143375.040    98863057.007 6
        20.250
  23462125.544   123294295.485 6        44.500    23462129.344    96073480.161 7
        27.500
  21890341.794   115034540.847 7        48.500    21890350.674    89637308.145 8
        38.750
 18  2 20  8 33  0.0000000  0  8G02G05G06G07G09G16G23G30
  21808572.676   114604809.394 6        47.000    21808576.036    89302446.741 8
        36.750
  22635933.130   118952622.177 6        47.000    22635938.150    92690356.829 7
        32.500
  21980644.614   115509053.842 6        47.000    21980653.014    90007052.978 8
        37.250
  20998155.720   110346072.269 7        50.500    20998161.320    85983954.778 8
        40.500
  20723798.442   108904303.891 7        52.000    20723805.882    84860499.921 9
        43.750
  24145304.800   126884432.309 4        39.000    24145311.340    98870986.020 5
        17.750
  23478201.804   123378776.862 6        43.500    23478205.024    96139309.748 7
        27.500
  21873954.396   114948425.740 7        48.500    21873962.736    89570205.483 8
        38.250
 18  2 20  8 33 30.0000000  0  8G02G05G06G07G09G16G23G30
  21809799.536   114611256.897 6        47.000    21809802.656    89307470.755 8
        36.500
  22618921.610   118863227.074 6        46.500    22618926.890    92620698.294 7
        32.750
  21996627.474   115593045.418 6        46.000    21996636.174    90072500.947 8
        36.750
  20990709.320   110306942.046 7        51.500    20990715.240    85953463.709 8
        40.750
  20733671.042   108956185.669 8        52.500    20733678.822    84900927.276 9
        43.500
  24147358.800   126895224.289 4        38.500    24147365.560    98879395.349 6
        19.250
  23494299.884   123463373.889 6        43.500    23494303.324    96205229.470 7
        26.500
  21857636.596   114862673.094 7        48.500    21857644.876    89503385.256 8
        38.250
 18  2 20  8 34  0.0000000  0  8G02G05G06G07G09G16G23G30
  21811132.516   114618261.838 6        47.000    21811135.496    89312929.139 8
        36.250
  22601949.410   118774037.153 7        47.500    22601954.870    92551199.651 7
        31.750
  22012684.434   115677424.936 6        46.500    22012694.074    90138251.176 8
        37.250
  20983359.482   110268317.916 7        50.000    20983365.182    85923366.993 8
        40.250
  20743602.262   109008373.526 7        52.000    20743609.022    84941593.128 9
        43.750
  24149530.500   126906632.340 5        40.250    24149536.180    98888284.697 6
        20.250
  23510420.544   123548085.928 6        43.500    23510423.724    96271238.810 7
        26.250
  21841387.836   114777285.386 7        49.500    21841396.176    89436849.416 8
        38.750
 18  2 20  8 34 30.0000000  0  8G02G05G06G07G09G16G23G30
  21812571.596   114625823.882 7        48.250    21812574.576    89318821.628 8
        36.500
  22585016.630   118685053.882 7        49.000    22585021.910    92481862.056 7
        32.750
  22028814.314   115762189.528 6        46.250    22028822.814    90204301.504 8
        36.000
  20976106.042   110230200.571 7        51.500    20976111.722    85893665.172 8
        40.500
  20753591.242   109060866.096 8        52.750    20753598.642    84982496.416 9
        43.750
  24151818.820   126918656.489 4        39.000    24151824.560    98897654.158 6
        18.250
  23526562.224   123632912.128 6        42.500    23526565.624    96337337.139 7
        27.000
  21825208.476   114692264.685 7        50.000    21825216.916    89370599.534 8
        38.500
 18  2 20  8 35  0.0000000  0  8G02G05G06G07G09G16G23G30
