     2.11           OBSERVATION DATA    G (GPS)             RINEX VERSION / TYPE
teqc  2016Nov7                          20180403 09:55:33UTCPGM / RUN BY / DATE
ISLA                                                        MARKER NAME
19802M001                                                   MARKER NUMBER
Automatic           EXAGONE                                 OBSERVER / AGENCY
495336              LEICA GRX1200GGPRO  7.5                 REC # / TYPE / VERS
09070003            LEIAR25         LEIT                    ANT # / TYPE
  4180664.1620   161075.8920  4798188.8220                  APPROX POSITION XYZ
        0.0000        0.0000        0.0000                  ANTENNA: DELTA H/E/N
     1     1                                                WAVELENGTH FACT L1/2
     9    C1    L1    D1    P2    L2    D2    P1    S1    S2# / TYPES OF OBSERV
    30.0000                                                 INTERVAL
    18                                                      LEAP SECONDS
Linux 2.4.21-27.ELsmp|Opteron|gcc|Linux x86_64|=+           COMMENT
teqc  2016Nov7                          20180403 09:55:32UTCCOMMENT
     2.11           OBSERVATION DATA    M (MIXED)           COMMENT
teqc  2016Nov7                          20180403 09:55:30UTCCOMMENT
teqc  2016Nov7      IGN-RGP             20180220 09:08:37UTCCOMMENT
teqc_2016 edited: GLONASS # 25 - 30 excluded                COMMENT
GN-RINEX 1.3        Geo++ Teria         20-FEB-18 08:00     COMMENT
Forced Modulo Decimation to 30 seconds                      COMMENT
teqc_2016 edited: all GLONASS satellites excluded           COMMENT
teqc_2016 edited: all SBAS satellites excluded              COMMENT
teqc_2016 edited: all Galileo satellites excluded           COMMENT
  2018     2    20     8     0    0.0000000     GPS         TIME OF FIRST OBS
                                                            END OF HEADER
 18  2 20  8  0  0.0000000  0 11G09G06G07G02G23G30G05G16G29G26G03
  20216813.220   106240084.682 9      -980.251    20216811.060    82784478.730 9
      -763.832                          51.150          50.900
  21115052.400   110960336.568 8     -1796.911    21115050.860    86462605.490 8
     -1400.190                          50.350          49.700
  21733602.020   114210849.375 9      2354.271    21733597.700    88995465.174 8
      1834.497                          50.850          47.350
  21917622.180   115177863.335 8       970.025    21917614.900    89748929.288 8
       755.863                          48.300          46.900
  22494527.420   118209547.053 8     -2511.594    22494520.260    92111318.626 8
     -1957.087                          49.300          44.700
  23125322.660   121524394.497 8      3502.401    23125321.000    94694337.908 8
      2729.146                          48.300          45.250
  23764767.580   124884689.065 8      3293.762    23764762.220    97312723.038 7
      2566.569                          47.650          39.250
  24280154.120   127593080.920 7      1011.220    24280148.720    99423143.334 7
       787.966                          43.850          38.650
  24950030.400   131113294.323 7      1044.826    24950025.540   102166189.485 5
       814.149                          40.200          31.650
  25085528.680   131825347.799 7      -839.449    25085528.000   102721048.859 6
      -654.118                          43.550          36.050
  25272448.360   132807589.674 7     -3413.393    25272449.180   103486409.703 6
     -2659.782                          41.600          35.150
 18  2 20  8  0 30.0000000  0 11G09G06G07G02G23G30G05G16G29G26G03
  20222442.080   106269664.937 9      -992.196    20222439.900    82807528.270 9
      -773.141                          51.750          51.300
  21125357.640   111014490.636 9     -1813.575    21125356.140    86504803.457 8
     -1413.176                          50.900          49.550
  21720196.260   114140401.754 9      2341.876    21720191.980    88940570.936 8
      1824.839                          51.250          46.750
  21912130.560   115149004.448 8       953.627    21912123.220    89726441.836 8
       743.085                          48.800          46.350
  22508879.120   118284965.175 8     -2516.772    22508872.020    92170085.986 7
     -1961.121                          49.650          44.050
  23105343.060   121419401.582 8      3496.779    23105341.680    94612525.279 7
      2724.764                          48.800          43.650
  23745969.040   124785901.784 8      3291.500    23745963.720    97235745.928 7
      2564.803                          48.800          38.850
  24274430.860   127563003.234 7       993.510    24274425.080    99399706.188 6
       774.165                          43.850          37.900
  24944113.200   131082200.447 7      1027.642    24944110.260   102141960.325 5
       800.759                          41.950          27.300
  25090368.240   131850779.690 8      -856.500    25090367.020   102740865.966 6
      -667.398                          44.600          35.250
  25291935.820   132909995.052 7     -3414.234    25291936.260   103566206.081 6
     -2660.442                          42.150          34.400
 18  2 20  8  1  0.0000000  0 11G09G06G07G02G23G30G05G16G29G26G03
  20228145.060   106299634.000 9     -1004.956    20228142.780    82830880.786 9
      -783.082                          51.950          51.300
  21135764.360   111069178.314 9     -1831.358    21135762.920    86547417.217 8
     -1427.032                          51.100          49.350
  21706868.480   114070363.346 9      2328.178    21706864.100    88885995.557 8
      1814.164                          51.750          46.550
  21906738.800   115120671.578 8       936.094    21906731.700    89704364.268 8
       729.424                          49.200          46.300
  22523266.360   118360570.595 8     -2522.917    22523259.400    92228999.259 7
     -1965.911                          49.850          43.700
  23085402.020   121314610.975 8      3490.132    23085400.600    94530870.273 7
      2719.584                          49.250          43.550
  23727189.500   124687212.878 8      3288.391    23727183.660    97158845.467 7
      2562.382                          49.800          39.100
  24268813.900   127533487.991 7       975.150    24268808.420    99376707.275 6
       759.854                          43.650          37.550
  24938300.300   131051653.919 7      1009.452    24938295.120   102118157.717 5
       786.596                          41.950          28.550
  25095310.560   131876752.146 8      -874.520    25095310.460   102761104.178 6
      -681.446                          44.700          35.000
  25311435.460   133012466.614 7     -3416.444    25311436.500   103646054.002 5
     -2662.165                          39.950          32.400
 18  2 20  8  1 30.0000000  0 11G09G06G07G02G23G30G05G16G29G26G03
  20233921.520   106329988.864 9     -1017.635    20233919.060    82854533.919 9
      -792.962                          51.800          51.550
  21146271.900   111124395.880 9     -1848.652    21146270.520    86590443.874 8
     -1440.509                          50.650          49.750
  21693618.600   114000734.354 9      2314.819    21693614.100    88831739.213 8
      1803.756                          51.050          46.750
  21901447.140   115092863.985 8       918.907    21901440.140    89682696.003 8
       716.032                          48.600          46.650
  22537688.700   118436360.033 8     -2528.587    22537681.840    92288055.937 7
     -1970.329                          49.400          43.950
  23065499.600   121210023.283 8      3483.540    23065498.160    94449373.393 7
      2714.448                          48.650          44.350
  23708428.380   124588621.660 8      3285.448    23708422.580    97082021.131 7
      2560.090                          49.150          39.250
  24263303.320   127504535.120 7       956.268    24263299.020    99354146.619 7
       745.143                          42.250          39.200
  24932591.340   131021653.515 7       992.058    24932586.560   102094780.807 5
       773.032                          41.800          29.150
  25100355.500   131903262.412 7      -892.167    25100353.860   102781761.553 6
      -695.198                          44.050          34.000
  25330947.500   133115001.645 7     -3418.212    25330947.820   103725951.347 6
     -2663.546                          39.800          34.700
 18  2 20  8  2  0.0000000  0 11G09G06G07G02G23G30G05G16G29G26G03
  20239771.580   106360730.451 9     -1031.453    20239769.060    82878488.398 9
      -803.729                          51.850          51.600
  21156880.380   111180143.698 9     -1867.544    21156878.920    86633883.718 8
     -1455.229                          50.800          49.950
  21680447.280   113931518.569 9      2299.913    21680442.660    88777804.855 8
      1792.142                          51.100          47.000
  21896256.200   115065584.439 8       900.210    21896248.940    89661439.216 8
       701.462                          49.100          46.750
  22552146.240   118512334.519 8     -2536.011    22552139.300    92347256.817 7
     -1976.111                          49.400          44.000
  23045636.740   121105643.152 8      3475.582    23045635.260    94368038.244 7
      2708.246                          48.800          44.300
  23689686.500   124490131.914 8      3280.896    23689680.400    97005275.874 7
      2556.543                          48.800          39.100
  24257901.320   127476148.577 7       936.343    24257897.520    99332027.250 6
       729.615                          44.000          36.750
  24926986.760   130992202.376 7       972.066    24926982.180   102071831.818 5
       757.450                          41.000          30.500
  25105502.860   131930311.822 7      -910.895    25105501.800   102802838.995 6
      -709.792                          43.650          35.200
  25350471.500   133217601.046 7     -3421.432    25350471.720   103805898.867 6
     -2666.054                          39.100          35.900
 18  2 20  8  2 30.0000000  0 11G09G06G07G02G23G30G05G16G29G26G03
  20245695.160   106391858.669 9     -1043.566    20245692.680    82902744.142 9
      -813.169                          52.250          51.350
  21167589.720   111236420.997 9     -1884.333    21167588.060    86677736.140 8
     -1468.313                          51.300          49.450
  21667355.080   113862719.022 9      2286.774    21667350.420    88724194.833 8
      1781.902                          51.600          46.550
  21891166.160   115038835.554 8       883.180    21891158.740    89640595.917 8
       688.191                          49.650          46.050
  22566638.840   118588493.756 8     -2541.231    22566631.900    92406601.647 7
     -1980.183                          49.750          43.350
  23025813.960   121001474.171 8      3469.208    23025812.480    94286867.632 7
      2703.279                          49.800          43.200
  23670964.520   124391747.061 8      3278.057    23670958.560    96928612.338 6
      2554.329                          49.200          38.400
  24252607.900   127448330.921 8       918.073    24252604.740    99310351.186 6
       715.383                          44.900          36.750
  24921487.420   130963302.802 7       954.363    24921482.500   102049312.746 6
       743.657                          43.350          34.200
  25110752.800   131957900.713 8      -928.279    25110751.900   102824336.836 6
      -723.332                          45.000          33.950
  25370008.060   133320264.988 7     -3422.792    25370008.160   103885896.698 6
     -2667.108                          41.200          35.700
 18  2 20  8  3  0.0000000  0 11G09G06G07G02G23G30G05G16G29G26G03
  20251691.260   106423368.206 9     -1056.252    20251688.840    82927297.026 9
      -823.054                          52.350          51.300
  21178398.720   111293221.861 9     -1901.811    21178396.880    86721996.546 8
     -1481.931                          51.750          49.150
  21654341.640   113794333.580 9      2272.856    21654337.000    88670907.491 8
      1771.058                          51.650          46.450
  21886176.420   115012614.375 8       865.490    21886169.020    89620163.822 8
       674.409                          49.650          45.900
  22581165.460   118664832.498 8     -2547.296    22581159.020    92466086.350 7
     -1984.905                          50.300          43.100
  23006031.120   120897514.753 8      3462.071    23006029.720    94205860.322 7
      2697.720                          49.600          43.900
  23652261.880   124293464.029 8      3274.685    23652256.440    96852028.180 7
      2551.701                          48.950          39.050
  24247422.900   127421079.637 8       899.117    24247418.720    99289116.417 6
       700.611                          46.900          35.500
  24916092.360   130934951.323 7       936.333    24916088.060   102027220.631 5
       729.604                          42.800          31.650
  25116104.440   131986023.984 8      -945.736    25116103.600   102846251.096 6
      -736.938                          45.500          34.150
  25389556.180   133422988.466 7     -3424.938    25389555.940   103965940.859 5
     -2668.789                          41.500          31.900
 18  2 20  8  3 30.0000000  0 11G09G06G07G02G23G30G05G16G29G26G03
  20257760.780   106455263.788 9     -1070.055    20257758.360    82952150.723 9
      -833.810                          51.850          51.650
  21189307.980   111350550.302 9     -1919.945    21189306.140    86766668.049 8
     -1496.062                          50.650          50.000
  21641408.500   113726369.783 9      2258.081    21641403.800    88617948.713 8
      1759.544                          50.850          47.200
  21881288.340   114986927.299 8       847.071    21881281.100    89600147.920 8
       660.056                          48.800          47.250
  22595727.280   118741355.328 8     -2554.006    22595720.860    92525714.505 7
     -1990.136                          49.400          43.850
  22986289.760   120793773.211 8      3453.898    22986288.340    94125022.787 7
      2691.351                          48.850          44.050
  23633579.780   124195290.161 8      3270.229    23633574.380    96775529.072 7
      2548.232                          48.250          39.350
  24242346.740   127394401.795 8       879.426    24242341.700    99268328.478 6
       685.267                          45.600          36.300
  24910802.840   130907154.776 7       916.994    24910799.220   102005560.962 5
       714.541                          41.400          30.400
  25121558.600   132014686.758 7      -964.836    25121558.560   102868585.669 6
      -751.825                          44.000          35.350
  25409115.800   133525776.209 7     -3427.660    25409115.500   104046035.189 5
     -2670.898                          39.050          32.000
 18  2 20  8  4  0.0000000  0 11G09G06G07G02G23G30G05G16G29G26G03
  20263902.700   106487539.980 9     -1082.183    20263900.200    82977301.000 9
      -843.259                          51.700          51.100
  21200316.340   111408400.215 9     -1937.046    21200314.600    86811745.906 8
     -1509.386                          50.700          49.750
  21628555.140   113658825.264 9      2244.496    21628550.500    88565316.637 8
      1748.960                          51.050          47.250
  21876501.380   114961771.307 8       829.646    21876493.920    89580545.845 8
       646.478                          48.800          47.300
  22610323.040   118818056.673 8     -2559.635    22610316.500    92585481.766 8
     -1994.521                          49.300          44.650
  22966589.460   120690247.854 8      3447.119    22966588.160    94044353.708 8
      2686.068                          49.050          45.300
  23614917.920   124097222.139 8      3267.038    23614912.560    96699112.432 6
      2545.741                          48.500          37.700
  24237378.900   127368294.745 8       860.814    24237373.340    99247985.326 6
       670.764                          44.950          36.100
  24905618.020   130879909.654 7       899.132    24905613.400   101984331.014 5
       700.622                          41.050          32.150
  25127114.840   132043883.788 7      -981.942    25127113.800   102891336.626 6
      -765.145                          42.700          34.250
  25428686.300   133628622.983 7     -3429.054    25428687.140   104126175.459 6
     -2671.988                          39.700          33.000
 18  2 20  8  4 30.0000000  0 11G09G06G07G02G23G30G05G16G29G26G03
  20270117.740   106520200.404 9     -1095.154    20270115.220    83002750.680 9
      -853.366                          52.150          51.000
  21211424.500   111466774.500 9     -1954.589    21211422.960    86857232.347 8
     -1523.057                          51.350          49.300
  21615782.880   113591706.693 9      2230.057    21615778.280    88513016.460 8
      1737.707                          51.400          46.800
  21871816.580   114937152.184 8       811.644    21871809.020    89561362.102 8
       632.450                          49.750          46.000
  22624953.460   118894940.206 8     -2565.953    22624947.040    92645390.990 7
     -1999.445                          50.200          43.050
  22946931.800   120586946.003 8      3439.630    22946930.520    93963858.793 7
      2680.233                          49.900          44.150
  23596277.420   123999266.484 8      3263.158    23596271.500    96622783.354 6
      2542.722                          49.000          38.400
  24232520.400   127342765.070 7       841.485    24232514.040    99228092.049 6
       655.702                          44.200          34.150
  24900539.420   130853221.793 7       880.050    24900534.620   101963535.304 5
       685.758                          40.750          26.900
  25132772.880   132073619.072 7     -1000.206    25132773.300   102914506.992 6
      -779.381                          43.600          33.650
  25448269.600   133731532.643 7     -3431.399    25448270.500   104206364.792 5
     -2673.811                          40.200          32.000
 18  2 20  8  5  0.0000000  0 11G09G06G07G02G23G30G05G16G29G26G03
  20276404.240   106553236.265 9     -1107.153    20276401.720    83028492.898 9
      -862.718                          52.700          50.600
  21222630.800   111525663.657 9     -1971.257    21222629.360    86903119.992 8
     -1536.046                          52.000          48.850
  21603090.580   113525008.232 9      2216.569    21603086.160    88461043.638 8
      1727.197                          52.200          46.300
  21867232.900   114913063.443 9       794.382    21867225.080    89542591.638 8
       618.999                          50.750          44.950
  22639616.920   118971996.867 9     -2571.145    22639610.500    92705435.115 7
     -2003.489                          51.100          42.450
  22927315.760   120483862.539 9      3432.711    22927314.420    93883534.028 7
      2674.840                          51.050          43.400
  23577657.520   123901417.597 9      3260.099    23577651.560    96546537.442 6
      2540.334                          50.700          37.900
  24227770.220   127317806.623 8       822.733    24227765.200    99208643.923 6
       641.092                          45.900          33.300
  24895565.940   130827084.200 8       862.576    24895560.880   101943168.266 5
       672.129                          44.800          28.650
  25138532.180   132103883.985 8     -1017.234    25138532.020   102938090.009 5
      -792.654                          45.650          32.200
  25467863.400   133834496.662 7     -3432.778    25467864.280   104286596.338 5
     -2674.892                          42.450          26.600
 18  2 20  8  5 30.0000000  0 11G09G06G07G02G23G30G05G16G29G26G03
  20282763.000   106586651.525 9     -1119.188    20282760.500    83054530.755 9
      -872.095                          52.550          50.600
  21233935.620   111585070.889 9     -1987.835    21233934.140    86949411.318 8
     -1548.963                          51.900          48.550
  21590479.560   113458736.851 9      2202.935    21590475.240    88409403.609 8
      1716.573                          52.050          46.450
  21862751.160   114889511.091 8       777.149    21862743.480    89524239.154 8
       605.570                          50.350          44.900
  22654314.160   119049230.883 9     -2576.412    22654307.720    92765617.438 7
     -2007.596                          50.900          42.400
  22907742.780   120381005.136 9      3425.664    22907741.300    93803385.419 7
      2669.350                          50.900          43.800
  23559058.960   123803681.951 8      3257.025    23559053.200    96470379.800 6
      2537.942                          50.300          38.250
  24223130.200   127293425.876 8       803.823    24223125.480    99189645.919 6
       626.355                          45.700          34.550
  24890697.940   130801502.964 7       844.513    24890691.920   101923234.821 4
       658.067                          43.650          23.600
  25144393.020   132134682.844 7     -1034.504    25144392.460   102962089.095 6
      -806.110                          42.950          34.800
  25487468.040   133937519.339 7     -3434.164    25487468.300   104366873.621 6
     -2675.974                          40.000          33.400
 18  2 20  8  6  0.0000000  0 11G09G06G07G02G23G30G05G16G29G26G03
  20289193.740   106620445.126 9     -1133.049    20289191.240    83080863.423 9
      -882.896                          52.200          51.000
  21245338.640   111644994.421 9     -2006.249    21245337.360    86996104.967 8
     -1563.313                          51.400          49.100
  21577950.240   113392894.386 9      2187.299    21577945.880    88358097.798 8
      1704.389                          51.650          47.000
  21858371.480   114866496.432 8       757.876    21858363.820    89506305.641 8
       590.553                          49.650          46.050
  22669044.840   119126641.181 8     -2583.548    22669038.300    92825937.133 7
     -2013.155                          50.000          43.100
  22888213.260   120278376.414 9      3416.828    22888211.620    93723415.000 7
      2662.464                          50.650          44.100
  23540482.160   123706060.705 8      3251.835    23540476.420    96394311.284 7
      2533.896                          49.200          38.500
  24218601.360   127269624.328 8       783.485    24218597.260    99171099.265 6
       610.506                          45.750          34.750
  24885936.180   130776478.895 7       824.669    24885929.660   101903735.597 5
       642.606                          38.650          30.900
  25150355.220   132166014.635 8     -1053.604    25150355.020   102986503.469 6
      -820.989                          45.650          34.150
  25507083.320   134040599.471 7     -3437.078    25507082.960   104447195.661 5
     -2678.250                          42.650          30.850
 18  2 20  8  6 30.0000000  0 11G09G06G07G02G23G30G05G16G29G26G03
  20295695.720   106654613.199 9     -1145.025    20295693.180    83107487.891 9
      -892.228                          52.550          50.750
  21256839.060   111705429.631 9     -2022.870    21256837.740    87043197.323 8
     -1576.264                          51.700          48.750
  21565502.340   113327480.031 9      2173.447    21565498.100    88307125.585 8
      1693.597                          52.000          47.050
  21854093.680   114844017.282 8       740.504    21854085.960    89488789.414 8
       577.017                          50.050          45.050
  22683808.280   119204223.897 9     -2588.820    22683801.860    92886391.154 7
     -2017.265                          50.700          42.750
  22868727.200   120175976.217 9      3409.658    22868725.580    93643622.651 7
      2656.878                          50.650          44.100
  23521926.700   123608553.598 8      3248.426    23521921.620    96318331.718 6
      2531.243                          49.150          38.200
  24214182.640   127246400.891 8       764.448    24214178.720    99153003.074 6
       595.674                          46.900          34.650
  24881278.300                         806.103

  25156418.340   132197875.831 7     -1070.779    25156417.880   103011330.356 6
      -834.374                          44.100          33.750
  25526709.260   134143733.429 7     -3438.310    25526710.220   104527559.687 6
     -2679.203                          40.850          34.650
 18  2 20  8  7  0.0000000  0 10G09G06G07G02G23G30G05G16G26G03
  20302269.420   106689157.986 9     -1157.175    20302266.820    83134405.909 9
      -901.694                          52.100          51.150
  21268437.180   111766377.971 9     -2039.602    21268435.820    87090689.508 8
     -1589.303                          51.000          49.450
  21553136.840   113262498.700 9      2159.362    21553132.500    88256490.780 8
      1682.619                          51.500          47.600
  21849918.720   114822078.200 8       722.873    21849911.160    89471694.020 8
       563.278                          48.800          46.750
  22698604.920   119281980.957 8     -2594.156    22698598.260    92946981.057 7
     -2021.422                          49.450          43.750
  22849285.640   120073810.448 8      3402.021    22849284.080    93564012.985 8
      2650.926                          50.100          45.100
  23503394.060   123511165.116 8      3244.828    23503389.320    96242444.591 7
      2528.438                          48.600          39.400
  24209874.400   127223760.212 8       745.490    24209870.340    99135360.993 6
       580.901                          45.050          34.650
  25162582.800   132230268.792 7     -1087.980    25162582.680   103036571.639 6
      -847.777                          44.150          36.050
  25546345.800   134246924.137 6     -3440.427    25546345.960   104607967.977 5
     -2680.856                          38.200          31.000
 18  2 20  8  7 30.0000000  0 11G09G06G07G02G23G30G05G16G29G26G03
  20308912.140   106724065.642 9     -1169.809    20308909.540    83161606.678 9
      -911.539                          52.200          51.000
  21280130.120   111827824.775 9     -2056.751    21280128.820    87138570.102 8
     -1602.663                          51.250          49.100
  21540851.700   113197939.825 9      2144.628    21540847.340    88206185.185 8
      1671.139                          51.650          47.400
  21845844.220   114800667.351 8       704.727    21845836.980    89455010.231 8
       549.139                          49.150          46.450
  22713432.140   119359898.477 8     -2600.045    22713425.320    93007695.980 7
     -2026.011                          50.150          42.650
  22829886.820   119971868.995 8      3394.015    22829885.220    93484578.099 8
      2644.687                          50.150          44.950
  23484881.900   123413884.475 8      3240.601    23484877.300    96166641.498 7
      2525.145                          48.650          38.900
  24205674.620   127201691.176 8       725.748    24205670.560    99118164.351 6
       565.518                          44.750          36.700
  24872285.820   130704726.664 6       769.295    24872278.880   101847823.112 5
       599.446                          38.050          28.250
  25168845.660   132263179.923 7     -1105.801    25168843.620   103062216.600 5
      -861.673                          42.300          32.450
  25565990.660   134350157.554 6     -3441.802    25565988.460   104688448.562 4
     -2681.924                          33.850          26.300
 18  2 20  8  8  0.0000000  0 10G09G06G07G02G23G30G05G16G29G26
  20315627.860   106759357.275 9     -1183.174    20315625.280    83189106.648 9
      -921.954                          52.200          50.850
  21291921.860   111889790.390 9     -2074.617    21291920.520    87186854.970 8
     -1616.585                          51.450          49.000
  21528651.660   113133827.683 9      2129.202    21528647.140    88156227.678 8
      1659.119                          52.000          47.250
  21841874.820   114779807.979 8       685.686    21841867.560    89438756.167 8
       534.302                          49.750          46.100
  22728293.960   119437997.871 8     -2606.748    22728287.120    93068552.622 7
     -2031.232                          50.150          42.750
  22810535.320   119870176.615 9      3385.176    22810533.820    93405337.302 7
      2637.800                          50.650          44.300
  23466394.920   123316735.346 8      3235.713    23466390.400    96090940.870 7
      2521.335                          48.650          38.500
  24201587.720   127180217.212 8       705.489    24201583.740    99101431.413 6
       549.731                          45.200          36.050
  24867947.800   130681935.178 7       749.802    24867941.760   101830063.423 6
       584.262                          40.150          32.700
  25175211.200   132296630.418 7     -1124.595    25175210.380   103088281.984 6
      -876.303                          43.550          35.100
 18  2 20  8  8 30.0000000  0 10G09G06G07G02G23G30G05G16G29G26
  20322414.360   106795020.926 9     -1195.430    20322411.820    83216896.491 9
      -931.504                          52.050          50.950
  21303809.880   111952261.994 9     -2091.234    21303808.480    87235534.099 8
     -1629.534                          51.050          49.050
  21516534.760   113070152.728 9      2114.729    21516530.060    88106610.837 8
      1647.842                          51.750          47.200
  21838008.500   114759490.436 8       667.780    21838000.960    89422924.299 8
       520.349                          49.550          46.100
  22743188.260   119516267.478 8     -2612.296    22743181.420    93129541.898 7
     -2035.557                          49.900          42.950
  22791229.720   119768725.041 9      3377.207    22791228.060    93326284.140 8
      2631.591                          50.550          44.600
  23447931.060   123219707.638 8      3231.829    23447926.620    96015334.878 7
      2518.309                          48.400          38.750
  24197612.500   127159328.869 8       686.039    24197608.260    99085154.800 6
       534.576                          45.450          35.000
  24863716.680   130659703.916 7       731.069    24863710.860   101812740.337 5
       569.653                          39.050          27.600
  25181677.040   132330608.415 7     -1141.896    25181675.360   103114758.330 5
      -889.789                          42.900          31.900
 18  2 20  8  9  0.0000000  0 10G09G06G07G02G23G30G05G16G29G26
  20329271.200   106831053.937 9     -1206.297    20329268.700    83244974.168 9
      -939.971                          51.950          51.350
  21315793.560   112015236.198 9     -2106.557    21315791.960    87284604.891 8
     -1641.474                          50.850          49.450
  21504501.220   113006915.568 9      2101.551    21504496.340    88057335.144 8
      1637.573                          51.600          47.750
  21834245.160   114739713.935 8       651.139    21834237.680    89407514.030 8
       507.382                          48.900          46.850
  22758114.340   119594704.169 8     -2616.380    22758107.360    93190661.377 7
     -2038.738                          49.650          43.450
  22771970.020   119667515.363 8      3370.430    22771968.540    93247419.492 8
      2626.312                          49.700          45.750
  23429490.780   123122802.608 8      3229.071    23429486.240    95939824.440 7
      2516.159                          47.800          40.700
  24193749.440   127139026.008 8       667.921    24193744.360    99069334.403 6
       520.459                          44.950          36.350
  24859592.580   130638031.943 7       714.024    24859587.740   101795853.103 4
       556.400                          41.200          25.600
  25188242.680   132365111.454 7     -1157.956    25188241.640   103141643.807 6
      -902.304                          42.350          33.550
 18  2 20  8  9 30.0000000  0 10G09G06G07G02G30G23G05G16G29G26
  20336197.960   106867454.140 9     -1220.075    20336195.460    83273337.959 9
      -950.708                          52.100          51.000
  21327872.200   112078709.940 9     -2124.707    21327870.640    87334064.923 8
     -1655.616                          51.000          49.000
  21492551.020   112944116.641 9      2085.330    21492546.100    88008400.917 8
      1624.934                          51.800          47.450
  21830584.680   114720478.001 8       631.512    21830577.220    89392524.976 8
       492.087                          49.300          46.200
  22752756.840   119566549.060 9      3360.784    22752755.220    93168744.456 8
      2618.795                          50.550          45.050
  22773071.780   119673305.710 8     -2623.366    22773064.760    93251909.309 7
     -2044.183                          50.050          42.550
  23411074.000   123026021.211 8      3223.357    23411069.860    95864410.371 7
      2511.708                          48.850          40.150
  24189997.800   127119308.920 8       646.731    24189992.400    99053970.427 6
       503.945                          46.400          35.500
  24855575.040   130616919.212 7       693.837    24855570.520   101779401.598 6
       540.659                          41.350          32.500
  25194907.600   132400137.325 7     -1177.039    25194906.680   103168936.732 6
      -917.171                          43.250          34.200
 18  2 20  8 10  0.0000000  0 10G09G06G07G02G30G23G05G16G29G26
  20343195.440   106904225.786 9     -1232.072    20343192.940    83301991.185 9
      -960.057                          52.150          51.000
  21340046.560   112142686.571 9     -2141.055    21340044.920    87383916.830 8
     -1668.354                          51.250          48.850
  21480685.620   112881763.311 9      2070.892    21480680.600    87959813.923 8
      1613.682                          52.050          47.050
  21827028.000   114701789.090 8       613.669    21827020.940    89377962.176 8
       478.182                          49.200          46.350
  22733591.280   119465834.083 8      3352.771    22733589.960    93090265.262 8
      2612.549                          50.350          44.950
  22788061.480   119752076.542 8     -2628.613    22788054.600    93313289.164 7
     -2048.271                          50.250          42.900
  23392681.880   122929369.550 8      3219.295    23392677.820    95789097.407 7
      2508.540                          49.300          39.650
  24186358.920   127100184.501 8       627.529    24186353.700    99039068.296 6
       488.981                          46.600          33.700
  24851664.960   130596371.840 7       675.614    24851661.200   101763390.523 5
       526.443                          41.850          27.150
  25201673.520   132435690.454 7     -1193.807    25201672.380   103196640.419 6
      -930.238                          43.350          34.500
 18  2 20  8 10 30.0000000  0 10G09G06G07G02G30G23G05G16G29G26
  20350261.840   106941359.661 9     -1244.063    20350259.280    83330926.664 9
      -969.399                          51.700          51.600
  21352314.680   112207156.013 8     -2157.471    21352313.020    87434152.737 8
     -1681.146                          50.300          49.350
  21468903.700   112819849.070 9      2056.216    21468898.720    87911569.070 8
      1602.246                          51.350          47.700
  21823574.060   114683639.948 8       595.695    21823567.160    89363819.983 8
       464.178                          48.600          47.000
  22714472.580   119365364.920 8      3344.606    22714471.240    93011977.617 8
      2606.188                          49.700          45.800
  22803081.580   119831007.596 8     -2633.908    22803074.920    93374793.856 7
     -2052.396                          49.300          43.900
  23374313.380   122832841.464 8      3215.342    23374308.440    95713880.696 7
      2505.461                          48.100          40.350
  24182831.220   127081645.873 8       607.861    24182826.040    99024622.633 6
       473.660                          45.050          36.650
  24847860.980   130576381.982 7       656.619    24847855.260   101747814.045 4
       511.673                          42.100          21.600
  25208537.280   132471761.603 7     -1211.085    25208536.460   103224747.831 6
      -943.701                          41.500          36.900
 18  2 20  8 11  0.0000000  0 10G09G06G07G02G30G23G05G16G29G26
  20357397.420   106978857.529 9     -1255.798    20357394.880    83360145.780 9
      -978.544                          51.900          51.150
  21364676.680   112272119.195 9     -2173.415    21364675.220    87484773.374 8
     -1693.571                          50.700          49.200
  21457206.180   112758378.636 9      2041.771    21457201.340    87863670.053 8
      1590.991                          51.450          47.500
  21820224.020   114666034.402 8       577.969    21820217.220    89350101.368 8
       450.364                          49.150          47.050
  22695401.780   119265147.047 8      3336.603    22695400.360    92933885.777 8
      2599.950                          50.000          45.750
  22818132.460   119910100.583 8     -2638.951    22818125.900    93436424.734 7
     -2056.326                          50.200          42.800
  23355969.020   122736440.931 8      3211.321    23355964.320    95638763.400 7
      2502.329                          48.400          40.500
  24179415.540   127063697.100 8       588.615    24179410.520    99010636.580 6
       458.658                          45.550          36.650
  24844164.060   130556953.490 7       638.587    24844159.700   101732674.873 6
       497.594                          42.100          32.750
  25215500.540   132508352.709 7     -1228.374    25215499.980   103253260.389 6
      -957.170                          41.700          36.250
 18  2 20  8 11 30.0000000  0 10G09G06G07G02G30G23G05G16G29G26
  20364603.100   107016723.983 9     -1267.927    20364600.620    83389652.099 9
      -987.995                          51.850          51.100
  21377133.320   112337579.695 8     -2189.777    21377132.100    87535781.519 8
     -1706.321                          50.400          49.200
  21445594.620   112697359.513 9      2026.901    21445589.840    87816122.687 8
      1579.404                          51.650          47.450
  21816978.700   114648978.743 8       559.821    21816971.680    89336811.240 8
       436.225                          49.150          46.550
  22676380.340   119165188.732 8      3328.056    22676378.900    92855996.189 8
      2593.290                          50.000          45.350
  22833215.060   119989360.168 8     -2644.271    22833208.640    93498185.413 7
     -2060.472                          50.150          43.000
  23337650.460   122640176.511 8      3207.064    23337645.800    95563752.182 7
      2499.011                          48.800          39.550
  24176113.240   127046345.044 8       568.901    24176108.780    98997115.553 6
       443.300                          45.150          35.200
  24840575.200   130538092.753 7       620.253    24840569.780   101717978.131 5
       483.314                          38.850          30.500
  25222563.080   132545468.294 7     -1245.511    25222562.540   103282181.547 6
      -970.530                          41.650          37.900
 18  2 20  8 12  0.0000000  0  9G09G06G07G02G30G23G05G16G26
  20371877.800   107054953.233 9     -1280.890    20371875.380    83419441.115 9
      -998.097                          52.350          50.650
  21389683.400   112403530.903 9     -2207.134    21389682.200    87587172.048 8
     -1719.846                          51.400          48.650
  21434068.260   112636788.787 9      2010.985    21434063.700    87768924.731 8
      1567.001                          51.900          46.900
  21813837.240   114632469.410 8       540.732    21813830.120    89323946.817 8
       421.349                          49.950          45.900
  22657407.800   119065487.855 9      3318.406    22657406.400    92778307.212 8
      2585.771                          50.700          45.000
  22848328.240   120068780.591 9     -2650.518    22848321.980    93560071.426 7
     -2065.340                          50.550          42.450
  23319357.320   122544045.091 8      3201.643    23319352.460    95488844.570 7
      2494.788                          49.100          40.000
  24172923.940   127029586.260 8       548.235    24172919.280    98984056.754 6
       427.193                          46.000          33.050
  25229724.880   132583102.488 7     -1263.630    25229724.440   103311506.993 6
      -984.642                          42.400          36.450
 18  2 20  8 12 30.0000000  0 10G09G06G07G02G30G23G05G16G29G26
  20379221.220   107093543.407 9     -1292.245    20379218.900    83449511.381 9
     -1006.944                          51.400          51.050
  21402326.320   112469969.975 8     -2222.733    21402325.240    87638942.726 8
     -1732.002                          50.250          49.450
  21422627.400   112576667.387 9      1996.558    21422622.980    87722076.895 8
      1555.759                          50.850          48.150
  21810799.700   114616506.381 8       523.012    21810792.500    89311508.094 8
       407.541                          48.800          47.400
  22638484.660   118966046.228 8      3310.442    22638483.340    92700820.263 8
      2579.565                          49.550          46.500
  22863471.660   120148360.173 8     -2655.232    22863465.400    93622081.472 7
     -2069.013                          49.200          43.550
  23301089.740   122448047.409 8      3197.681    23301084.980    95414041.189 7
      2491.697                          48.800          41.850
  24169847.640   127013421.390 8       528.988    24169843.360    98971460.766 6
       412.199                          45.300          35.700
  24833718.660   130502070.927 6       581.710    24833716.260   101689921.596 6
       453.285                          35.300          33.550
  25236984.440   132621253.673 7     -1280.305    25236984.480   103341235.093 6
      -997.647                          39.050          37.400
 18  2 20  8 13  0.0000000  0 10G09G07G06G02G30G23G05G16G29G26
  20386634.180   107132499.154 9     -1303.914    20386631.940    83479866.510 9
     -1016.036                          51.800          50.700
  21411273.400   112517002.563 9      1981.829    21411269.140    87675584.857 8
      1544.284                          51.250          46.900
  21415062.900   112536900.629 9     -2238.575    21415061.580    87691096.458 8
     -1744.345                          50.850          48.550
  21807867.240   114601096.160 8       505.058    21807860.120    89299500.118 8
       393.552                          49.250          46.150
  22619612.520   118866872.205 8      3301.967    22619611.020    92623541.822 8
      2572.962                          50.050          45.600
  22878646.380   120228103.531 8     -2660.138    22878640.240    93684219.125 7
     -2072.836                          49.600          42.650
  23282849.080   122352190.612 8      3193.542    23282844.680    95339347.601 7
      2488.475                          49.400          41.400
  24166885.920   126997857.163 8       509.471    24166880.500    98959332.792 6
       396.991                          45.250          34.850
  24830452.360   130484906.108 6       563.379    24830448.560   101676546.244 4
       438.989                          38.050          25.950
  25244343.920   132659926.175 7     -1297.187    25244343.260   103371369.481 6
     -1010.795                          42.200          35.200
 18  2 20  8 13 30.0000000  0 10G09G07G06G02G30G23G05G16G29G26
  20394113.800   107171805.027 9     -1316.394    20394111.580    83510494.453 9
     -1025.762                          51.150          51.000
  21400003.960   112457781.918 9      1966.308    21399999.660    87629438.910 8
      1532.188                          50.700          47.750
  21427889.900   112604306.488 8     -2255.031    21427888.560    87743620.480 8
     -1757.168                          50.050          49.550
  21805037.380   114586225.243 8       486.397    21805030.320    89287912.382 8
       379.011                          48.600          47.250
  22600789.040   118767954.019 8      3292.587    22600787.500    92546462.734 8
      2565.655                          49.550          46.550
  22893849.360   120307995.202 8     -2665.836    22893843.080    93746472.344 7
     -2077.277                          48.900          43.200
  23264632.760   122256462.605 8      3188.385    23264628.120    95264754.349 7
      2484.455                          49.400          42.800
  24164036.160   126982880.608 8       489.073    24164030.540    98947662.721 6
       381.090                          44.650          36.550
  24827293.040   130468297.329 6       543.868    24827287.020   101663604.369 6
       423.785                          38.200          32.500
  25251798.860   132699104.629 6     -1314.470    25251799.120   103401898.251 6
     -1024.252                          36.900          36.850
 18  2 20  8 14  0.0000000  0 10G09G07G06G02G30G23G05G16G29G26
  20401663.020   107211476.485 9     -1327.407    20401660.840    83541407.263 9
     -1034.344                          51.500          51.000
  21388822.560   112399023.730 9      1951.827    21388818.320    87583653.317 8
      1520.905                          51.050          47.250
  21440810.080   112672201.972 9     -2270.382    21440808.640    87796526.015 8
     -1769.130                          50.600          49.300
  21802313.600   114571910.807 8       468.772    21802306.340    89276758.268 8
       365.278                          49.250          46.700
  22582017.920   118669310.797 8      3284.526    22582016.460    92469597.898 8
      2559.371                          50.350          46.300
  22909083.460   120388050.904 8     -2670.215    22909077.220    93808853.384 7
     -2080.688                          49.350          43.100
  23246444.040   122160880.951 8      3184.580    23246439.540    95190275.132 7
      2481.493                          49.050          40.900
  24161301.420   126968509.329 7       469.835    24161296.080    98936464.328 6
       366.104                          44.450          35.600
  24824240.580   130452261.504 6       525.793    24824235.240   101651108.856 6
       409.708                          38.150          33.050
  25259353.380   132738804.426 7     -1330.977    25259354.120   103432819.067 7
     -1037.130                          41.750          39.850
 18  2 20  8 14 30.0000000  0 10G09G07G06G02G30G23G05G16G29G26
  20409279.440   107251501.063 9     -1340.105    20409277.260    83572595.234 8
     -1044.237                          52.450          50.350
  21377727.340   112340718.431 9      1935.808    21377723.140    87538220.633 8
      1508.423                          52.100          46.400
  21453820.780   112740573.628 9     -2287.119    21453819.460    87849802.581 8
     -1782.173                          51.850          47.850
  21799693.700   114558142.554 9       449.559    21799686.200    89266029.755 8
       350.306                          50.900          45.250
  22563297.440   118570933.758 9      3274.692    22563295.820    92392940.484 8
      2551.709                          51.650          45.100
  22924346.420   120468258.205 9     -2676.222    22924340.060    93871352.551 7
     -2085.368                          50.900          41.100
  23228281.460   122065436.398 9      3178.985    23228276.840    95115902.739 7
      2477.130                          51.350          40.250
  24158679.740   126954733.143 8       449.087    24158674.800    98925729.627 6
       349.932                          48.550          32.950
  24821296.140   130436787.466 7       506.195    24821290.700   101639051.387 5
       394.463                          41.100          27.350
  25267005.280   132779012.983 7     -1348.785    25267005.060   103464150.394 6
     -1050.999                          43.150          33.300
 18  2 20  8 15  0.0000000  0 10G09G07G06G02G30G23G05G16G29G26
  20416964.040   107291883.644 9     -1351.842    20416961.840    83604062.171 9
     -1053.384                          52.100          50.800
  21366719.780   112282873.470 9      1920.687    21366715.580    87493146.658 8
      1496.641                          51.600          46.650
  21466922.840   112809425.423 9     -2302.796    21466921.500    87903453.287 8
     -1794.387                          51.300          48.400
  21797178.740   114544926.534 8       431.511    21797171.200    89255731.557 8
       336.242                          49.850          45.950
  22544629.280   118472831.474 9      3265.717    22544627.660    92316497.164 8
      2544.715                          50.850          45.800
  22939639.060   120548621.983 8     -2681.173    22939632.600    93933973.648 7
     -2089.228                          49.750          41.800
  23210146.740   121970137.528 8      3174.361    23210141.920    95041643.886 7
      2473.529                          50.150          40.850
  24156172.640   126941559.061 8       429.306    24156168.800    98915464.115 6
       334.523                          46.200          35.550
  24818459.200   130421881.866 7       488.174    24818454.140   101627420.436 5
       380.379                          38.800          27.000
  25274754.340   132819735.038 7     -1365.704    25274753.520   103495881.896 6
     -1064.185                          42.800          35.800
 18  2 20  8 15 30.0000000  0 10G09G07G06G02G30G23G05G16G29G26
  20424716.820   107332624.236 9     -1363.021    20424714.500    83635808.077 8
     -1062.096                          52.500          50.450
  21355800.360   112225491.694 9      1905.977    21355796.000    87448433.608 8
      1485.178                          51.850          46.600
  21480116.160   112878756.259 9     -2318.041    21480114.600    87957477.266 8
     -1806.267                          51.600          48.100
  21794769.040   114532264.830 8       413.730    21794761.860    89245865.299 8
       322.387                          49.900          45.750
  22526014.040   118375007.559 9      3257.107    22526012.240    92240270.753 8
      2538.007                          51.400          45.400
  22954961.620   120629142.230 8     -2685.618    22954955.060    93996716.673 7
     -2092.692                          49.850          41.250
  23192039.920   121874986.073 8      3170.175    23192035.440    94967499.892 7
      2470.267                          50.100          41.350
  24153780.540   126928989.255 8       409.889    24153776.940    98905669.447 6
       319.394                          46.950          36.350
  24815731.120   130407546.489 6       469.354    24815725.020   101616256.024 5
       365.744                          37.050          30.950
  25282601.220   132860970.518 8     -1381.958    25282601.300   103528013.444 6
     -1076.850                          44.600          33.850
 18  2 20  8 16  0.0000000  0 10G09G07G06G02G30G23G05G16G29G26
  20432535.500   107373711.078 9     -1376.248    20432533.040    83667823.794 9
     -1072.400                          52.000          50.750
  21344967.440   112168563.879 9      1889.035    21344962.960    87404074.296 8
      1471.976                          51.600          46.850
  21493398.140   112948553.451 9     -2335.314    21493396.680    88011864.646 8
     -1819.727                          51.050          48.550
  21792462.960   114520147.838 8       393.874    21792456.100    89236423.467 8
       306.916                          49.350          46.200
  22507450.180   118277454.027 9      3246.198    22507448.420    92164255.016 8
      2529.506                          50.950          45.750
  22970311.660   120709807.629 8     -2692.218    22970305.060    94059572.804 7
     -2097.832                          49.200          41.750
  23173959.800   121779974.049 8      3163.705    23173955.560    94893464.567 7
      2465.225                          50.400          41.300
  24151501.940   126917014.220 8       388.327    24151498.000    98896338.267 6
       302.593                          46.750          35.650
  24813109.900   130393770.503 6       448.908
                                        37.250
  25290543.680   132902707.608 7     -1400.822    25290543.400   103560535.826 6
     -1091.547                          42.050          37.650
 18  2 20  8 16 30.0000000  0 10G09G07G06G02G30G23G05G16G29G26
  20440421.560   107415152.855 9     -1386.702    20440419.140    83700116.076 9
     -1080.546                          52.000          50.800
  21334223.120   112112101.518 9      1874.864    21334218.460    87360077.659 8
      1460.935                          51.750          46.900
  21506770.340   113018824.595 9     -2349.600    21506768.920    88066621.360 8
     -1830.857                          51.300          48.300
  21790262.600   114508585.488 8       376.688    21790255.720    89227413.829 8
       293.522                          49.600          46.150
  22488940.200   118180183.147 9      3238.238    22488938.160    92088459.521 8
      2523.303                          51.100          45.900
  22985691.020   120790626.693 8     -2696.008    22985684.400    94122548.661 7
     -2100.786                          49.700          41.350
  23155908.540   121685112.910 9      3160.072    23155904.120    94819546.770 7
      2462.394                          50.700          41.050
  24149338.680   126905644.591 8       369.466    24149334.480    98887478.793 6
       287.897                          46.900          35.950
  24810596.820   130380564.630 6       431.029    24810591.360   101595224.156 6
       335.863                          36.600          33.000
  25298582.840   132944954.638 7     -1416.110    25298581.920   103593455.586 6
     -1103.467                          42.350          34.850
 18  2 20  8 17  0.0000000  0 10G09G07G06G02G30G23G05G16G29G26
  20448374.320   107456945.393 9     -1399.027    20448372.060    83732681.675 9
     -1090.151                          52.050          50.650
  21323567.120   112056103.098 9      1858.785    21323562.440    87316442.537 8
      1448.404                          51.750          47.100
  21520231.680   113089564.467 9     -2365.807    21520230.360    88121743.316 8
     -1843.486                          51.400          48.300
  21788167.480   114497575.632 8       357.776    21788160.700    89218834.720 8
       278.785                          49.650          46.350
  22470483.840   118083194.460 9      3228.201    22470481.920    92012883.931 8
      2515.481                          50.850          46.200
  23001098.780   120871595.665 8     -2701.540    23001092.100    94185641.335 7
     -2105.097                          49.650          41.000
  23137885.740   121590400.515 8      3154.483    23137880.860    94745744.902 7
      2458.039                          50.300          41.050
  24147290.380   126894878.605 8       348.754    24147285.080    98879089.682 6
       271.755                          47.000          34.800
  24808191.700   130367926.107 7       411.948    24808185.880   101585370.934 5
       321.021                          40.850          31.400
  25306718.980   132987707.383 7     -1433.420    25306718.320   103626769.420 6
     -1116.949                          42.650          35.750
 18  2 20  8 17 30.0000000  0 10G09G07G06G02G30G23G05G16G29G26
  20456394.600   107499092.469 9     -1409.935    20456392.460    83765523.543 9
     -1098.650                          52.300          50.550
  21313000.560   112000575.293 9      1843.997    21312995.860    87273174.142 8
      1436.881                          52.100          46.650
  21533782.840   113160775.775 9     -2380.647    21533781.420    88177232.623 8
     -1855.052                          51.950          47.600
  21786178.720   114487123.960 8       340.173    21786171.940    89210690.552 8
       265.070                          50.250          45.650
  22452082.460   117986495.364 9      3219.320    22452080.740    91937534.013 8
      2508.563                          51.500          45.400
  23016535.920   120952718.504 8     -2705.774    23016529.420    94248853.908 7
     -2108.397                          50.200          40.550
  23119892.160   121495844.310 9      3150.167    23119887.540    94672064.754 7
      2454.677                          50.550          40.850
  24145357.660   126884721.783 8       329.320    24145351.560    98871175.238 6
       256.612                          46.900          34.400
  24805895.620   130355860.002 7       393.648    24805892.080   101575968.759 5
       306.743                          41.100          29.250
  25314951.020   133030969.497 7     -1449.476    25314950.520   103660480.115 6
     -1129.464                          44.350          33.050
 18  2 20  8 18  0.0000000  0 10G09G07G06G02G30G23G05G16G29G26
  20464480.520   107541584.132 9     -1422.104    20464478.380    83798633.911 9
     -1108.134                          51.900          50.700
  21302522.160   111945511.000 9      1827.895    21302517.540    87230266.907 8
      1424.333                          51.600          46.950
  21547421.460   113232447.465 9     -2396.527    21547420.200    88233080.662 8
     -1867.425                          51.250          47.850
  21784294.500   114477221.794 8       321.088    21784287.520    89202974.569 8
       250.197                          49.250          46.450
  22433735.100   117890079.605 9      3209.224    22433733.380    91862404.856 8
      2500.693                          50.800          45.850
  23032000.440   121033984.834 8     -2711.156    23031994.000    94312178.291 7
     -2112.591                          49.250          41.900
  23101927.180   121401437.611 9      3144.566    23101922.520    94598501.095 7
      2450.311                          50.550          41.900
  24143539.060   126875166.307 8       308.734    24143534.060    98863729.430 6
       240.575                          46.450          36.750
  24803707.200   130344357.817 7       374.255    24803703.060   101567006.042 5
       291.632                          43.250          32.100
  25323278.940   133074730.642 7     -1466.983    25323278.660   103694579.710 6
     -1143.109                          41.550          37.150
 18  2 20  8 18 30.0000000  0 10G09G07G06G02G30G23G05G16G29G26
  20472632.960   107584425.007 9     -1432.251    20472630.740    83832016.407 9
     -1116.039                          51.400          50.900
  21292133.240   111890917.175 9      1813.513    21292128.760    87187726.289 8
      1413.128                          50.900          47.700
  21561148.460   113304583.129 8     -2410.649    21561147.240    88289290.244 8
     -1878.429                          50.300          48.650
