     2.11           OBSERVATION DATA    G (GPS)             RINEX VERSION / TYPE
teqc  2016Nov7                          20180403 09:55:33UTCPGM / RUN BY / DATE
MELN                                                        MARKER NAME
19831M001                                                   MARKER NUMBER
Automatic           EXAGONE                                 OBSERVER / AGENCY
5733R90244          SPECTRA SP90M       3.51                REC # / TYPE / VERS
09060015            LEIAR25         LEIT                    ANT # / TYPE
  4226433.0030   197279.0530  4756902.4360                  APPROX POSITION XYZ
        0.0000        0.0000        0.0000                  ANTENNA: DELTA H/E/N
     1     1                                                WAVELENGTH FACT L1/2
     9    C1    L1    D1    P2    L2    D2    P1    S1    S2# / TYPES OF OBSERV
    30.0000                                                 INTERVAL
    18                                                      LEAP SECONDS
Linux 2.4.21-27.ELsmp|Opteron|gcc|Linux x86_64|=+           COMMENT
teqc  2016Nov7                          20180403 09:55:32UTCCOMMENT
     2.11           OBSERVATION DATA    M (MIXED)           COMMENT
teqc  2016Nov7                          20180403 09:55:31UTCCOMMENT
teqc  2016Nov7      IGN-RGP             20180220 09:07:09UTCCOMMENT
teqc_2016 edited: GLONASS # 25 - 30 excluded                COMMENT
GN-RINEX 1.3        Geo++ GmbH          20-FEB-18 08:00     COMMENT
Forced Modulo Decimation to 30 seconds                      COMMENT
teqc_2016 edited: all GLONASS satellites excluded           COMMENT
teqc_2016 edited: all SBAS satellites excluded              COMMENT
teqc_2016 edited: all Galileo satellites excluded           COMMENT
  2018     2    20     8     0    0.0000000     GPS         TIME OF FIRST OBS
                                                            END OF HEADER
 18  2 20  8  0  0.0000000  0 12G09G06G07G02G23G30G05G16G29G26G03G04
  20218218.447   106247467.339 9      -975.963    20218219.875    82790236.820 8
      -760.493                          52.625          48.438
  21099956.591   110881010.603 9     -1751.548    21099959.285    86400784.420 8
     -1364.839                          50.563          45.375
  21686025.652   113960845.145 9      2321.968    21686025.311    88800656.631 7
      1809.326                          51.625          42.938
  21952958.877   115363576.522 8      1009.884    21952955.536    89893689.219 7
       786.926                          46.625          40.313
  22489678.765   118184067.278 9     -2495.271    22489675.827    92091482.583 7
     -1944.370                          51.375          38.750
  23069572.618   121231422.714 9      3485.802    23069575.271    94466049.975 6
      2716.209                          50.688          38.063
  23820733.670   125178783.898 8      3296.249    23820733.405    97541915.071 6
      2568.512                          46.563          32.813
  24286072.532   127624313.833 7       967.479    24286072.142    99447410.499 4
       753.872                          41.938          25.938
  25020638.707   131484332.606 7      1042.280    25020639.125   102455331.433 3
       812.198                          39.375          19.313
  25123716.234   132026007.297 7      -873.502    25123720.208   102877415.634 4
      -680.641                          39.250          24.188
  25215031.171   132505845.693 7     -3394.972    25215035.709   103251311.718 4
     -2645.439                          40.563          24.125
  25306245.680   132985217.010 7     -1561.250    25306246.851   103624846.499 3
     -1216.593                          38.813          18.875
 18  2 20  8  0 30.0000000  0 12G09G06G07G02G23G30G05G16G29G26G03G04
  20223825.893   106276934.677 9      -988.700    20223827.329    82813198.375 8
      -770.415                          53.875          48.125
  21110006.311   110933822.173 8     -1769.408    21110009.007    86441936.268 8
     -1378.759                          49.938          44.875
  21672808.578   113891388.971 9      2308.280    21672808.225    88746534.945 7
      1798.661                          51.125          42.625
  21947242.814   115333538.410 8       992.494    21947239.479    89870282.892 7
       773.374                          47.875          39.188
  22503940.793   118259014.609 9     -2501.350    22503937.850    92149883.087 7
     -1949.101                          51.125          38.563
  23049691.780   121126948.346 8      3478.951    23049694.424    94384641.421 6
      2710.866                          49.000          37.750
  23801924.174   125079939.331 7      3293.215    23801923.928    97464893.315 5
      2566.142                          43.563          32.375
  24280602.280   127595567.454 7       948.791    24280601.868    99425010.720 4
       739.315                          42.750          25.625
  25014740.199   131453335.696 7      1024.068    25014740.616   102431177.959 3
       797.969                          40.563          19.438
  25128753.550   132052478.517 7      -891.387    25128757.527   102898042.551 5
      -694.590                          43.188          27.688
  25234418.706   132607727.751 7     -3397.321    25234423.264   103330700.275 4
     -2647.250                          40.438          22.813
  25315208.654   133032317.723 7     -1578.966    25315209.823   103661548.352 4
     -1230.362                          40.313          22.313
 18  2 20  8  1  0.0000000  0 12G09G06G07G02G23G30G05G16G29G26G03G04
  20229506.134   106306784.543 9     -1001.382    20229507.577    82836458.003 8
      -780.299                          53.438          48.313
  21120158.302   110987171.164 8     -1787.234    21120160.997    86483506.905 8
     -1392.649                          50.438          45.688
  21659670.107   113822345.874 9      2294.502    21659669.745    88692735.138 7
      1787.923                          51.938          43.313
  21941626.463   115304024.314 8       975.036    21941623.141    89847284.882 7
       759.768                          47.625          39.125
  22518237.689   118334145.190 9     -2507.406    22518234.745    92208426.382 6
     -1953.822                          50.625          38.438
  23029850.465   121022681.722 8      3472.044    23029853.115    94303394.743 6
      2705.488                          50.313          38.000
  23783132.235   124981186.997 8      3290.209    23783131.997    97387943.448 5
      2563.804                          45.063          32.438
  24275239.228   127567384.474 7       930.018    24275238.811    99403049.951 4
       724.686                          42.188          25.688
  25008945.266   131422883.044 7      1006.031    25008945.665   102407448.625 3
       783.939                          40.500          18.438
  25133893.095   132079486.948 7      -909.256    25133897.073   102919088.083 4
      -708.521                          39.500          23.750
  25253819.801   132709681.064 7     -3399.622    25253824.378   103410144.384 4
     -2649.060                          41.750          22.813
  25324272.844   133079950.319 7     -1596.585    25324274.005   103698664.665 4
     -1244.086                          40.313          21.313
 18  2 20  8  1 30.0000000  0 12G09G06G07G02G23G30G05G16G29G26G03G04
  20235258.809   106337015.021 9     -1014.130    20235260.252    82860014.215 8
      -790.229                          54.188          48.125
  21130412.068   111041054.995 8     -1805.110    21130414.765    86525494.284 8
     -1406.578                          50.438          45.250
  21646610.509   113753717.256 9      2280.593    21646610.142    88639258.291 7
      1777.087                          51.625          42.750
  21936109.900   115275034.598 8       957.491    21936106.591    89824695.488 7
       746.092                          47.375          39.625
  22532569.047   118409456.948 8     -2513.476    22532566.116    92267110.844 6
     -1958.551                          48.625          37.813
  23010049.015   120918624.549 9      3464.965    23010051.656    94222311.278 6
      2699.969                          50.563          38.313
  23764357.929   124882527.335 8      3286.989    23764357.703    97311065.785 5
      2561.287                          45.438          32.000
  24269983.564   127539765.805 7       911.111    24269983.161    99381528.911 4
       709.948                          43.313          25.750
  25003253.921   131392974.687 7       987.842    25003254.302   102384143.400 3
       769.740                          41.188          18.813
  25139134.551   132107030.983 7      -927.154    25139138.536   102940550.955 4
      -722.448                          41.250          24.938
  25273234.135   132811703.941 7     -3402.018    25273238.727   103489642.730 4
     -2650.935                          42.500          22.625
  25333437.801   133128112.463 6     -1614.282    25333438.958   103736193.582 3
     -1257.895                          37.375          20.375
 18  2 20  8  2  0.0000000  0 12G09G06G07G02G23G30G05G16G29G26G03G04
  20241083.953   106367626.320 9     -1026.791    20241085.396    82883867.168 8
      -800.099                          53.375          48.750
  21140767.539   111095473.316 8     -1822.883    21140770.246    86567898.150 8
     -1420.427                          50.000          45.625
  21633630.350   113685506.083 9      2266.655    21633629.977    88586106.727 7
      1766.223                          51.375          42.500
  21930693.517   115246571.324 8       939.907    21930690.218    89802516.311 7
       732.393                          45.875          39.563
  22546934.937   118484950.163 8     -2519.512    22546932.017    92325936.700 6
     -1963.256                          49.563          37.625
  22990288.168   120814780.736 9      3457.806    22990290.787    94141394.029 6
      2694.392                          50.625          37.625
  23745601.827   124783963.365 8      3283.774    23745601.609    97234262.695 5
      2558.784                          45.625          32.188
  24264835.900   127512714.672 7       892.175    24264835.502    99360450.103 4
       695.187                          39.313          25.313
  24997666.560   131363612.835 7       969.611    24997666.945   102361264.015 3
       755.535                          40.875          18.938
  25144478.034   132135111.146 7      -945.020    25144482.024   102962431.615 4
      -736.389                          41.750          25.875
  25292661.783   132913796.771 7     -3404.328    25292666.384   103569195.509 4
     -2652.701                          40.500          21.250
  25342703.449   133176803.743 7     -1631.877    25342704.602   103774134.850 3
     -1271.576                          39.125          19.750
 18  2 20  8  2 30.0000000  0 12G09G06G07G02G23G30G05G16G29G26G03G04
  20246981.073   106398615.860 9     -1039.244    20246982.515    82908014.851 8
      -809.800                          53.688          47.938
  21151224.112   111150422.915 8     -1840.465    21151226.826    86610716.001 8
     -1434.129                          49.375          45.750
  21620729.723   113617712.877 8      2252.809    21620729.344    88533280.853 7
      1755.434                          49.375          42.438
  21925377.354   115218634.654 8       922.446    21925374.056    89780747.463 7
       718.789                          48.063          40.500
  22561334.829   118560622.049 8     -2525.337    22561331.915    92384901.799 6
     -1967.792                          49.750          37.563
  22970568.133   120711151.385 9      3450.753    22970570.724    94060643.906 6
      2688.896                          50.938          38.313
  23726864.102   124685495.980 8      3280.650    23726863.896    97157534.872 5
      2556.358                          45.375          31.750
  24259796.232   127486231.053 7       873.297    24259795.836    99339813.510 4
       680.492                          41.313          24.875
  24992183.169   131334797.429 7       951.401    24992183.585   102338810.390 3
       741.356                          41.688          19.375
  25149923.124   132163725.242 7      -962.679    25149927.115   102984728.266 4
      -750.141                          42.375          25.813
  25312102.293   133015957.199 7     -3406.434    25312106.906   103648800.974 3
     -2654.377                          40.938          19.250
  25352069.180   133226020.958 6     -1649.306    25352070.329   103812485.934 3
     -1285.155                          38.188          18.250
 18  2 20  8  3  0.0000000  0 12G09G06G07G02G23G30G05G16G29G26G03G04
  20252950.138   106429983.483 9     -1051.810    20252951.580    82932457.149 8
      -819.591                          52.813          48.063
  21161781.643   111205903.047 9     -1858.123    21161784.362    86653947.252 8
     -1447.888                          50.750          45.250
  21607909.204   113550340.646 9      2238.761    21607908.825    88480783.023 7
      1744.493                          51.125          43.063
  21920161.824   115191226.813 8       904.831    21920158.526    89759390.699 7
       705.067                          47.750          40.563
  22575768.710   118636472.567 8     -2531.272    22575765.804    92444006.071 6
     -1972.422                          50.375          37.625
  22950889.584   120607740.022 8      3443.435    22950892.153    93980063.657 6
      2683.196                          49.313          38.250
  23708145.158   124587127.301 8      3277.355    23708144.965    97080883.952 5
      2553.782                          45.313          32.000
  24254865.055   127460317.605 7       854.325    24254864.676    99319621.184 4
       665.710                          40.500          24.313
  24986804.053   131306530.016 7       933.148    24986804.503   102316783.815 3
       727.127                          41.625          19.625
  25155469.826   132192873.314 7      -980.475    25155473.820   103007441.033 4
      -764.008                          40.875          24.125
  25331555.645   133118185.128 7     -3408.660    25331560.273   103728459.061 4
     -2656.082                          41.875          21.938
  25361534.817   133275763.174 7     -1666.775    25361535.962   103851246.124 4
     -1298.790                          39.500          21.438
 18  2 20  8  3 30.0000000  0 12G09G06G07G02G23G30G05G16G29G26G03G04
  20258990.917   106461727.989 9     -1064.406    20258992.367    82957193.128 8
      -829.408                          52.875          48.063
  21172439.776   111261911.827 9     -1875.728    21172442.495    86697590.417 8
     -1461.607                          50.875          45.063
  21595169.091   113483390.951 9      2224.628    21595168.718    88428614.440 7
      1733.478                          52.500          42.438
  21915047.027   115164348.330 8       887.142    21915043.726    89738446.420 7
       691.281                          47.875          39.750
  22590236.343   118712500.387 8     -2537.174    22590233.434    92503248.528 6
     -1977.018                          50.375          37.813
  22931252.963   120504549.059 8      3436.009    22931255.527    93899655.164 6
      2677.409                          48.938          38.375
  23689445.255   124488858.701 8      3273.947    23689445.078    97004311.034 6
      2551.128                          47.063          32.813
  24250042.600   127434975.402 7       835.211    24250042.226    99299874.015 4
       650.811                          42.313          24.438
  24981529.425   131278811.552 7       914.822    24981529.878   102295184.982 4
       712.868                          42.375          21.875
  25161117.973   132222554.510 7      -998.252    25161121.975   103030569.248 4
      -777.864                          40.313          23.438
  25351021.666   133220479.576 7     -3410.916    25351026.302   103808168.941 4
     -2657.863                          42.938          22.188
  25371100.015   133326028.601 7     -1684.214    25371101.151   103890414.001 4
     -1312.378                          39.750          22.063
 18  2 20  8  4  0.0000000  0 12G09G06G07G02G23G30G05G16G29G26G03G04
  20265103.135   106493847.890 9     -1076.929    20265104.589    82982221.608 8
      -839.166                          53.313          48.188
  21183198.098   111318447.099 8     -1893.293    21183200.817    86741643.872 8
     -1475.295                          50.313          45.313
  21582509.679   113416865.290 9      2210.415    21582509.303    88376776.282 7
      1722.401                          51.500          42.375
  21910033.126   115138000.056 8       869.411    21910029.818    89717915.292 7
       677.464                          48.375          39.188
  22604737.405   118788703.886 9     -2543.037    22604734.493    92562627.865 6
     -1981.585                          50.563          37.625
  22911658.706   120401580.710 9      3428.504    22911661.271    93819420.115 7
      2671.563                          51.000          39.000
  23670764.509   124390690.722 8      3270.538    23670764.337    96927816.509 6
      2548.470                          47.375          34.125
  24245329.065   127410205.574 7       816.115    24245328.695    99280572.860 4
       635.941                          41.563          26.313
  24976359.340   131251642.427 7       896.447    24976359.772   102274014.256 4
       698.550                          42.625          21.688
  25166867.327   132252767.537 7     -1015.964    25166871.338   103054111.833 4
      -791.652                          42.375          24.000
  25370500.108   133322839.277 6     -3413.100    25370504.751   103887929.587 3
     -2659.552                          38.438          19.938
  25380764.367   133376815.093 6     -1701.556    25380765.498   103929987.882 4
     -1325.880                          37.063          21.000
 18  2 20  8  4 30.0000000  0 12G09G06G07G02G23G30G05G16G29G26G03G04
  20271286.580   106526342.087 9     -1089.379    20271288.036    83007541.761 8
      -848.865                          54.250          48.000
  21194056.251   111375507.009 9     -1910.718    21194058.976    86786106.119 8
     -1488.873                          50.563          45.063
  21569931.325   113350765.595 9      2196.184    21569930.945    88325270.031 7
      1711.312                          51.563          42.625
  21905120.341   115112183.153 8       851.680    21905117.027    89697798.214 7
       663.647                          48.563          39.125
  22619271.706   118865082.054 8     -2548.832    22619268.793    92622143.301 6
     -1986.106                          50.313          37.875
  22892107.316   120298837.542 9      3420.972    22892109.862    93739360.529 7
      2665.694                          51.125          39.000
  23652103.261   124292625.199 8      3267.101    23652103.082    96851401.809 6
      2545.791                          47.188          32.750
  24240724.848   127386010.139 7       796.944    24240724.457    99261719.269 4
       620.996                          43.313          26.125
  24971293.997   131225023.749 7       878.091    24971294.419   102253272.406 4
       684.233                          41.625          23.000
  25172717.714   132283511.480 7     -1033.626    25172721.729   103078068.186 4
      -805.436                          41.125          23.938
  25389990.791   133425263.297 6     -3415.191    25389995.450   103967740.377 3
     -2661.203                          37.938          14.688
  25390527.544   133428120.896 7     -1718.835    25390528.662   103969966.333 4
     -1339.372                          40.438          24.125
 18  2 20  8  5  0.0000000  0 12G09G06G07G02G23G30G05G16G29G26G04G03
  20277541.041   106559209.474 9     -1101.832    20277542.496    83033152.697 8
      -858.569                          52.938          47.813
  21205013.916   111433089.854 9     -1928.195    21205016.646    86830975.827 8
     -1502.488                          50.813          45.063
  21557434.368   113285093.664 9      2181.857    21557433.989    88274097.107 7
      1700.149                          51.625          42.688
  21900308.900   115086898.830 8       833.860    21900305.584    89678096.144 7
       649.761                          48.250          39.750
  22633838.980   118941633.567 8     -2554.653    22633836.080    92681793.803 6
     -1990.640                          48.875          37.125
  22872599.258   120196322.089 8      3413.295    22872601.782    93659478.388 7
      2659.708                          50.313          39.188
  23633461.892   124194664.138 8      3263.556    23633461.707    96775068.517 6
      2543.030                          45.500          32.750
  24236230.185   127362390.479 7       777.674    24236229.790    99243314.363 4
       605.984                          41.875          24.938
  24966333.532   131198956.276 7       859.664    24966333.975   102232960.061 4
       669.899                          40.625          22.188
  25178668.987   132314785.575 7     -1051.348    25178673.000   103102437.581 4
      -819.212                          39.188          23.938
  25400389.185   133479944.156 6     -1736.076    25400390.303   104010348.138 3
     -1352.792                          38.063          20.313
  25409493.544   133527750.703 7     -3417.312    25409498.225   104047600.58613
     -2662.855                          40.438          17.188
 18  2 20  8  5 30.0000000  0 12G09G06G07G02G23G30G05G16G29G26G04G03
  20283866.324   106592449.027 9     -1114.162    20283867.779    83059053.646 8
      -868.177                          53.188          48.000
  21216070.747   111491193.812 9     -1945.440    21216073.482    86876251.608 8
     -1515.927                          51.188          44.688
  21545019.183   113219851.451 9      2167.587    21545018.804    88223259.031 7
      1689.027                          52.500          42.563
  21895599.008   115062148.137 8       816.129    21895595.691    89658809.873 7
       635.946                          48.438          40.625
  22648439.094   119018357.655 9     -2560.307    22648436.207    92741578.766 6
     -1995.045                          50.625          37.438
  22853135.043   120094037.045 9      3405.656    22853137.543    93579775.787 7
      2653.754                          51.063          38.813
  23614840.682   124096809.065 8      3260.116    23614840.501    96698817.808 5
      2540.347                          45.688          32.375
  24231845.342   127339347.995 7       758.454    24231844.957    99225359.169 4
       591.002                          41.688          24.875
  24961478.141   131173440.938 7       841.355    24961478.622   102213077.938 4
       655.602                          40.750          22.500
  25184720.975   132346588.961 6     -1068.915    25184724.991   103127219.430 4
      -832.939                          37.688          22.625
  25410348.992   133532283.252 7     -1753.179    25410350.104   104051131.811 3
     -1366.105                          39.000          19.125
  25429008.227   133630300.737 7     -3419.345    25429012.928   104127509.656 4
     -2664.436                          41.938          21.375
 18  2 20  8  6  0.0000000  0 12G09G06G07G02G23G30G05G16G29G26G04G03
  20290262.188   106626059.483 9     -1126.572    20290263.642    83085243.610 8
      -877.846                          53.938          48.313
  21227226.380   111549816.944 9     -1962.793    21227229.117    86921931.954 8
     -1529.446                          51.625          44.938
  21532686.065   113155040.520 9      2153.106    21532685.689    88172757.025 7
      1677.745                          52.125          42.375
  21890990.869   115037932.177 8       798.238    21890987.557    89639940.284 7
       622.003                          48.313          39.875
  22663071.824   119095253.051 9     -2566.069    22663068.937    92801497.239 6
     -1999.534                          50.625          37.938
  22833715.116   119991984.786 8      3397.769    22833717.606    93500254.575 7
      2647.611                          49.438          38.625
  23596239.810   123999060.883 8      3256.399    23596239.632    96622650.393 5
      2537.457                          44.688          32.250
  24227570.585   127316884.001 7       739.105    24227570.202    99207854.750 4
       575.934                          39.938          24.563
  24956727.970   131148478.473 7       822.797    24956728.470   102193626.641 4
       641.142                          43.000          24.375
  25190873.455   132378920.465 7     -1086.546    25190877.483   103152412.810 4
      -846.659                          39.000          22.875
  25420406.546   133585136.020 6     -1770.322    25420407.659   104092315.821 3
     -1379.466                          37.188          20.188
  25448534.631   133732912.264 7     -3421.404    25448539.338   104207466.549 4
     -2666.022                          41.813          20.500
 18  2 20  8  6 30.0000000  0 12G09G06G07G02G23G30G05G16G29G26G04G03
  20296728.373   106660039.498 9     -1138.807    20296729.831    83111721.546 8
      -887.380                          52.250          47.938
  21238480.412   111608957.173 9     -1979.921    21238483.151    86968015.226 8
     -1542.794                          51.313          44.625
  21520435.331   113090662.543 9      2138.710    21520434.961    88122592.383 7
      1666.529                          52.125          42.563
  21886484.555   115014251.310 8       780.451    21886481.248    89621487.653 7
       608.147                          46.250          40.313
  22677736.895   119172318.427 8     -2571.638    22677734.013    92861548.139 6
     -2003.872                          50.000          37.000
  22814339.928   119890167.641 8      3389.988    22814342.408    93420916.573 7
      2641.545                          50.375          39.625
  23577659.714   123901421.860 8      3252.840    23577659.534    96546568.033 5
      2534.679                          46.813          32.250
  24223406.154   127294999.776 7       719.814    24223405.775    99190802.121 4
       560.898                          41.188          24.750
  24952083.099   131124069.383 7       804.410    24952083.590   102174606.563 4
       626.810                          42.500          22.875
  25197126.233   132411779.001 7     -1104.068    25197130.265   103178016.843 4
      -860.320                          41.313          24.063
  25430561.474   133638500.471 7     -1787.291    25430562.586   104133898.513 3
     -1392.700                          38.813          18.875
  25468072.546   133835584.321 7     -3423.357    25468077.274   104287470.579 3
     -2667.583                          41.000          20.000
 18  2 20  8  7  0.0000000  0 12G09G06G07G02G23G30G05G16G29G26G04G03
  20303264.687   106694388.028 9     -1150.927    20303266.143    83138486.634 8
      -896.827                          53.750          47.938
  21249832.492   111668612.652 9     -1996.946    21249835.235    87014500.009 8
     -1556.060                          51.938          45.063
  21508267.277   113026719.070 9      2124.348    21508266.913    88072766.307 7
      1655.337                          51.563          42.500
  21882080.317   114991106.833 8       762.669    21882077.009    89603452.984 7
       594.288                          47.500          40.375
  22692434.067   119249552.453 8     -2577.107    22692431.179    92921730.481 6
     -2008.133                          49.625          37.313
  22795009.990   119788588.255 8      3382.158    22795012.464    93341763.825 7
      2635.445                          50.000          39.625
  23559100.604   123803893.133 8      3249.264    23559100.431    96470571.627 5
      2531.895                          45.313          31.938
  24219352.318   127273696.715 7       700.539    24219351.940    99174202.341 4
       545.898                          43.000          24.625
  24947543.710   131100214.617 7       786.067    24947544.192   102156018.392 4
       612.535                          42.188          21.813
  25203479.109   132445163.539 7     -1121.404    25203483.143   103204030.765 4
      -873.821                          39.063          24.063
  25440813.408   133692374.699 7     -1804.120    25440814.518   104175878.459 4
     -1405.807                          40.625          20.563
  25487621.794   133938315.934 7     -3425.253    25487626.552   104367520.983 3
     -2669.018                          39.313          18.563
 18  2 20  8  7 30.0000000  0 12G09G06G07G02G23G30G05G16G29G26G04G03
  20309870.983   106729104.334 9     -1163.395    20309872.440    83165538.295 8
      -906.543                          52.688          48.563
  21261282.336   111728781.879 9     -2014.250    21261285.082    87061385.109 8
     -1569.545                          51.375          45.125
  21496182.387   112963212.623 9      2109.515    21496182.026    88023280.778 7
      1643.778                          52.000          43.063
  21877778.387   114968500.023 8       744.529    21877775.085    89585837.278 7
       580.151                          46.438          40.625
  22707163.182   119326954.338 8     -2582.908    22707160.288    92982043.627 6
     -2012.654                          49.438          37.000
  22775725.859   119687249.553 9      3373.866    22775728.318    93262798.620 7
      2628.983                          51.250          40.563
  23540562.925   123706476.994 8      3245.263    23540562.753    96394662.962 5
      2528.779                          48.063          32.125
  24215409.428   127252976.704 7       680.856    24215409.064    99158056.909 4
       530.526                          41.313          25.875
  24943109.981   131076915.151 7       767.345    24943110.464   102137862.955 4
       597.929                          39.875          21.750
  25209931.997   132479073.647 7     -1139.150    25209936.035   103230454.203 4
      -887.649                          38.625          25.438
  25451162.063   133746757.187 6     -1821.248    25451163.166   104218254.455 3
     -1419.139                          38.250          16.125
  25507182.274   134041106.510 7     -3427.453    25507187.063   104447617.475 3
     -2670.740                          39.375          17.813
 18  2 20  8  8  0.0000000  0 12G09G06G07G02G23G30G05G16G29G26G04G03
  20316546.971   106764186.888 9     -1175.642    20316548.430    83192875.334 8
      -916.083                          53.688          48.063
  21272829.489   111789462.471 9     -2031.276    21272832.235    87108668.675 8
     -1582.811                          51.375          45.250
  21484180.970   112900144.795 9      2094.830    21484180.606    87974137.038 7
      1632.336                          52.438          42.438
  21873578.892   114946431.510 8       726.510    21873575.597    89568641.027 7
       566.113                          47.500          39.875
  22721924.003   119404522.924 8     -2588.480    22721921.122    93042486.650 6
     -2016.996                          49.563          36.875
  22756487.926   119586153.644 9      3365.684    22756490.383    93184022.609 7
      2622.613                          50.750          40.500
  23522046.865   123609174.484 8      3241.410    23522046.692    96318842.814 6
      2525.777                          47.938          32.625
  24211577.638   127232840.522 7       661.340    24211577.280    99142366.397 4
       515.341                          43.813          26.063
  24938781.994   131054171.352 7       748.744    24938782.491   102120140.513 4
       583.432                          41.375          21.938
  25216484.609   132513507.802 7     -1156.593    25216488.651   103257286.019 4
      -901.230                          41.875          24.250
  25461607.049   133801645.933 6     -1838.143    25461608.148   104261024.896 3
     -1432.313                          36.938          16.750
  25526753.787   134143955.023 7     -3429.326    25526758.605   104527759.129 3
     -2672.187                          40.500          16.875
 18  2 20  8  8 30.0000000  0 12G09G06G07G02G23G30G05G16G29G26G04G03
  20323292.461   106799634.646 9     -1187.671    20323293.917    83220496.965 8
      -925.456                          52.063          48.250
  21284473.612   111850652.639 9     -2048.166    21284476.357    87156349.306 8
     -1595.973                          50.813          44.688
  21472263.272   112837516.908 9      2080.229    21472262.902    87925336.092 7
      1620.960                          52.688          42.563
  21869482.080   114924902.619 8       708.613    21869478.795    89551865.262 7
       552.171                          46.125          40.313
  22736716.411   119482257.508 8     -2593.911    22736713.543    93103059.028 6
     -2021.229                          48.500          36.250
  22737296.698   119485303.189 9      3357.563    22737299.151    93105437.865 7
      2616.283                          51.063          40.000
  23503552.603   123511986.456 8      3237.668    23503552.421    96243111.873 6
      2522.855                          48.313          32.938
  24207857.212   127213289.609 7       641.910    24207856.854    99127131.918 4
       500.188                          43.438          26.188
  24934559.912   131031984.057 7       730.297    24934560.420   102102851.697 4
       569.038                          41.250          20.500
  25223136.750   132548465.013 7     -1173.963    25223140.797   103284525.409 4
      -914.778                          38.563          24.313
  25472147.943   133857038.701 6     -1854.801    25472149.039   104304188.140 3
     -1445.299                          37.500          18.063
  25546336.124   134246860.406 6     -3431.060    25546340.967   104607945.121 3
     -2673.527                          38.375          17.875
 18  2 20  8  9  0.0000000  0 12G09G06G07G02G30G23G05G16G29G26G04G03
  20330107.056   106835445.544 9     -1199.814    20330108.506    83248401.556 8
      -934.920                          52.563          47.938
  21296214.147   111912349.470 9     -2065.071    21296216.892    87204424.718 8
     -1609.146                          50.688          44.500
  21460429.510   112775330.074 9      2065.441    21460429.130    87876878.825 7
      1609.436                          52.625          43.063
  21865487.928   114903913.139 8       690.579    21865484.640    89535509.808 7
       538.115                          47.313          40.375
  22718152.488   119384699.791 9      3349.239    22718154.935    93027045.630 7
      2609.797                          50.500          39.750
  22751539.917   119560155.528 8     -2599.405    22751537.067    93163758.754 6
     -2025.506                          48.438          36.188
  23485080.440   123414914.595 8      3233.690    23485080.262    96167471.480 6
      2519.750                          47.688          33.375
  24204248.211   127194324.263 7       622.340    24204247.854    99112353.759 4
       484.946                          41.688          24.375
  24930443.638   131010352.811 7       711.688    24930444.145   102085996.138 3
       554.564                          41.250          18.500
  25229888.070   132583943.416 7     -1191.333    25229892.120   103312170.900 4
      -928.309                          40.313          25.063
  25482784.196   133912932.606 6     -1871.541    25482785.287   104347741.805 3
     -1458.358                          37.938          15.875
  25565928.911   134349820.763 6     -3432.961
                                        35.063
 18  2 20  8  9 30.0000000  0 12G09G06G07G02G30G23G05G16G29G26G04G03
  20336990.792   106871619.805 9     -1211.792    20336992.243    83276589.286 8
      -944.255                          53.500          47.938
  21308050.983   111974552.381 9     -2081.803    21308053.732    87252894.478 7
     -1622.183                          50.563          43.875
  21448680.206   112713587.096 9      2050.733    21448679.823    87828767.419 7
      1597.972                          51.813          43.063
  21861596.793   114883465.025 8       672.630    21861593.503    89519576.198 7
       524.130                          48.188          39.750
  22699056.037   119284347.335 9      3340.920    22699058.475    92948848.924 7
      2603.315                          51.563          40.750
  22766394.570   119638217.159 8     -2604.714    22766391.728    93224585.968 6
     -2029.646                          49.813          37.438
  23466631.043   123317962.340 8      3229.795    23466630.866    96091924.266 6
      2516.732                          48.375          33.375
  24200751.162   127175947.194 7       602.834    24200750.810    99098033.948 4
       469.742                          40.813          26.125
  24926433.600   130989279.912 7       693.174    24926434.115   102069575.719 3
       540.127                          40.750          19.688
  25236738.588   132619943.122 7     -1208.481    25236742.643   103340222.619 4
      -941.704                          40.938          25.375
  25493515.748   133969327.318 6     -1888.134    25493516.842   104391685.693 4
     -1471.292                          38.313          21.188
  25585532.244   134452836.629 6     -3434.653
                                        32.563
 18  2 20  8 10  0.0000000  0 12G09G06G07G02G30G23G05G16G29G26G04G03
  20343943.311   106908155.510 9     -1223.750    20343944.761    83305058.656 8
      -953.572                          53.188          47.750
  21319983.601   112037258.580 9     -2098.478    21319986.348    87301756.411 7
     -1635.177                          50.813          44.250
  21437015.580   112652289.112 9      2035.941    21437015.198    87781002.766 7
      1586.449                          52.000          42.438
  21857808.730   114863558.557 8       654.616    21857805.437    89504064.661 7
       510.091                          48.250          40.313
  22680007.675   119184247.549 9      3332.526    22680010.097    92870849.084 7
      2596.775                          51.125          40.500
  22781280.037   119716440.705 8     -2610.034    22781277.201    93285539.361 6
     -2033.790                          48.938          37.000
  23448204.380   123221129.559 8      3225.842    23448204.200    96016470.152 6
      2513.647                          48.313          32.563
  24197366.189   127158159.038 8       583.216    24197365.833    99084173.071 4
       454.453                          45.125          25.125
  24922529.811   130968765.318 7       674.620    24922530.336   102053590.266 4
       525.691                          38.625          20.750
  25243687.958   132656462.295 7     -1226.000    25243692.020   103368679.115 5
      -955.367                          39.250          27.000
  25504342.054   134026219.956 6     -1904.569    25504343.144   104436017.683 3
     -1484.094                          36.938          18.375
  25605145.842   134555906.509 5     -3436.350
                                        29.063
 18  2 20  8 10 30.0000000  0 11G09G06G07G02G30G23G05G16G29G26G04
  20350964.374   106945051.384 9     -1235.858    20350965.816    83333808.690 8
      -963.007                          53.563          48.000
  21332011.603   112100466.001 9     -2115.260    21332014.343    87351008.947 7
     -1648.254                          51.875          44.188
  21425435.897   112591437.536 9      2020.934    21425435.523    87733585.974 7
      1574.753                          51.750          43.063
  21854123.876   114844194.463 8       636.437    21854120.581    89488975.742 7
       495.925                          49.938          40.500
  22661007.843   119084402.816 9      3323.887    22661010.266    92793048.010 7
      2590.040                          50.813          40.563
  22796196.097   119794825.044 8     -2615.474    22796193.270    93346618.038 6
     -2038.029                          49.500          37.313
  23429800.782   123124418.013 8      3221.663    23429800.600    95941110.521 6
      2510.387                          47.375          32.563
  24194093.470   127140960.780 8       563.453    24194093.100    99070771.820 4
       439.048                          45.000          25.938
  24918732.287   130948809.042 7       655.907    24918732.814   102038039.905 4
       511.104                          42.438          22.000
  25250735.942   132693499.697 7     -1243.154    25250740.012   103397539.428 4
      -968.654                          38.500          25.313
  25515262.717   134083608.450 6     -1921.212    25515263.800   104480735.950 2
     -1497.104                          35.625          14.438
 18  2 20  8 11  0.0000000  0 11G09G06G07G02G30G23G05G16G29G26G04
  20358053.799   106982306.516 9     -1247.822    20358055.238    83362838.657 8
      -972.330                          54.375          48.125
  21344134.625   112164172.791 9     -2131.876    21344137.363    87400650.595 8
     -1661.199                          51.563          44.500
  21413941.534   112531034.315 9      2005.941    21413941.166    87686518.547 7
      1563.072                          53.000          42.938
  21850542.443   114825373.877 8       618.270    21850539.153    89474310.345 7
       481.772                          48.813          41.000
  22642057.074   118984815.933 8      3315.212    22642059.509    92715447.854 7
      2583.279                          49.813          40.625
  22811142.574   119873369.211 8     -2620.793    22811139.755    93407821.257 6
     -2042.177                          49.938          37.375
  23411420.489   123027828.914 8      3217.546    23411420.298    95865846.289 6
      2507.176                          48.875          32.938
  24190933.267   127124353.784 8       543.684    24190932.877    99057831.337 4
       423.645                          45.125          24.938
  24915041.224   130929412.263 7       637.207    24915041.769   102022925.506 4
       496.545                          41.813          21.875
  25257882.380   132731054.462 6     -1260.392    25257886.453   103426802.836 4
      -982.114                          37.375          24.500
  25526277.363   134141490.824 6     -1937.642    25526278.440   104525839.186 3
     -1509.839                          37.125          16.375
 18  2 20  8 11 30.0000000  0 11G09G06G07G02G30G23G05G16G29G26G04
  20365211.403   107019919.942 9     -1259.747    20365212.840    83392147.816 8
      -981.623                          53.313          48.125
  21356352.295   112228376.987 8     -2148.417    21356355.037    87450679.803 7
     -1674.089                          49.625          43.688
  21402532.845   112471081.314 9      1990.901    21402532.481    87639801.933 7
      1551.351                          52.750          43.438
  21847064.584   114807097.591 8       600.117    21847061.303    89460069.070 7
       467.622                          48.938          40.500
  22623155.884   118885489.577 9      3306.499    22623158.332    92638050.711 7
      2576.493                          51.375          40.375
  22826119.299   119952072.366 8     -2626.074    22826116.492    93469148.355 6
     -2046.291                          48.750          36.000
  23393064.084   122931365.337 8      3213.357    23393063.880    95790679.885 6
      2503.916                          49.063          33.313
  24187885.815   127108339.302 7       523.946    24187885.404    99045352.534 5
       408.265                          44.125          26.688
  24911456.775   130910575.834 7       618.492    24911457.355   102008247.756 4
       481.940                          41.750          21.438
  25265127.066   132769125.531 7     -1277.601    25265131.149   103456468.609 4
      -995.533                          39.063          23.938
  25537385.698   134199865.551 6     -1954.026
     -1522.623                          35.063
 18  2 20  8 12  0.0000000  0 11G09G06G07G02G30G23G05G16G29G26G04
  20372436.829   107057889.798 9     -1271.531    20372438.268    83421734.715 8
      -990.803                          51.750          48.313
  21368664.109   112293075.902 8     -2164.793    21368666.855    87501094.495 7
     -1686.850                          48.125          43.813
  21391210.027   112411579.548 9      1975.916    21391209.660    87593436.906 7
      1539.676                          52.750          42.688
  21843690.382   114789365.977 8       582.015    21843687.102    89446252.213 7
       453.520                          48.313          40.563
  22604304.612   118786425.508 9      3297.825    22604307.055    92560857.940 7
      2569.734                          51.500          40.750
  22841125.939   120030932.700 8     -2631.232    22841123.142    93530597.926 6
     -2050.309                          49.188          36.750
  23374731.700   122835028.002 8      3209.155    23374731.482    95715611.819 5
      2500.636                          48.125          32.438
  24184951.186   127092917.751 7       504.211    24184950.776    99033335.750 4
       392.882                          41.875          26.063
  24907978.872   130892299.297 7       599.909    24907979.470   101994006.286 4
       467.462                          43.375          21.063
  25272469.642   132807711.031 7     -1294.689    25272473.736   103486535.223 4
     -1008.854                          39.375          23.188
  25548587.216   134258729.971 6     -1970.211    25548588.293   104617194.375 2
     -1535.272                          32.500          12.250
 18  2 20  8 12 30.0000000  0 11G09G07G06G02G30G23G05G16G29G26G04
  20379729.978   107096215.566 9     -1283.468    20379731.425    83451598.936 8
     -1000.106                          53.250          48.125
  21379973.500   112352531.225 9      1960.679    21379973.128    87547425.232 7
      1527.802                          53.563          43.188
  21381069.788   112358268.093 8     -2181.302    21381072.543    87551893.572 7
     -1699.717                          49.750          43.563
  21840420.078   114772180.355 8       563.718    21840416.802    89432860.818 7
       439.263                          48.938          40.875
  22585503.866   118687626.920 9      3288.804    22585506.294    92483872.012 7
      2562.703                          50.875          40.688
  22856162.438   120109949.815 8     -2636.532    22856159.629    93592169.683 6
     -2054.439                          49.063          37.250
  23356423.734   122738818.986 8      3204.779    23356423.502    95640643.757 6
      2497.231                          46.000          32.625
  24182129.751   127078091.043 7       484.260    24182129.339    99021782.481 5
       377.346                          43.875          26.625
  24904607.696   130874583.543 7       581.137    24904608.283   101980201.791 4
       452.825                          42.688          23.438
  25279910.006   132846810.383 6     -1311.915    25279914.106   103517002.219 4
     -1022.262                          37.625          23.688
  25559881.573   134318082.282 6     -1986.535    25559884.332   104663439.947 3
     -1547.947                          36.250          16.438
 18  2 20  8 13  0.0000000  0 12G09G07G06G02G30G23G05G16G29G26G04G03
  20387090.524   107134895.481 9     -1295.089    20387091.975    83481739.125 8
     -1009.159                          53.875          48.125
  21368823.406   112293937.104 9      1945.644    21368823.028    87501767.472 7
      1516.084                          52.250          43.125
  21393568.830   112423950.904 9     -2197.493    21393571.595    87603074.945 7
     -1712.329                          50.625          43.625
  21837253.700   114755540.846 8       545.640    21837250.424    89419894.964 7
       425.177                          50.438          40.875
  22566753.986   118589095.651 9      3280.017    22566756.409    92407094.413 7
      2555.858                          51.375          40.875
  22871228.438   120189122.035 8     -2641.541    22871225.631    93653862.286 6
     -2058.346                          48.500          35.813
  23338140.316   122642738.990 8      3200.583    23338140.079    95565776.233 6
      2493.959                          47.625          32.875
  24179421.562   127063859.461 7       464.602    24179421.146    99010692.932 4
       362.025                          43.250          26.063
  24901343.255   130857428.612 7       562.577    24901343.823   101966834.309 4
       438.382                          43.813          22.438
  25287447.795   132886421.706 7     -1328.761    25287451.904   103547868.180 4
     -1035.396                          40.063          22.625
  25571268.243   134377919.690 5     -2002.516
                                        30.625
  25723033.185   135175457.181 6     -3446.428
                                        32.563
 18  2 20  8 13 30.0000000  0 11G09G07G06G02G30G23G05G16G29G26G04
  20394518.410   107173929.250 9     -1307.005    20394519.862    83512155.049 8
     -1018.443                          53.000          48.000
  21357760.263   112235799.917 9      1930.248    21357759.879    87456465.772 7
      1504.089                          52.438          42.688
  21406160.988   112490123.029 8     -2213.885    21406163.761    87654637.606 7
     -1725.104                          49.375          43.125
  21834191.562   114739449.148 8       527.239    21834188.290    89407355.973 7
       410.837                          50.313          40.750
  22548055.616   118490835.119 8      3270.807    22548058.050    92330527.764 7
      2548.683                          49.500          41.125
  22886323.889   120268449.012 8     -2646.835    22886321.081    93715675.488 6
     -2062.471                          49.250          36.938
  23319882.033   122546791.065 8      3196.030    23319881.791    95491011.634 6
      2490.422                          47.875          32.688
  24176827.023   127050225.098 7       444.495    24176826.602    99000068.765 4
       346.343                          41.313          25.125
  24898185.854   130840836.303 7       543.713    24898186.441   101953905.227 4
       423.677                          42.500          21.125
  25295082.937   132926544.647 7     -1345.938    25295087.057   103579132.841 4
     -1048.801                          41.250          22.500
  25582747.222   134438243.559 6     -2018.800    25582750.105   104757071.550 3
     -1573.066                          38.438          18.125
 18  2 20  8 14  0.0000000  0 11G09G07G06G02G30G23G05G16G29G26G04
  20402013.284   107213315.066 9     -1318.658    20402014.740    83542845.291 8
     -1027.527                          52.375          48.125
  21346784.250   112178120.622 9      1915.028    21346783.869    87411520.883 7
      1492.230                          52.938          43.000
  21418845.734   112556781.703 8     -2229.970    21418848.514    87706579.396 7
     -1737.639                          48.750          43.438
  21831233.658   114723905.169 9       509.035    21831230.378    89395243.765 7
       396.648                          50.500          40.750
  22529409.101   118392847.089 9      3261.747    22529411.547    92254173.477 7
      2541.619                          50.875          40.688
  22901448.492   120347929.181 8     -2651.840    22901445.680    93777608.081 6
     -2066.367                          48.813          35.938
  23301648.924   122450975.478 8      3191.658    23301648.687    95416350.147 6
      2487.006                          48.313          33.188
  24174346.195   127037188.298 7       424.658    24174345.768    98989910.247 4
       330.901                          43.875          25.625
  24895135.404   130824806.099 7       525.019    24895136.012   101941414.160 4
       409.109                          42.438          21.875
  25302815.069   132967177.291 7     -1362.815    25302819.200   103610794.627 4
     -1061.956                          40.313          22.688
  25594317.604   134499046.300 6     -2034.691
                                        36.875
 18  2 20  8 14 30.0000000  0 10G09G07G06G02G30G23G05G16G29G26
  20409574.978   107253052.001 9     -1330.452    20409576.430    83573809.134 8
     -1036.717                          53.625          47.750
  21335895.731   112120901.111 9      1899.592    21335895.353    87366934.266 7
      1480.203                          52.813          43.563
  21431622.710   112623925.045 9     -2246.214    21431625.499    87758898.848 7
     -1750.295                          50.813          43.750
  21828380.214   114708910.155 9       490.677    21828376.929    89383559.329 7
       382.347                          50.500          40.813
  22510814.978   118295134.358 9      3252.462    22510817.435    92178033.695 7
      2534.384                          50.813          41.125
  22916602.079   120427561.758 8     -2656.965    22916599.283    93839659.389 6
     -2070.361                          47.813          35.875
  23283441.434   122355294.505 8      3187.063    23283441.198    95341793.545 6
      2483.423                          48.500          33.688
  24171979.317   127024750.295 7       404.582    24171978.882    98980218.308 4
       315.265                          43.625          25.375
  24892192.031   130809338.573 7       506.195    24892192.658   101929361.515 3
       394.459                          41.563          20.313
  25310644.008   133008318.631 6     -1379.804    25310648.144   103642852.815 4
     -1075.160                          36.625          24.625
 18  2 20  8 15  0.0000000  0 11G09G07G06G02G30G23G05G16G29G26G04
  20417203.169   107293138.394 9     -1341.977    20417204.616    83605045.273 8
     -1045.698                          52.750          48.188
  21325094.870   112064142.248 9      1884.309    21325094.494    87322706.596 7
      1468.294                          53.375          43.063
  21444491.400   112691550.340 8     -2262.154    21444494.197    87811593.854 7
     -1762.719                          47.500          43.375
  21825631.143   114694463.617 8       472.444    21825627.852    89372302.275 7
       368.139                          49.063          40.625
  22492273.615   118197698.853 9      3243.257    22492276.080    92102109.937 7
      2527.215                          51.313          41.125
  22931784.345   120507345.021 8     -2661.878    22931781.560    93901828.134 6
     -2074.190                          48.438          36.125
  23265259.934   122259750.115 8      3182.587    23265259.706    95267343.384 6
      2479.935                          48.813          34.438
  24169726.474   127012911.544 7       384.675    24169726.028    98970993.290 5
       299.742                          41.313          26.625
  24889355.726   130794433.704 7       487.502    24889356.359   101917747.319 4
       379.865                          43.688          22.875
  25318569.379   133049966.750 7     -1396.660    25318573.524   103675305.898 4
     -1088.286                          41.563          25.063
  25617731.315   134622088.611 6     -2066.498
                                        32.688
 18  2 20  8 15 30.0000000  0 10G09G07G06G02G30G23G05G16G29G26
  20424897.617   107333572.974 9     -1353.594    20424899.062    83636552.729 8
     -1054.747                          54.750          48.063
  21314381.949   112007845.510 9      1868.878    21314381.574    87278839.020 7
      1456.270                          53.563          42.938
  21457451.368   112759655.307 9     -2278.101    21457454.176    87864662.625 7
     -1775.143                          50.813          43.250
  21822986.599   114680566.399 8       454.092    21822983.307    89361473.259 7
       353.840                          50.125          40.875
  22473785.450   118100542.914 9      3233.876    22473787.918    92026404.022 7
      2519.904                          51.625          40.875
  22946995.050   120587277.693 8     -2666.868    22946992.270    93964113.311 6
     -2078.077                          48.563          34.813
  23247104.513   122164342.774 8      3177.950    23247104.291    95192999.999 6
      2476.322                          48.750          34.250
  24167587.804   127001672.824 7       364.637    24167587.355    98962235.853 4
       284.141                          43.250          24.688
  24886626.536   130780091.768 7       468.711    24886627.187   101906571.779 4
       365.210                          41.313          21.313
  25326590.919   133092120.242 7     -1413.482    25326595.074   103708152.763 4
     -1101.418                          41.875          25.125
 18  2 20  8 16  0.0000000  0 10G09G07G06G02G30G23G05G16G29G26
  20432658.230   107374355.250 9     -1365.052    20432659.672    83668331.123 8
     -1063.676                          52.438          47.875
  21303757.357   111952012.920 9      1853.457    21303756.978    87235333.124 7
      1444.250                          53.188          43.688
  21470502.338   112828238.501 8     -2293.902    21470505.160    87918104.053 7
     -1787.457                          48.875          43.375
  21820446.894   114667220.159 8       435.808    21820443.607    89351073.592 7
       339.592                          48.313          40.500
  22455351.104   118003669.803 9      3224.485    22455353.575    91950918.486 7
      2512.586                          51.063          40.938
  22962234.181   120667359.836 8     -2671.730    22962231.423    94026514.930 6
     -2081.871                          47.625          35.313
  23228975.785   122069075.706 8      3173.337    23228975.565    95118765.911 6
      2472.733                          49.000          34.125
  24165563.648   126991035.862 7       344.666    24165563.202    98953947.304 4
       268.556                          42.313          25.125
  24884004.617   130766313.517 7       449.994    24884005.297   101895835.437 4
       350.652                          42.250          21.938
  25334708.522   133134778.560 7     -1430.193    25334712.685   103741393.008 4
     -1114.426                          42.625          24.813
 18  2 20  8 16 30.0000000  0 10G09G07G06G02G30G23G05G16G29G26
  20440484.765   107415483.954 9     -1376.756    20440486.206    83700379.467 8
     -1072.797                          53.625          48.063
  21293221.375   111896645.969 9      1837.772    21293220.987    87192190.068 7
      1432.028                          52.813          43.750
  21483643.858   112897297.571 8     -2309.893    21483646.700    87971916.289 7
     -1799.915                          49.250          43.313
  21818012.038   114654424.911 8       417.294    21818008.759    89341103.255 7
       325.167                          47.813          39.688
  22436971.007   117907081.781 8      3214.801    22436973.478    91875655.107 7
      2505.034                          48.375          41.125
  22977501.464   120747589.876 8     -2676.823    22977498.720    94089031.818 6
     -2085.834                          48.063          35.313
  23210874.034   121973950.417 8      3168.447    23210873.824    95044642.309 6
      2468.922                          46.563          34.813
  24163654.123   126981001.272 7       324.502    24163653.673    98946128.146 4
       252.860                          40.938          25.438
