     2.11           OBSERVATION DATA    G (GPS)             RINEX VERSION / TYPE
teqc  2016Nov7                          20180403 09:55:33UTCPGM / RUN BY / DATE
PANA                                                        MARKER NAME
10001M008                                                   MARKER NUMBER
Automatic           Lycee Dorian - Paris 11                 OBSERVER / AGENCY
1700671             LEICA GR10          2.00/4.007          REC # / TYPE / VERS
11311010            LEIAS10         NONE                    ANT # / TYPE
  4201030.6950   175603.7930  4780030.2550                  APPROX POSITION XYZ
        0.0000        0.0000        0.0000                  ANTENNA: DELTA H/E/N
     1     1                                                WAVELENGTH FACT L1/2
     6    C1    L1    D1    P2    L2    D2                  # / TYPES OF OBSERV
    30.0000                                                 INTERVAL
Linux 2.4.21-27.ELsmp|Opteron|gcc|Linux x86_64|=+           COMMENT
teqc  2016Nov7                          20180403 09:55:32UTCCOMMENT
     2.11           OBSERVATION DATA    M (MIXED)           COMMENT
teqc  2016Nov7                          20180403 09:55:31UTCCOMMENT
teqc  2016Nov7      IGN-RGP             20180220 09:04:33UTCCOMMENT
GR10 V2.00                              2018 02 20 08:59    COMMENT
                                                            COMMENT
                                                            COMMENT
    18                                                      LEAP SECONDS
BIT 2 OF LLI FLAGS DATA COLLECTED UNDER A/S CONDITION       COMMENT
SNR is mapped to RINEX snr flag value [2-9]                 COMMENT
LX:     = 25dBHz -> 1; 26-27dBHz -> 2; 28-31dBHz -> 3       COMMENT
       32-35dBHz -> 4; 36-38dBHz -> 5; 39-41dBHz -> 6       COMMENT
       42-44dBHz -> 7; 45-48dBHz -> 8; >= 49dBHz -> 9       COMMENT
teqc_2016 edited: GLONASS # 25 - 30 excluded                COMMENT
Forced Modulo Decimation to 30 seconds                      COMMENT
teqc_2016 edited: all GLONASS satellites excluded           COMMENT
teqc_2016 edited: all SBAS satellites excluded              COMMENT
teqc_2016 edited: all Galileo satellites excluded           COMMENT
  2018     2    20     8     0    0.0000000     GPS         TIME OF FIRST OBS
                                                            END OF HEADER
 18  2 20  8  0  0.0000000  0  8G02G05G06G07G09G16G23G30
  21932134.482   115254142.544 8       988.314    21932128.577    89808395.55447
       770.114
  23788199.647   125007833.215 8      3295.039    23788195.968    97408679.56145
      2567.561
  21107671.960   110921555.883 9     -1776.408    21107672.209    86432373.91748
     -1384.214
  21712823.462   114101667.287 9      2340.499    21712820.316    88910377.88147
      1823.765
  20217645.347   106244459.509 9      -978.765    20217644.521    82787889.52149
      -762.674
  24283926.089   127612890.812 6       993.124    24283923.545    99438600.96444
       773.861
  22493383.938   118203538.695 8     -2504.501    22493378.635    92106645.19146
     -1951.560
  23100612.401   121394537.450 8      3495.575    23100612.426    94593147.90847
      2723.825
 18  2 20  8  0 30.0000000  0  8G02G05G06G07G09G16G23G30
  21926542.999   115224758.906 8       970.415    21926537.069    89785499.19447
       756.166
  23769397.911   124909029.412 8      3291.716    23769394.252    97331689.58945
      2564.975
  21117864.952   110975120.785 9     -1794.624    21117865.247    86474112.79348
     -1398.408
  21699501.278   114031658.698 9      2326.505    21699498.144    88855825.74247
      1812.862
  20223270.046   106274017.442 9      -991.961    20223269.203    82810921.67249
      -772.957
  24278311.039   127583383.530 7       973.837    24278308.488    99415608.28344
       758.833
  22507699.587   118278767.991 8     -2510.983    22507694.331    92165265.39146
     -1956.611
  23080676.475   121289773.688 8      3488.634    23080676.513    94511513.84847
      2718.416
 18  2 20  8  1  0.0000000  0  8G02G05G06G07G09G16G23G30
  21921050.998   115195898.138 9       953.437    21921045.034    89763010.28047
       742.938
  23750613.967   124810319.112 8      3288.936    23750610.295    97254772.47645
      2562.808
  21128159.385   111029218.727 9     -1812.166    21128159.704    86516267.03048
     -1412.077
  21686256.855   113962058.820 9      2313.283    21686253.740    88801592.09747
      1802.561
  20228967.777   106303959.178 9     -1004.231    20228966.908    82834252.90049
      -782.518
  24272802.654   127554436.761 7       955.483    24272800.088    99393052.38144
       744.534
  22522050.069   118354180.461 8     -2516.722    22522044.853    92224028.34546
     -1961.082
  23060779.078   121185212.387 8      3482.187    23060779.110    94430037.56147
      2713.395
 18  2 20  8  1 30.0000000  0  8G02G05G06G07G09G16G23G30
  21915659.757   115167566.839 8       935.421    21915653.745    89740933.92848
       728.899
  23731849.055   124711708.881 8      3284.997    23731845.368    97177933.33545
      2559.736
  21138555.952   111083853.318 9     -1830.407    21138556.262    86558839.45148
     -1426.290
  21673091.640   113892875.169 9      2298.923    21673088.551    88747682.77948
      1791.370
  20234739.367   106334289.030 9     -1017.752    20234738.470    82857886.54749
      -793.054
  24267402.317   127526057.728 7       936.504    24267399.743    99370938.86544
       729.749
  22536436.192   118429780.219 8     -2523.324    22536431.005    92282937.23346
     -1966.228
  23040921.715   121080861.474 8      3474.604    23040921.742    94348725.20447
      2707.486
 18  2 20  8  2  0.0000000  0  8G02G05G06G07G09G16G23G30
  21910368.944   115139763.360 8       917.880    21910362.914    89719268.87648
       715.230
  23713103.060   124613198.139 8      3281.878    23713099.371    97101171.71245
      2557.308
  21149053.923   111139020.536 9     -1847.960    21149054.211    86601826.88148
     -1439.971
  21660005.501   113824107.089 9      2285.279    21660002.440    88694097.27748
      1780.737
  20240584.144   106365003.496 9     -1030.245    20240583.225    82881819.89149
      -802.788
  24262109.952   127498246.036 7       917.521    24262107.384    99349267.41745
       714.960
  22550857.319   118505563.858 8     -2529.287    22550852.154    92341989.39247
     -1970.874
  23021104.453   120976721.172 8      3467.727    23021104.485    94267576.91947
      2702.124
 18  2 20  8  2 30.0000000  0  8G02G05G06G07G09G16G23G30
  21905178.686   115112488.292 8       900.163    21905172.662    89698015.56547
       701.425
  23694376.250   124514788.243 8      3278.323    23694372.588    97024488.65846
      2554.537
  21159652.743   111194717.587 9     -1865.568    21159653.010    86645227.15848
     -1453.691
  21646998.626   113755755.626 9      2271.237    21646995.591    88640836.41547
      1769.796
  20246501.712   106396100.460 9     -1043.114    20246500.798    82906051.27549
      -812.817
  24256925.639   127471002.108 6       898.431    24256923.069    99328038.36245
       700.076
  22565312.997   118581529.058 8     -2535.368    22565307.848    92401183.03246
     -1975.613
  23001327.556   120872793.051 8      3460.484    23001327.592    94186593.98247
      2696.481
 18  2 20  8  3  0.0000000  0  8G02G05G06G07G09G16G23G30
  21900089.181   115085742.673 8       883.117    21900083.172    89677174.80747
       688.143
  23675668.787   124416480.080 8      3275.511    23675665.189    96947884.88046
      2552.345
  21170352.013   111250942.494 9     -1882.611    21170352.255    86689038.76848
     -1466.970
  21634071.376   113687822.589 9      2257.763    21634068.356    88587901.59447
      1759.295
  20252491.805   106427578.577 9     -1055.277    20252490.921    82930579.66949
      -822.295
  24251849.597   127444327.357 7       879.875    24251846.998    99307252.86244
       685.619
  22579802.998   118657674.556 8     -2540.870    22579797.866    92460517.15647
     -1979.900
  22981591.475   120769079.439 8      3453.921    22981591.517    94105778.19547
      2691.366
 18  2 20  8  3 30.0000000  0  8G02G05G06G07G09G16G23G30
  21895099.913   115059523.880 8       864.703    21895093.907    89656744.57947
       673.795
  23656980.323   124318271.919 8      3271.389    23656976.811    96871359.06146
      2549.135
  21181150.807   111307690.240 9     -1900.639    21181151.015    86733257.76448
     -1481.019
  21621223.445   113620306.406 9      2243.152    21621220.414    88535291.60947
      1747.912
  20258553.600   106459433.509 9     -1068.587    20258552.758    82955401.69449
      -832.665
  24246881.519   127418219.836 7       860.226    24246878.895    99286909.32944
       670.305
  22594326.463   118733995.917 8     -2547.417    22594321.349    92519988.32847
     -1985.002
  22961896.064   120665579.653 8      3445.956    22961896.117    94025129.05447
      2685.162
 18  2 20  8  4  0.0000000  0  8G02G05G06G07G09G16G23G30
  21890211.952   115033837.461 8       847.278    21890205.939    89636729.18347
       660.217
  23638311.905   124220169.018 8      3268.400    23638308.516    96794915.23346
      2546.806
  21192049.587   111364963.382 9     -1917.894    21192049.754    86777886.15548
     -1494.464
  21608456.038   113553213.306 9      2229.372    21608453.001    88483011.28647
      1737.173
  20264687.710   106491668.441 9     -1080.744    20264686.920    82980519.81749
      -842.139
  24242022.489   127392685.427 7       841.724    24242019.815    99267012.40944
       655.893
  22608883.982   118810496.159 8     -2552.900    22608878.894    92579598.87347
     -1989.275
  22942242.661   120562300.560 8      3439.013    22942242.749    93944651.87548
      2679.751
 18  2 20  8  4 30.0000000  0  8G02G05G06G07G09G16G23G30
  21885425.151   115008682.752 8       829.406    21885419.124    89617128.12548
       646.291
  23619663.526   124122171.453 8      3264.763    23619660.268    96718553.49246
      2543.972
  21203047.652   111422758.320 9     -1935.393    21203047.791    86822921.14548
     -1508.098
  21595769.194   113486543.496 9      2215.024    21595766.147    88431060.79547
      1725.993
  20270893.574   106524280.516 9     -1093.565    20270892.832    83005931.82949
      -852.128
  24237272.567   127367724.303 7       822.246    24237269.836    99247562.19944
       640.714
  22623474.999   118887172.489 8     -2558.971    22623469.936    92639346.64247
     -1994.003
  22922631.418   120459243.005 8      3431.279    22922631.545    93864347.33648
      2673.728
 18  2 20  8  5  0.0000000  0  8G02G05G06G07G09G16G23G30
  21880739.977   114984061.991 8       811.810    21880733.950    89597943.10747
       632.579
  23601035.766   124024282.237 8      3261.226    23601032.647    96642276.18345
      2541.215
  21214144.865   111481074.260 9     -1952.390    21214144.993    86868362.09948
     -1521.344
  21583163.470   113420299.793 9      2201.159    21583160.385    88379442.31147
      1715.189
  20277171.180   106557269.605 9     -1105.763    20277170.481    83031637.60949
      -861.633
  24232632.236   127343338.959 7       803.349    24232629.433    99228560.62744
       625.985
  22638099.468   118964024.574 8     -2564.369    22638094.430    92699231.34747
     -1998.211
  22903063.044   120356410.537 8      3423.973    22903063.205    93784218.16548
      2668.031
 18  2 20  8  5 30.0000000  0  8G02G05G06G07G09G16G23G30
  21876156.727   114959976.797 8       793.763    21876150.722    89579175.40748
       618.517
  23582429.041   123926503.505 8      3257.387    23582426.055    96566084.95746
      2538.224
  21225340.988   111539910.011 9     -1969.863    21225341.116    86914208.10348
     -1534.960
  21570639.313   113354484.741 9      2186.586    21570636.165    88328157.85247
      1703.834
  20283520.442   106590635.302 9     -1118.562    20283519.770    83057636.85349
      -871.607
  24228101.837   127319531.339 7       783.897    24228098.959    99210009.23444
       610.828
  22652757.347   119041052.216 8     -2570.594    22652752.329    92759252.84547
     -2003.062
  22883538.123   120253806.432 8      3416.178    22883538.303    93704266.95147
      2661.958
 18  2 20  8  6  0.0000000  0  8G02G05G06G07G09G16G23G30
  21871675.541   114936427.961 8       775.842    21871669.556    89560825.65647
       604.551
  23563843.467   123828835.891 8      3253.501    23563840.588    96489980.31946
      2535.196
  21236635.592   111599263.298 9     -1987.211    21236635.721    86960457.38348
     -1548.478
  21558196.982   113289099.650 9      2172.127    21558193.770    88277208.42347
      1692.566
  20289941.081   106624376.056 9     -1131.115    20289940.417    83083928.34249
      -881.389
  24223681.586   127296302.595 7       764.410    24223678.648    99191908.91244
       595.642
  22667448.334   119118253.861 8     -2576.504    22667443.324    92819409.93847
     -2007.666
  22864057.091   120151432.813 8      3408.426    22864057.277    93624495.30847
      2655.915
 18  2 20  8  6 30.0000000  0  8G02G05G06G07G09G16G23G30
  21867296.471   114913415.711 8       758.244    21867290.472    89542894.02547
       590.840
  23545279.432   123731281.507 8      3250.083    23545276.635    96413963.93446
      2532.533
  21248028.242   111659131.907 9     -2004.119    21248028.360    87007108.22948
     -1561.651
  21545836.754   113224146.083 9      2158.077    21545833.462    88226595.26147
      1681.618
  20296432.801   106658490.346 9     -1143.191    20296432.128    83110510.89949
      -890.799
  24219371.705   127273653.836 7       745.357    24219368.731    99174260.50044
       580.795
  22682172.148   119195628.005 8     -2581.839    22682167.136    92879701.45047
     -2011.823
  22844620.336   120049291.874 8      3400.906    22844620.510    93544904.98247
      2650.058
 18  2 20  8  7  0.0000000  0  8G02G05G06G07G09G16G23G30
  21863019.095   114890937.878 8       740.119    21863013.056    89525378.81647
       576.716
  23526736.525   123633838.102 8      3245.933    23526733.778    96338034.02646
      2529.299
  21259517.957   111719510.564 9     -2021.374    21259518.056    87054156.50548
     -1575.099
  21533558.285   113159622.169 9      2143.317    21533554.912    88176316.88947
      1670.118
  20302994.757   106692973.718 9     -1155.870    20302994.060    83137381.05949
      -900.679
  24215171.788   127251583.053 7       725.895    24215168.794    99157062.48344
       565.633
  22696927.884   119273169.894 8     -2587.737    22696922.859    92940123.68246
     -2016.420
  22825227.715   119947382.808 8      3392.682    22825227.849    93465495.33547
      2643.648
 18  2 20  8  7 30.0000000  0  8G02G05G06G07G09G16G23G30
  21858844.980   114869002.834 8       722.254    21858838.909    89508286.58047
       562.796
  23508216.556   123536515.113 8      3242.097    23508213.831    96262197.93346
      2526.310
  21271105.786   111780404.830 9     -2038.267    21271105.867    87101606.55948
     -1588.261
  21521363.392   113095537.574 9      2128.922    21521359.977    88126380.85747
      1658.901
  20309628.171   106727832.538 9     -1168.144    20309627.442    83164543.77449
      -910.242
  24211083.561   127230099.280 7       706.336    24211080.568    99140321.89745
       550.393
  22711716.758   119350885.878 9     -2593.285    22711711.720    93000681.56246
     -2020.743
  22805881.148   119845715.683 8      3384.871    22805881.237    93386274.20547
      2637.562
 18  2 20  8  8  0.0000000  0  8G02G05G06G07G09G16G23G30
  21854773.138   114847605.107 9       704.689    21854767.039    89491613.00847
       549.106
  23489718.523   123439307.419 8      3238.656    23489715.796    96186451.68345
      2523.629
  21282790.148   111841806.330 9     -2054.638    21282790.236    87149451.84948
     -1601.017
  21509251.220   113031887.788 9      2114.773    21509247.812    88076783.63647
      1647.876
  20316331.583   106763059.125 9     -1179.859    20316330.819    83191993.05849
      -919.370
  24207106.025   127209197.172 7       687.614    24207103.021    99124034.55444
       535.802
  22726537.367   119428768.596 8     -2598.394    22726532.318    93061369.36246
     -2024.723
  22786579.857   119744286.523 9      3377.387    22786579.885    93307238.51447
      2631.730
 18  2 20  8  8 30.0000000  0  8G02G05G06G07G09G16G23G30
  21850804.139   114826747.767 9       686.535    21850798.008    89475360.51547
       534.963
  23471242.915   123342217.646 8      3234.753    23471240.169    96110797.32445
      2520.587
  21294571.005   111903714.963 9     -2071.734    21294571.119    87197692.31348
     -1614.338
  21497222.383   112968675.999 9      2100.072    21497219.012    88027527.70147
      1636.420
  20323105.137   106798654.268 9     -1192.292    20323104.348    83219729.52549
      -929.059
  24203239.822   127188880.033 7       667.851    24203236.787    99108203.01144
       520.402
  22741389.913   119506819.145 8     -2604.217    22741384.863    93122187.93246
     -2029.261
  22767324.716   119643099.769 9      3369.188    22767324.683    93228391.69347
      2625.343
 18  2 20  8  9  0.0000000  0  8G02G05G06G07G09G16G23G30
  21846937.778   114806429.810 8       667.935    21846931.609    89459528.32947
       520.468
  23452789.946   123245246.800 8      3230.180    23452787.170    96035235.62046
      2517.023
  21306447.655   111966127.048 9     -2089.044    21306447.782    87246325.09348
     -1627.827
  21485276.937   112905902.535 9      2084.786    21485273.624    87978613.32748
      1624.508
  20329948.269   106834615.098 9     -1205.130    20329947.471    83247750.95449
      -939.063
  24199484.860   127169147.458 7       647.722    24199481.755    99092826.97544
       504.716
  22756273.726   119585034.160 8     -2610.148    22756268.681    93183134.68347
     -2033.883
  22748115.867   119542156.292 9      3360.290    22748115.767    93149734.44848
      2618.408
 18  2 20  8  9 30.0000000  0  8G02G05G06G07G09G16G23G30
  21843175.024   114786656.323 8       650.261    21843168.827    89444120.41247
       506.697
  23434360.874   123148401.402 8      3226.096    23434358.052    95959771.65146
      2513.843
  21318420.586   112029045.102 9     -2105.651    21318420.692    87295352.13648
     -1640.767
  21473416.051   112843573.376 9      2070.305    21473412.805    87930045.16048
      1613.226
  20336861.632   106870944.982 9     -1216.993    20336860.842    83276059.94449
      -948.306
  24195842.221   127150005.217 7       628.253    24195839.041    99077910.95344
       489.550
  22771189.456   119663416.968 8     -2615.459    22771184.425    93244212.18446
     -2038.019
  22728954.627   119441463.054 8      3352.405    22728954.476    93071272.20348
      2612.266
 18  2 20  8 10  0.0000000  0  8G02G05G06G07G09G16G23G30
  21839515.269   114767424.149 8       632.067    21839509.081    89429134.29747
       492.520
  23415954.980   123051677.868 8      3221.982    23415952.113    95884402.66945
      2510.638
  21330488.620   112092462.878 9     -2122.284    21330488.718    87344768.55248
     -1653.729
  21461639.296   112781686.264 9      2055.526    21461636.109    87881821.44647
      1601.709
  20343844.204   106907638.551 9     -1229.169    20343843.430    83304652.31348
      -957.795
  24192311.396   127131450.572 7       608.618    24192308.189    99063452.79044
       474.250
  22786136.129   119741962.410 8     -2620.949    22786131.125    93305416.40745
     -2042.299
  22709840.668   119341018.382 8      3343.982    22709840.483    92993003.64647
      2605.702
 18  2 20  8 10 30.0000000  0  8G02G05G06G07G09G16G23G30
  21835959.218   114748736.981 8       613.696    21835953.097    89414572.84447
       478.204
  23397573.214   122955081.002 8      3217.610    23397570.335    95809132.36545
      2507.228
  21342651.891   112156381.198 9     -2139.034    21342651.991    87394575.01148
     -1666.781
  21449947.484   112720245.535 9      2040.421    21449944.345    87833945.57447
      1589.939
  20350896.290   106944697.494 9     -1241.526    20350895.524    83333529.40549
      -967.424
  24188893.136   127113487.544 7       588.598    24188889.931    99049455.64444
       458.651
  22801114.097   119820672.297 8     -2626.681    22801109.139    93366748.76246
     -2046.766
  22690775.017   119240827.697 8      3335.271    22690774.828    92914932.99947
      2598.912
 18  2 20  8 11  0.0000000  0  8G02G05G06G07G09G16G23G30
  21832506.328   114730592.068 8       595.710    21832500.289    89400433.94948
       464.190
  23379215.059   122858608.193 8      3213.514    23379212.175    95733958.74346
      2504.037
  21354909.354   112220794.475 9     -2155.461    21354909.467    87444767.13548
     -1679.579
  21438340.291   112659249.410 9      2025.742    21438337.196    87786416.13748
      1578.501
  20358016.996   106982117.057 9     -1253.427    20358016.226    83362687.50849
      -976.695
  24185586.977   127096113.630 7       569.132    24185583.783    99035917.56044
       443.483
  22816122.443   119899541.829 8     -2631.746    22816117.545    93428205.51846
     -2050.712
  22671757.473   119140889.926 8      3326.951    22671757.296    92837059.43647
      2592.430
 18  2 20  8 11 30.0000000  0  8G02G05G06G07G09G16G23G30
  21829157.451   114712993.840 8       577.929    21829151.482    89386721.05648
       450.336
  23360881.798   122762266.154 8      3209.726    23360878.908    95658887.02246
      2501.086
  21367261.309   112285704.413 9     -2171.341    21367261.433    87495346.28748
     -1691.953
  21426818.766   112598703.427 9      2011.180    21426815.691    87739237.46147
      1567.153
  20365206.843   107019899.908 9     -1265.016    20365206.055    83392128.68949
      -985.726
  24182393.883   127079333.802 7       549.834    24182390.697    99022842.40044
       428.447
  22831161.708   119978573.803 8     -2636.571    22831156.880    93489788.85046
     -2054.472
  22652789.264   119041211.391 8      3318.803    22652789.101    92759387.86247
      2586.082
 18  2 20  8 12  0.0000000  0  8G02G05G06G07G09G16G23G30
  21825912.347   114695940.816 8       559.605    21825906.427    89373432.98047
       436.057
  23342573.205   122666053.751 8      3205.077    23342570.307    95583916.32246
      2497.464
  21379706.914   112351106.475 9     -2187.977    21379707.056    87546308.91248
     -1704.917
  21415382.745   112538606.718 9      1996.008    21415379.657    87692408.86447
      1555.331
  20372465.124   107058042.345 9     -1277.146    20372464.308    83421850.06449
      -995.180
  24179313.597   127063146.640 7       529.810    24179310.376    99010229.04444
       412.841
  22846231.206   120057764.525 8     -2642.000    22846226.440    93551495.87046
     -2058.702
  22633870.404   118941792.103 8      3309.875    22633870.240    92681918.28147
      2579.123
 18  2 20  8 12 30.0000000  0  8G02G05G06G07G09G16G23G30
  21822771.027   114679433.150 8       541.113    21822765.138    89360569.86347
       421.648
  23324289.465   122569971.939 8      3200.480    23324286.569    95509047.37346
      2493.880
  21392245.652   112416997.972 9     -2204.594    21392245.801    87597652.93048
     -1717.865
  21404032.405   112478960.347 9      1980.577    21404029.301    87645931.19347
      1543.309
  20379791.504   107096542.669 9     -1289.354    20379790.663    83451850.31549
     -1004.690
  24176346.240   127047552.945 7       509.786    24176342.942    98998078.14744
       397.240
  22861330.640   120137112.495 8     -2647.560    22861325.923    93613325.42346
     -2063.035
  22615001.236   118842634.001 8      3300.843    22615001.054    92604652.23547
      2572.085
 18  2 20  8 13  0.0000000  0  8G02G05G06G07G09G16G23G30
  21819734.166   114663474.337 8       523.090    21819728.307    89348134.41548
       407.603
  23306031.331   122474024.784 8      3196.226    23306028.427    95434283.36346
      2490.566
  21404877.677   112483379.593 9     -2220.676    21404877.823    87649378.84448
     -1730.398
  21392768.575   112419768.587 9      1965.690    21392765.462    87599807.75447
      1531.707
  20387186.303   107135402.519 9     -1301.042    20387185.454    83482130.70349
     -1013.800
  24173492.529   127032556.390 7       490.107    24173489.135    98986392.54144
       381.904
  22876460.308   120216619.308 8     -2652.675    22876455.630    93675278.75646
     -2067.020
  22596182.784   118743742.386 8      3292.191    22596182.577    92527593.83047
      2565.342
 18  2 20  8 13 30.0000000  0  8G02G05G06G07G09G16G23G30
  21816801.931   114648065.352 8       504.418    21816796.094    89336127.40948
       393.053
  23287799.250   122378214.649 8      3191.247    23287796.348    95359626.12746
      2486.687
  21417602.592   112550249.375 8     -2237.047    21417602.745    87701485.12948
     -1743.154
  21381591.606   112361033.384 9      1950.147    21381588.467    87554040.09247
      1519.598
  20394649.312   107174620.867 9     -1313.305    20394648.470    83512690.44649
     -1023.353
  24170752.727   127018158.374 7       469.989    24170749.270    98975173.30344
       366.229
  22891620.029   120296283.972 8     -2658.138    22891615.375    93737355.08046
     -2071.277
  22577415.514   118645119.919 8      3282.685    22577415.298    92450745.18348
      2557.937
 18  2 20  8 14  0.0000000  0  8G02G05G06G07G09G16G23G30
  21813974.377   114633206.410 8       486.327    21813968.551    89324548.99748
       378.955
  23269593.367   122282542.190 8      3186.989    23269590.482    95285076.15947
      2483.367
  21430419.933   112617604.936 9     -2253.113    21430420.136    87753969.93048
     -1755.675
  21370501.782   112302756.120 9      1935.167    21370498.622    87508629.24747
      1507.922
  20402180.274   107214196.281 9     -1324.885    20402179.452    83543528.40949
     -1032.380
  24168126.960   127004359.707 7       450.101    24168123.499    98964421.09544
       350.729
  22906809.562   120376105.265 9     -2663.103    22906804.915    93799553.46046
     -2075.146
  22558699.868   118546768.798 8      3273.995    22558699.692    92374107.96348
      2551.166
 18  2 20  8 14 30.0000000  0  8G02G05G06G07G09G16G23G30
  21811251.299   114618896.481 8       467.580    21811245.468    89313398.39647
       364.348
  23251413.664   122187007.340 8      3181.997    23251410.795    95210633.42546
      2479.479
  21443328.902   112685441.997 9     -2269.382    21443329.182    87806829.91448
     -1768.353
  21359498.993   112244936.389 9      1919.456    21359495.813    87463574.94647
      1495.682
  20409778.540   107254125.489 9     -1337.050    20409777.726    83574642.08149
     -1041.857
  24165615.027   126991159.278 7       429.658    24165611.593    98954135.04344
       334.798
  22922028.293   120456079.978 8     -2668.639    22922023.633    93861871.39846
     -2079.461
  22540035.906   118448689.468 8      3264.578    22540035.790    92297682.54548
      2543.826
 18  2 20  8 15  0.0000000  0  8G02G05G06G07G09G16G23G30
  21808632.297   114605133.388 8       450.109    21808626.460    89302673.89247
       350.733
  23233260.231   122091610.469 8      3177.959    23233257.379    95136298.20346
      2476.332
  21456328.676   112753756.268 9     -2284.627    21456328.996    87860061.77548
     -1780.229
  21348583.120   112187573.439 9      1904.870    21348579.927    87418876.57647
      1484.315
  20417443.508   107294405.167 9     -1348.034    20417442.699    83606028.83849
     -1050.417
  24163216.723   126978555.901 7       410.674    24163213.308    98944314.19043
       320.000
  22937275.599   120536204.808 9     -2672.894    22937270.912    93924306.30946
     -2082.775
  22521423.743   118350882.264 8      3256.173    22521423.689    92221469.15047
      2537.277
 18  2 20  8 15 30.0000000  0  8G02G05G06G07G09G16G23G30
  21806118.212   114591921.677 9       431.584    21806112.365    89292379.03847
       336.299
  23215133.862   121996355.744 8      3173.136    23215131.025    95062073.73946
      2472.571
  21469419.529   112822549.133 9     -2300.800    21469419.839    87913666.58448
     -1792.833
  21337755.153   112130672.480 9      1889.356    21337751.967    87374538.19547
      1472.226
  20425175.644   107335037.787 9     -1359.944    20425174.841    83637690.60349
     -1059.698
  24160932.852   126966554.154 7       390.235    24160929.412    98934962.19844
       304.080
  22952551.946   120616482.206 8     -2678.162    22952547.224    93986860.10246
     -2086.881
  22502864.536   118253353.270 8      3246.691    22502864.525    92145472.52747
      2529.889
 18  2 20  8 16  0.0000000  0  8G02G05G06G07G09G16G23G30
  21803709.033   114579261.280 9       412.644    21803703.160    89282513.78747
       321.540
  23197034.807   121901244.644 8      3167.800    23197031.972    94987961.21946
      2468.416
  21482600.867   112891817.408 9     -2317.058    21482601.153    87967641.84148
     -1805.499
  21327015.155   112074233.824 9      1873.444    21327011.980    87330560.05547
      1459.828
  20432974.504   107376021.100 9     -1372.065    20432973.706    83669625.64549
     -1069.143
  24158763.479   126955154.011 7       370.036    24158760.048    98926078.95644
       288.340
  22967856.972   120696910.366 8     -2683.471    22967852.209    94049531.38546
     -2091.017
  22484358.542   118156103.962 8      3236.806    22484358.577    92069693.84247
      2522.186
 18  2 20  8 16 30.0000000  0  8G02G05G06G07G09G16G23G30
  21801405.141   114567154.020 8       394.126    21801399.229    89273079.53247
       307.109
  23178963.740   121806280.551 8      3162.868    23178960.896    94913963.23146
      2464.571
  21495872.602   112961560.613 9     -2332.826    21495872.869    88021987.16548
     -1817.788
  21316363.818   112018260.878 9      1857.775    21316360.647    87286944.77447
      1447.617
  20440840.216   107417355.679 9     -1383.915    20440839.425    83701834.39449
     -1078.376
  24156709.095   126944358.003 7       349.634    24156705.690    98917666.43544
       272.435
  22983190.778   120777489.687 8     -2688.652    22983185.979    94112320.43846
     -2095.056
  22465906.512   118059138.481 8      3227.185    22465906.620    91994136.34747
      2514.690
 18  2 20  8 17  0.0000000  0  8G02G05G06G07G09G16G23G30
  21799206.136   114555598.136 8       375.982    21799200.200    89264074.95547
       292.974
  23160920.324   121711461.692 8      3158.249    23160917.459    94840078.40146
      2460.972
  21509233.774   113031773.859 9     -2348.231    21509234.013    88076698.78148
     -1829.792
  21305800.879   111962752.404 9      1842.598    21305797.713    87243691.42848
      1435.790
  20448772.047   107459037.725 9     -1395.211    20448771.263    83734313.90449
     -1087.178
  24154769.356   126934164.696 7       329.644    24154765.964    98909723.61044
       256.864
  22998552.706   120858216.838 8     -2693.312    22998547.874    94175224.69746
     -2098.688
  22447508.445   117962456.746 8      3217.958    22447508.655    91918799.96847
      2507.500
 18  2 20  8 17 30.0000000  0  8G02G05G06G07G09G16G23G30
  21797111.966   114544593.215 8       357.991    21797106.041    89255499.69448
       278.954
  23142904.813   121616789.422 8      3153.462    23142901.917    94766307.80346
      2457.243
  21522683.771   113102453.805 9     -2363.486    21522683.992    88131774.04548
     -1841.679
  21295326.452   111907709.000 9      1827.267    21295323.299    87200800.47448
      1423.844
  20456769.577   107501064.934 9     -1406.459    20456768.796    83767062.36749
     -1095.943
  24152944.221   126924573.478 7       309.863    24152940.817    98902249.91144
       241.452
  23013942.373   120939089.677 8     -2697.939    23013937.526    94238242.45846
     -2102.292
  22429164.655   117866060.057 8      3208.700    22429164.964    91843685.68247
      2500.284
 18  2 20  8 18  0.0000000  0  8G02G05G06G07G09G16G23G30
  21795123.095   114534141.624 8       338.671    21795117.187    89247355.59548
       263.900
  23124918.022   121522268.016 8      3147.758    23124915.095    94692654.76147
      2452.798
  21536222.554   113173600.377 8     -2379.658    21536222.778    88187212.90848
     -1854.281
  21284941.276   111853134.489 9      1810.922    21284938.134    87158274.87348
      1411.107
  20464832.996   107543438.324 9     -1418.743    20464832.200    83800080.58449
     -1105.515
  24151234.263   126915587.543 7       289.062    24151230.842    98895247.86244
       225.242
  23029359.872   121020108.800 8     -2703.469    23029355.023    94301374.20846
     -2106.601
  22410876.056   117769953.138 8      3198.233    22410876.427    91768797.17847
      2492.130
 18  2 20  8 18 30.0000000  0  8G02G05G06G07G09G16G23G30
  21793239.576   114524243.663 8       320.666    21793233.688    89239642.89248
       249.869
  23106960.093   121427898.317 9      3143.168    23106957.133    94619119.95246
      2449.224
  21549849.566   113245210.761 9     -2394.711    21549849.813    88243013.18948
     -1866.009
  21274645.441   111799029.480 9      1795.768    21274642.292    87116115.14248
      1399.300
  20472961.967   107586156.155 9     -1429.523    20472961.132    83833367.20649
     -1113.913
  24149639.491   126907207.002 7       269.412    24149636.069    98888717.56644
       209.934
  23044804.947   121101272.881 8     -2707.840    23044800.098    94364618.91346
     -2110.006
  22392642.980   117674137.827 8      3189.069    22392643.361    91694135.90647
      2484.989
 18  2 20  8 19  0.0000000  0  8G02G05G06G07G09G16G23G30
  21791461.566   114514900.165 8       302.267    21791455.717    89232362.22848
       235.533
  23089031.528   121333682.870 9      3138.069    23089028.538    94545705.33047
      2445.250
  21563564.517   113317283.373 9     -2409.903    21563564.785    88299173.65348
     -1877.847
  21264439.400   111745396.288 9      1779.997    21264436.237    87074323.06548
      1387.012
  20481156.404   107629217.978 9     -1440.984    20481155.515    83866921.86549
     -1122.844
  24148160.277   126899433.496 7       249.026    24148156.906    98882660.23144
       194.042
  23060277.560   121182581.714 8     -2712.544    23060272.722    94427976.41146
     -2113.670
  22374466.029   117578617.326 8      3179.249    22374466.393    91619704.35547
      2477.338
 18  2 20  8 19 30.0000000  0  8G02G05G06G07G09G16G23G30
  21789788.962   114506110.598 8       283.618    21789783.145    89225513.20848
       221.001
  23071132.373   121239621.908 9      3132.568    23071129.359    94472411.07446
      2440.962
  21577366.794   113389814.878 9     -2425.523    21577367.084    88355691.69548
     -1890.018
  21254323.212   111692235.327 9      1764.018    21254320.041    87032898.96648
      1374.560
  20489415.871   107672621.544 9     -1452.668    20489414.932    83900742.81049
     -1131.950
  24146796.503   126892266.776 7       228.530    24146793.180    98877075.75944
       178.070
  23075777.305   121264033.134 8     -2717.623    23075772.484    94491445.00546
     -2117.629
  22356345.440   117483393.022 8      3169.024    22356345.783    91545503.60947
      2469.371
 18  2 20  8 20  0.0000000  0  8G02G05G06G07G09G16G23G30
  21788222.069   114497876.601 8       264.931    21788216.259    89219097.11947
       206.439
  23053263.031   121145717.687 9      3127.193    23053259.993    94399238.96846
      2436.774
  21591256.141   113462803.815 9     -2440.938    21591256.449    88412566.16148
     -1902.030
  21244297.307   111639548.970 9      1747.953    21244294.149    86991844.69848
      1362.042
  20497740.303   107716366.554 9     -1464.205    20497739.323    83934829.82249
     -1140.940
  24145548.483   126885708.347 7       208.231    24145545.186    98871965.29544
       162.259
  23091304.177   121345627.177 8     -2722.469    23091299.387    94555024.74446
     -2121.405
  22338281.841   117388468.232 8      3158.862    22338282.166    91471536.25547
      2461.451
 18  2 20  8 20 30.0000000  0  8G02G05G06G07G09G16G23G30
  21786760.763   114490197.470 8       247.042    21786754.959    89213113.38947
       192.501
  23035423.767   121051971.512 8      3122.426    23035420.704    94326190.00246
      2433.059
  21605231.931   113536246.930 9     -2455.384    21605232.250    88469794.52948
     -1913.286
  21234361.760   111587337.475 9      1732.646    21234358.632    86951160.43848
      1350.114
  20506129.293   107760450.849 9     -1474.859    20506128.291    83969181.21749
     -1149.240
  24144416.179   126879757.992 7       188.204    24144412.865    98867328.65944
       146.651
  23106857.783   121427361.720 8     -2726.651    23106853.032    94618713.96646
     -2124.664
  22320275.540   117293844.458 9      3149.235    22320275.844    91397803.45648
      2453.950
 18  2 20  8 21  0.0000000  0  8G02G05G06G07G09G16G23G30
  21785405.341   114483074.677 8       227.674    21785399.561    89207563.15248
       177.408
  23017615.313   120958387.289 9      3116.380    23017612.228    94253267.23946
      2428.348
  21619293.910   113610143.020 9     -2471.109    21619294.226    88527375.88848
     -1925.539
  21224517.087   111535603.427 9      1716.083    21224513.972    86910848.19747
      1337.208
  20514582.849   107804874.418 9     -1486.744    20514581.849    84003796.97049
     -1158.503
  24143399.948   126874417.670 7       167.304    24143396.633    98863167.37944
       130.367
  23122438.136   121509236.757 8     -2731.912    23122433.420    94682512.65746
     -2128.765
  22302327.201   117199525.223 9      3138.492    22302327.482    91324307.96948
      2445.579
 18  2 20  8 21 30.0000000  0  8G02G05G06G07G09G16G23G30
  21784155.536   114476506.889 8       209.555    21784149.799    89202445.38548
       163.289
  22999837.595   120864964.493 9      3111.345    22999834.483    94180470.23946
      2424.425
  21633441.314   113684487.933 8     -2485.558    21633441.635    88585306.96048
     -1936.799
  21214763.196   111484346.376 9      1700.590    21214760.078    86870907.63747
      1325.137
  20523100.401   107849634.314 9     -1497.608    20523099.428    84038674.78649
     -1166.968
  24142499.577   126869686.262 7       147.409    24142496.282    98859480.58243
       114.865
  23138044.691   121591249.479 8     -2736.063    23138039.991    94746418.64146
     -2131.998
  22284436.981   117105511.265 9      3128.668    22284437.239    91251050.34348
      2437.924
 18  2 20  8 22  0.0000000  0  8G02G05G06G07G09G16G23G30
  21783011.448   114470494.666 8       190.729    21783005.733    89197760.53248
       148.620
  22982090.938   120771705.013 8      3105.402    22982087.792    94107800.51846
      2419.796
  21647673.722   113759279.611 8     -2500.822    21647674.078    88643586.14648
     -1948.693
  21205100.353   111433568.038 9      1684.207    21205097.240    86831340.14247
      1312.370
  20531681.740   107894729.544 9     -1509.196    20531680.814    84073813.90849
     -1175.997
  24141715.231   126865564.593 7       126.615    24141711.927    98856268.91343
        98.665
  23153677.310   121673399.173 8     -2740.906    23153672.607    94810431.35946
     -2135.770
  22266605.354   117011805.183 9      3117.963    22266605.580    91178032.62748
      2429.583
 18  2 20  8 22 30.0000000  0  8G02G05G06G07G09G16G23G30
  21781973.778   114465041.644 8       172.313    21781968.055    89193511.41048
       134.271
  22964376.195   120678613.323 8      3100.063    22964373.025    94035261.55446
      2415.635
  21661991.289   113834519.030 8     -2515.746    21661991.718    88702214.21648
     -1960.322
  21195529.475   111383273.050 9      1668.214    21195526.399    86792149.26948
      1299.907
  20540327.303   107940162.368 9     -1520.262    20540326.424    84109216.10149
     -1184.619
  24141047.612   126862056.381 7       106.810    24141044.243    98853535.26844
        83.230
  23169336.479   121755688.375 8     -2745.494    23169331.769    94874552.77246
     -2139.346
  22248833.426   116918412.811 9      3107.691    22248833.610    91105259.36248
      2421.579
 18  2 20  8 23  0.0000000  0  8G02G05G06G07G09G16G23G30
  21781042.424   114460147.391 8       153.647    21781036.682    89189697.70247
       119.726
  22946693.619   120585690.617 8      3094.367    22946690.432    93962854.24046
      2411.195
  21676393.367   113910202.782 9     -2530.240    21676393.850    88761188.56048
     -1971.616
  21186050.674   111333461.856 9      1652.064    21186047.648    86753335.35848
      1287.322
  20549036.689   107985930.590 9     -1531.389    20549035.838    84144879.65049
     -1193.290
  24140496.768   126859161.729 7        86.271    24140493.330    98851279.69044
        67.224
  23185021.814   121838115.178 8     -2750.066    23185017.098    94938781.41446
     -2142.908
  22231121.441   116825335.557 8      3097.149    22231121.583    91032731.66148
      2413.364
 18  2 20  8 23 30.0000000  0  8G02G05G06G07G09G16G23G30
  21780217.322   114455811.498 8       135.268    21780211.556    89186319.08447
       105.404
  22929043.607   120492939.128 9      3089.137    22929040.397    93890580.35546
      2407.120
  21690879.473   113986327.951 9     -2544.599    21690879.993    88820506.85948
     -1982.805
  21176664.078   111284135.151 9      1636.386    21176661.086    86714898.97647
      1275.105
  20557809.582   108032032.462 9     -1542.017    20557808.744    84180803.18149
     -1201.571
  24140062.550   126856880.147 7        65.866    24140059.061    98849501.87844
        51.328
  23200733.011   121920677.855 8     -2754.113    23200728.298    95003115.90246
     -2146.066
  22213469.738   116732575.266 8      3087.024    22213469.853    90960450.96448
      2405.476
 18  2 20  8 24  0.0000000  0  8G02G05G06G07G09G16G23G30
  21779498.212   114452032.565 8       116.628    21779492.413    89183374.45948
        90.879
  22911425.970   120400357.876 9      3083.264    22911422.750    93818439.13846
      2402.545
  21705448.779   114062890.173 9     -2559.436    21705449.320    88880165.72348
     -1994.364
  21167369.612   111235292.473 9      1620.015    21167366.618    86676839.75747
      1262.350
  20566645.389   108078464.899 9     -1553.137    20566644.566    84216984.29049
     -1210.235
  24139744.738   126855210.152 7        45.559    24139741.234    98848200.59544
        35.503
  23216469.451   122003373.373 8     -2758.708    23216464.737    95067553.92846
     -2149.643
  22195878.445   116640132.457 8      3076.104    22195878.552    90888417.64548
      2396.966
 18  2 20  8 24 30.0000000  0  8G02G05G06G07G09G16G23G30
  21778885.058   114448810.348 9        98.355    21778879.237    89180863.62248
        76.641
  22893841.059   120307948.611 8      3077.636    22893837.849    93746431.92246
      2398.159
  21720100.842   114139887.081 9     -2573.532    21720101.382    88940163.29648
     -2005.351
  21158167.538   111186935.243 9      1603.968    21158164.517    86639158.80247
      1249.846
  20575543.889   108125226.756 9     -1564.020    20575543.093    84253422.08249
     -1218.717
  24139543.484   126854152.621 7        25.243    24139539.997    98847376.55144
        19.669
  23232231.048   122086201.088 8     -2762.902    23232226.328    95132094.95145
     -2152.913
  22178348.022   116548009.544 8      3065.459    22178348.132    90816633.59048
      2388.671
 18  2 20  8 25  0.0000000  0  8G02G05G06G07G09G16G23G30
  21778377.698   114446144.069 9        79.322    21778371.855    89178785.99848
        61.810
  22876288.846   120215711.185 9      3071.166    22876285.651    93674558.59946
      2393.117
  21734834.907   114217314.892 9     -2588.435    21734835.417    89000496.64148
     -2016.962
  21149057.688   111139062.681 9      1587.347    21149054.625    86601855.51847
      1236.895
  20584504.583   108172315.471 9     -1575.324    20584503.812    84290114.57549
     -1227.525
  24139458.665   126853706.947 7         4.166    24139455.230    98847029.27444
         3.247
  23248017.357   122169158.633 8     -2767.680    23248012.623    95196737.13745
     -2156.637
  22160878.661   116456207.527 9      3054.328    22160878.771    90745099.58848
      2379.998
 18  2 20  8 25 30.0000000  0  8G02G05G06G07G09G16G23G30
  21777977.046   114444038.392 8        60.508    21777971.163    89177145.18848
        47.147
  22858770.887   120123653.850 8      3065.277    22858767.705    93602825.63347
      2388.528
  21749651.363   114295175.739 8     -2602.865    21749651.837    89061167.40848
     -2028.209
  21140041.309   111091681.290 9      1570.892    21140038.190    86564934.96148
      1224.071
  20593528.135   108219734.491 9     -1586.418    20593527.371    84327064.45149
     -1236.170
  24139491.172   126853877.833 7       -16.060    24139487.800    98847162.42443
       -12.514
  23263829.009   122252249.375 8     -2772.197    23263824.254    95261483.12945
     -2160.155
  22143471.742   116364733.464 9      3043.255    22143471.840    90673821.10948
      2371.367
 18  2 20  8 26  0.0000000  0  8G02G05G06G07G09G16G23G30
  21777682.276   114442489.126 9        42.204    21777676.323    89175937.95647
        32.886
  22841286.357   120031772.116 8      3059.518    22841283.185    93531229.49446
      2384.041
  21764548.834   114373462.433 8     -2616.803    21764549.294    89122170.00448
     -2039.066
  21131117.716   111044787.434 9      1554.878    21131114.537    86528394.29547
      1211.594
  20602613.418   108267477.894 9     -1596.943    20602612.640    84364267.09448
     -1244.371
  24139640.120   126854660.759 7       -36.536    24139636.785    98847772.51743
       -28.469
  23279664.973   122335467.768 8     -2776.220    23279660.206    95326328.58045
     -2163.290
  22126126.782   116273584.952 9      3032.550    22126126.837    90602796.31748
      2363.027
 18  2 20  8 26 30.0000000  0  8G02G05G06G07G09G16G23G30
  21777494.519   114441502.294 8        23.524    21777488.506    89175169.00548
        18.331
  22823836.973   119940075.026 8      3053.663    22823833.798    93459777.22646
      2379.480
  21779528.010   114452178.484 8     -2630.926    21779528.493    89183507.14248
     -2050.072
  21122288.284   110998388.435 9      1538.450    21122285.046    86492239.25148
      1198.794
  20611761.328   108315550.430 9     -1607.805    20611760.512    84401726.22049
     -1252.834
  24139906.747   126856062.109 7       -57.276    24139903.443    98848864.48444
       -44.629
  23295526.194   122418818.873 8     -2780.476    23295521.417    95391277.46145
     -2166.604
  22108845.358   116182770.304 9      3021.565    22108845.352    90532031.67948
      2354.467
 18  2 20  8 27  0.0000000  0  8G02G05G06G07G09G16G23G30
  21777412.480   114441070.994 8         5.478    21777406.461    89174832.90848
         4.266
  22806421.648   119848556.963 8      3047.826    22806418.472    93388464.47247
      2374.930
  21794587.066   114531314.449 8     -2644.538    21794587.593    89245171.49748
     -2060.681
  21113551.911   110952478.367 9      1522.514    21113548.631    86456465.18048
      1186.374
  20620970.342   108363944.010 9     -1618.118    20620969.489    84439435.49049
     -1260.873
  24140289.906   126858075.734 7       -76.914    24140286.635    98850433.51443
       -59.934
  23311411.144   122502294.578 8     -2784.329    23311406.354    95456323.42446
     -2169.608
  22091626.593   116092284.923 9      3010.947    22091626.530    90461523.60648
      2346.193
 18  2 20  8 27 30.0000000  0  8G02G05G06G07G09G16G23G30
  21777436.618   114441197.882 8       -13.341    21777430.590    89174931.78847
       -10.395
  22789041.146   119757221.840 9      3041.699    22789037.974    93317294.25446
      2370.154
  21809726.035   114610870.479 9     -2658.611    21809726.593    89307163.19847
     -2071.647
  21104909.298   110907060.961 9      1505.956    21104905.986    86421075.00248
      1173.472
  20630240.717   108412660.096 9     -1628.996    20630239.839    84477396.07149
     -1269.349
  24140790.075   126860704.255 7       -97.558    24140786.831    98852481.69043
       -76.022
  23327320.190   122585896.811 8     -2788.629    23327315.379    95521467.97045
     -2172.960
  22074471.420   116002133.835 9      2999.725    22074471.315    90391276.04048
      2337.449
 18  2 20  8 28  0.0000000  0  8G02G05G06G07G09G16G23G30
  21777566.749   114441881.747 8       -31.910    21777560.699    89175464.66747
       -24.865
  22771695.672   119666070.743 9      3035.365    22771692.502    93246267.42146
      2365.220
  21824944.200   114690842.602 9     -2672.455    21824944.769    89369479.13848
     -2082.433
  21096360.401   110862136.038 9      1489.524    21096357.065    86386068.57948
      1160.668
  20639571.954   108461696.009 9     -1639.642    20639571.062    84515605.86349
     -1277.644
  24141406.988   126863946.255 7      -118.200    24141403.771    98855007.90544
       -92.107
  23343252.809   122669622.958 8     -2792.806    23343247.975    95586709.08846
     -2176.215
  22057380.032   115912317.951 9      2988.529    22057379.904    90321289.66148
      2328.725
 18  2 20  8 28 30.0000000  0  8G02G05G06G07G09G16G23G30
  21777803.312   114443124.917 8       -50.788    21777797.245    89176433.36348
       -39.575
  22754386.017   119575107.876 9      3028.857    22754382.847    93175387.26547
      2360.150
  21840241.519   114771230.485 9     -2686.562    21840242.091    89432119.04348
     -2093.423
  21087905.889   110817707.236 9      1472.518    21087902.537    86351448.75948
      1147.418
  20648964.250   108511052.808 9     -1650.711    20648963.347    84554065.70049
     -1286.267
  24142141.183   126867804.591 7      -138.927    24142137.974    98858014.40544
      -108.255
  23359209.305   122753474.527 8     -2797.302    23359204.458    95652047.92846
     -2179.717
  22040353.270   115822841.773 9      2976.741    22040353.116    90251567.99948
      2319.541
 18  2 20  8 29  0.0000000  0  8G02G05G06G07G09G16G23G30
  21778146.193   114444926.829 8       -69.298    21778140.138    89177837.44447
       -53.999
  22737112.252   119484333.592 8      3022.737    22737109.100    93104654.05146
      2355.380
  21855617.396   114852030.972 9     -2700.085    21855617.967    89495080.43948
     -2103.963
  21079545.773   110773774.485 9      1456.275    21079542.421    86317215.45548
      1134.761
  20658417.241   108560728.603 9     -1661.061    20658416.336    84592774.10448
     -1294.333
  24142992.592   126872278.665 7      -159.230    24142989.400    98861500.65344
      -124.077
  23375189.341   122837449.744 8     -2801.031    23375184.500    95717483.10746
     -2182.623
  22023391.465   115733706.968 9      2965.625    22023391.285    90182112.33348
      2310.879
 18  2 20  8 29 30.0000000  0  8G02G05G06G07G09G16G23G30
  21778595.259   114447286.650 8       -87.907    21778589.239    89179676.24748
       -68.500
  22719874.777   119393750.012 9      3016.226    22719871.646    93034069.43547
      2350.307
  21871071.201   114933240.953 8     -2713.755    21871071.755    89558360.92348
     -2114.615
  21071280.206   110730338.558 9      1439.594    21071276.850    86283369.27648
      1121.762
  20667930.607   108610721.705 9     -1671.755    20667929.706    84631729.75348
     -1302.667
  24143961.125   126877368.375 7      -179.825    24143957.974    98865466.65644
      -140.123
  23391192.589   122921546.907 8     -2805.250    23391187.758    95783013.29846
     -2185.911
  22006494.944   115644915.319 9      2954.032    22006494.749    90112924.06848
      2301.845
 18  2 20  8 30  0.0000000  0  8G02G05G06G07G09G16G23G30
  21779151.256   114450208.429 8      -106.880    21779145.292    89181952.94448
       -83.283
  22702674.683   119303362.840 8      3009.602    22702671.579    92963637.86446
      2345.145
  21886603.147   115014861.672 8     -2727.588    21886603.686    89621961.46148
     -2125.393
  21063110.128   110687404.480 9      1422.769    21063106.756    86249914.16548
      1108.651
  20677504.856   108661034.802 9     -1682.453    20677503.962    84670934.75348
     -1311.002
  24145047.572   126883077.679 6      -200.866    24145044.475    98869915.44945
      -156.519
  23407219.683   123005769.455 8     -2809.517    23407214.852    95848641.21346
     -2189.234
  21989664.908   115556473.048 9      2942.176    21989664.706    90044008.04248
      2292.606
 18  2 20  8 30 30.0000000  0  8G02G05G06G07G09G16G23G30
  21779813.504   114453688.723 8      -125.454    21779807.602    89184664.85948
       -97.756
  22685511.576   119213170.138 8      3002.917    22685508.503    92893357.84547
      2339.936
  21902212.104   115096887.279 8     -2741.225    21902212.647    89685877.49448
     -2136.020
  21055035.075   110644969.714 9      1406.000    21055031.688    86216848.11748
      1095.585
  20687139.105   108711663.193 9     -1693.032    20687138.226    84710385.43849
     -1319.246
  24146251.248   126889403.060 7      -221.164    24146248.190    98874844.29944
      -172.335
  23423269.753   123090112.643 8     -2813.572    23423264.917    95914363.11046
     -2192.397
  21972901.149   115468378.948 9      2930.462    21972900.920    89975363.30448
      2283.479
 18  2 20  8 31  0.0000000  0  8G02G05G06G07G09G16G23G30
  21780581.776   114457726.199 8      -144.389    21780575.943    89187810.93048
      -112.512
  22668385.601   119123172.561 8      2996.066    22668382.561    92823229.85647
      2334.597
  21917897.372   115179313.919 9     -2754.787    21917897.941    89750106.00848
     -2146.588
  21047055.104   110603034.583 9      1388.911    21047051.706    86184171.38848
      1082.269
  20696832.921   108762604.550 9     -1703.799    20696832.072    84750079.98349
     -1327.636
  24147572.108   126896344.076 7      -242.226    24147569.074    98880252.82844
      -188.749
  23439342.385   123174574.453 8     -2817.872    23439337.544    95980177.44646
     -2195.746
  21956203.866   115380634.162 9      2918.422    21956203.587    89906990.76748
      2274.097
 18  2 20  8 31 30.0000000  0  8G02G05G06G07G09G16G23G30
  21781455.996   114462320.400 8      -162.439    21781450.239    89191390.81747
      -126.576
  22651297.132   119033372.179 8      2990.045    22651294.121    92753255.54546
      2329.906
  21933658.374   115262138.464 9     -2767.532    21933658.942    89814644.59448
     -2156.519
  21039170.215   110561599.280 9      1372.718    21039166.820    86151884.15748
      1069.650
  20706585.968   108813857.145 9     -1713.581    20706585.156    84790017.05648
     -1335.258
  24149009.930   126903899.879 7      -262.262    24149006.871    98886140.45443
      -204.357
  23455437.265   123259153.232 8     -2821.237    23455432.415    96046082.93246
     -2198.369
  21939573.377   115293240.429 9      2907.212    21939573.061    89838891.78248
      2265.361
 18  2 20  8 32  0.0000000  0  8G02G05G06G07G09G16G23G30
  21782436.299   114467472.017 9      -181.059    21782430.587    89195405.06347
      -141.085
  22634246.607   118943771.168 8      2983.346    22634243.636    92683436.57746
      2324.684
  21949494.785   115345359.087 9     -2780.754    21949495.321    89879491.81048
     -2166.822
  21031380.764   110520665.623 9      1355.917    21031377.405    86119987.81948
      1056.559
  20716398.166   108865420.554 9     -1724.081    20716397.384    84830196.32649
     -1343.440
  24150564.874   126912071.076 7      -282.766    24150561.760    98892507.60244
      -220.339
  23471554.383   123343848.933 8     -2825.253    23471549.522    96112079.53746
     -2201.498
  21923010.275   115206200.809 9      2895.266    21923009.953    89771068.71648
      2256.053
 18  2 20  8 32 30.0000000  0  8G02G05G06G07G09G16G23G30
  21783523.168   114473183.520 9      -199.896    21783517.451    89199855.58247
      -155.762
  22617234.856   118854373.971 8      2976.424    22617231.920    92613776.43846
      2319.291
  21965406.591   115428975.714 9     -2793.957    21965407.082    89944647.57848
     -2177.111
  21023687.534   110480237.579 9      1339.046    21023684.219    86088485.44548
      1043.412
  20726269.790   108917296.231 9     -1734.438    20726269.030    84870618.92048
     -1351.510
  24152237.470   126920860.517 7      -303.366    24152234.305    98899356.49843
      -236.389
  23487694.096   123428663.334 8     -2829.219    23487689.219    96178168.62846
     -2204.589
  21906515.497   115119520.212 9      2883.402    21906515.182    89703525.39247
      2246.807
 18  2 20  8 33  0.0000000  0  8G02G05G06G07G09G16G23G30
  21784717.318   114479458.669 8      -218.198    21784711.574    89204745.30348
      -170.025
  22600262.996   118765186.420 8      2969.734    22600260.094    92544279.66246
      2314.079
  21981394.000   115512989.792 8     -2806.663    21981394.436    90010113.08648
     -2187.011
  21016091.413   110440319.849 9      1322.415    21016088.114    86057380.73748
      1030.454
  20736201.338   108969486.836 9     -1744.606    20736200.590    84911286.91848
     -1359.433
  24154028.472   126930272.291 7      -323.616    24154025.286    98906690.33643
      -252.170
  23503856.990   123513599.571 8     -2832.831    23503852.082    96244352.66446
     -2207.402
  21890090.172   115033204.720 9      2871.449    21890089.858    89636266.58248
      2237.493
 18  2 20  8 33 30.0000000  0  8G02G05G06G07G09G16G23G30
  21786016.813   114486287.209 9      -237.012    21786011.057    89210066.20348
      -184.686
  22583329.538   118676200.519 9      2962.734    22583326.656    92474939.98046
      2308.623
  21997454.622   115597388.500 8     -2819.840    21997455.031    90075878.25948
     -2197.280
  21008590.622   110400902.921 9      1305.396    21008587.325    86026666.24148
      1017.191
  20746190.674   109021981.080 9     -1754.970    20746189.935    84952191.50248
     -1367.510
  24155935.982   126940296.292 7      -344.503    24155932.791    98914501.21944
      -268.445
  23520040.941   123598646.395 8     -2836.811    23520035.989    96310622.86146
     -2210.505
  21873732.836   114947246.495 9      2859.125    21873732.537    89569286.14648
      2227.890
 18  2 20  8 34  0.0000000  0  8G02G05G06G07G09G16G23G30
  21787422.625   114493674.530 9      -255.429    21787416.832    89215822.54748
      -199.036
  22566435.868   118587423.781 9      2955.856    22566432.977    92405763.30847
      2303.266
  22013588.968   115682174.924 8     -2832.511    22013589.377    90141945.57848
     -2207.152
  21001186.401   110361993.584 9      1288.603    21001183.101    85996347.29948
      1004.108
  20756238.636   109074783.508 9     -1765.062    20756237.895    84993336.25148
     -1375.373
  24157960.989   126950937.705 7      -364.802    24157957.791    98922793.21143
      -284.264
  23536246.844   123683808.615 8     -2840.579    23536241.837    96376982.99145
     -2213.439
  21857444.992   114861653.538 9      2847.089    21857444.723    89502590.35648
      2218.512
 18  2 20  8 34 30.0000000  0  8G02G05G06G07G09G16G23G30
  21788934.414   114501618.754 9      -274.319    21788928.584    89222012.83748
      -213.755
  22549582.000   118498856.112 9      2948.433    22549579.104    92336749.52146
      2297.479
  22029796.235   115767344.679 8     -2845.654    22029796.680    90208311.58048
     -2217.392
  20993878.604   110323590.962 9      1271.440    20993875.310    85966423.18848
       990.734
  20766344.690   109127891.183 9     -1775.661    20766343.944    85034718.85148
     -1383.632
  24160103.210   126962195.060 7      -385.546    24160100.032    98931565.16643
      -300.427
